%time,field.header.seq,field.header.stamp,field.pose.pose.position.x,field.pose.pose.position.y,field.pose.pose.position.z,field.pose.pose.orientation.x,field.pose.pose.orientation.y,field.pose.pose.orientation.z,field.pose.pose.orientation.w,field.twist.twist.linear.x,field.twist.twist.linear.y,field.twist.twist.linear.z,field.twist.twist.angular.x,field.twist.twist.angular.y,field.twist.twist.angular.z
1609056023386677000,0,1609056023386677000,0.0505348465655,-0.311477712309,1.10035851079,0.999934448771,0.00486972224498,0.00718632332586,-0.00746597096797,0.14456528499,-0.0676115987116,0.352178072354,0.0,0.0,0.0
1609056023486600000,1,1609056023486600000,0.0729976382091,-0.371710836744,1.37938308761,0.999937168511,0.00489808242149,0.00495031362413,-0.00878420248665,0.179903008023,-0.0740486751878,0.463341447222,0.0,0.0,0.0
1609056023586651000,2,1609056023586651000,0.0833206939484,-0.371835253342,1.41187441734,0.999941766938,0.00506711481434,0.00301792366658,-0.00903765556118,0.173910575328,-0.0691372901356,0.461407371128,0.0,0.0,0.0
1609056023686676000,3,1609056023686676000,0.0834580297364,-0.346623589943,1.35026807819,0.999944814425,0.00514380759633,0.00166936249711,-0.00900680727847,0.160912420285,-0.0634717590115,0.426144411374,0.0,0.0,0.0
1609056023786681000,4,1609056023786681000,0.105345666733,-0.358095883361,1.43507220859,0.999936779332,0.00505175503508,0.000148505151544,-0.010044653088,0.169528571543,-0.0597413392869,0.417217624209,0.0,0.0,0.0
1609056023886712000,5,1609056023886712000,0.102602689465,-0.331020197617,1.32572097395,0.999920525305,0.00510526831246,-0.00140030069091,-0.0114419608043,0.164904552992,-0.0470630310607,0.380860293644,0.0,0.0,0.0
1609056023986741000,6,1609056023986741000,0.118472849312,-0.337002007279,1.34309172148,0.999915045112,0.00504861298981,-0.00195548213911,-0.0118570719174,0.179919379439,-0.052189246787,0.355333216222,0.0,0.0,0.0
1609056024086772000,7,1609056024086772000,0.12636632503,-0.328510432739,1.32154263866,0.999931728737,0.00511283731222,-0.000215093847518,-0.0105047843063,0.186177175537,-0.0491370526976,0.333673425675,0.0,0.0,0.0
1609056024186830000,8,1609056024186830000,0.140746737025,-0.329974634472,1.34056901744,0.99993804679,0.00519583933553,0.0020769720566,-0.00962247483208,0.189643082199,-0.0467603333574,0.300879887223,0.0,0.0,0.0
1609056024286839000,9,1609056024286839000,0.158586979515,-0.331234570939,1.35978776233,0.999948103765,0.00535151960581,0.00388121306452,-0.00775159342425,0.193390220789,-0.0394268567366,0.281329641197,0.0,0.0,0.0
1609056024386852000,10,1609056024386852000,0.177528262593,-0.343918029762,1.41093917276,0.999941571575,0.00543319213482,0.00588164385382,-0.00726223964333,0.195401909327,-0.0372833753324,0.281081523813,0.0,0.0,0.0
1609056024486885000,11,1609056024486885000,0.204728657593,-0.356694922941,1.46458677725,0.99991451884,0.00531572298854,0.00705489517889,-0.00963984215136,0.200515610517,-0.0305900527314,0.297245125514,0.0,0.0,0.0
1609056024586936000,12,1609056024586936000,0.223580419335,-0.360761119319,1.48457876822,0.999892773419,0.00528529851255,0.00894563021971,-0.0103190592262,0.195457354375,-0.0296145501694,0.29780814699,0.0,0.0,0.0
1609056024686957000,13,1609056024686957000,0.239916968577,-0.362580387082,1.50377717607,0.999872288036,0.0052165830811,0.0104771170079,-0.010882320397,0.188392621164,-0.0350867984958,0.304055150384,0.0,0.0,0.0
1609056024787030000,14,1609056024787030000,0.247514665037,-0.355930966536,1.48275866793,0.999819497865,0.00520826140064,0.0150342586535,-0.0103834853633,0.173451379823,-0.0310288668839,0.315303799299,0.0,0.0,0.0
1609056024887071000,15,1609056024887071000,0.265534121539,-0.354368702224,1.5527945496,0.999742587026,0.00496093722284,0.0194355117991,-0.0106023426611,0.152624044339,-0.0265316537392,0.325415147065,0.0,0.0,0.0
1609056024987027000,16,1609056024987027000,0.282768352107,-0.364493637733,1.62981276596,0.999725399839,0.00485560469393,0.0213786628721,-0.00827652058715,0.124646107714,-0.0212366028589,0.340684087212,0.0,0.0,0.0
1609056025087047000,17,1609056025087047000,0.299862374245,-0.374522679076,1.69655568771,0.999712535899,0.00467410937234,0.0216541447415,-0.00917040258871,0.0965367795669,-0.024088770444,0.367405990848,0.0,0.0,0.0
1609056025187085000,18,1609056025187085000,0.308464700994,-0.38441794233,1.74956739409,0.999760196531,0.00460840419277,0.0190726441428,-0.00972349160431,0.0692380814403,-0.0235100362687,0.366048485026,0.0,0.0,0.0
1609056025287099000,19,1609056025287099000,0.31323580172,-0.384193647261,1.78761954906,0.999769123456,0.00459272891388,0.0176901109132,-0.0112989646333,0.0499690241265,-0.024754624483,0.419825454299,0.0,0.0,0.0
1609056025387125000,20,1609056025387125000,0.313050730403,-0.383003134529,1.81546824525,0.999777232693,0.00440920208045,0.0164934691219,-0.0124100524309,0.0274827112706,-0.0298209822021,0.42920974748,0.0,0.0,0.0
1609056025487212000,21,1609056025487212000,0.314316295739,-0.386800615834,1.85626915359,0.999770563874,0.00417294675929,0.0157995376855,-0.0138484921676,0.0106820415759,-0.040437178907,0.451966819458,0.0,0.0,0.0
1609056025587254000,22,1609056025587254000,0.314673886943,-0.391118163152,1.88486018681,0.99976481608,0.00406762449017,0.0155986516517,-0.0145068613338,-0.00319625924349,-0.0532162400479,0.451655384263,0.0,0.0,0.0
1609056025687253000,23,1609056025687253000,0.312695491736,-0.393934863084,1.91757758888,0.999768127585,0.00404539667976,0.0149536207958,-0.0149571072033,-0.0158726240749,-0.0651500466604,0.477058265855,0.0,0.0,0.0
1609056025787272000,24,1609056025787272000,0.304612935944,-0.397531878805,1.95739127504,0.999782377911,0.00410134698139,0.014947989555,-0.0139618544195,-0.0313103834997,-0.0772673441116,0.467467971331,0.0,0.0,0.0
1609056025887333000,25,1609056025887333000,0.300032688894,-0.4026173789,1.99154560557,0.999802116473,0.00415957425142,0.0152002313851,-0.0121399671894,-0.0461999837048,-0.0878649802016,0.466210770138,0.0,0.0,0.0
1609056025987396000,26,1609056025987396000,0.297555305328,-0.406938948004,2.0150623932,0.999806499488,0.0041114319696,0.0160434639259,-0.0106144699988,-0.0558082368381,-0.0914866572473,0.469397407856,0.0,0.0,0.0
1609056026087379000,27,1609056026087379000,0.289018904528,-0.412063802613,2.04524102891,0.999768577866,0.00410042729884,0.0178871846667,-0.0112261227571,-0.0729920597964,-0.0960673655448,0.474299087447,0.0,0.0,0.0
1609056026187387000,28,1609056026187387000,0.269471685998,-0.419001517557,2.08755637565,0.999744324863,0.00422142011925,0.0189691639163,-0.0115600751238,-0.097712417209,-0.0964335401704,0.470355322496,0.0,0.0,0.0
1609056026287412000,29,1609056026287412000,0.256870598958,-0.43020708236,2.12912038132,0.999737160682,0.00421488312125,0.0195382439516,-0.0112294850467,-0.122096472821,-0.107838344526,0.466068314803,0.0,0.0,0.0
1609056026387554000,30,1609056026387554000,0.243212974731,-0.443236404057,2.18266627098,0.999755666784,0.00409491224698,0.0196241945785,-0.00931286278489,-0.138480247962,-0.1163282599,0.455566824437,0.0,0.0,0.0
1609056026487501000,31,1609056026487501000,0.225606666832,-0.455739390852,2.2304621454,0.999759211363,0.00409953817227,0.0200264002846,-0.0079784943773,-0.157716990961,-0.116957034694,0.443807630068,0.0,0.0,0.0
1609056026587519000,32,1609056026587519000,0.207135155206,-0.466903371171,2.26515252767,0.999779921668,0.00428605018491,0.0196591649575,-0.00593761202138,-0.178275961447,-0.112221636361,0.432486295128,0.0,0.0,0.0
1609056026687569000,33,1609056026687569000,0.188122197098,-0.476837764425,2.30020320938,0.999801699137,0.00448576351251,0.0184781338366,-0.00591598666392,-0.194040669946,-0.114350934914,0.426529868429,0.0,0.0,0.0
1609056026787540000,34,1609056026787540000,0.165015224546,-0.486825472021,2.33809693561,0.99979934269,0.00457127998575,0.0180562160174,-0.00737230075933,-0.211001805633,-0.108926763396,0.43824566927,0.0,0.0,0.0
1609056026887629000,35,1609056026887629000,0.134379161079,-0.496748425545,2.38071335779,0.99980754774,0.00469143373481,0.0175457066293,-0.00741661046965,-0.228290559507,-0.106240641804,0.435880135231,0.0,0.0,0.0
1609056026987650000,36,1609056026987650000,0.0970819815552,-0.508225922517,2.43463446548,0.999835688846,0.00475344783951,0.0151260754587,-0.00878646026625,-0.243437039191,-0.106927787624,0.40726865614,0.0,0.0,0.0
1609056027087649000,37,1609056027087649000,0.0675720403868,-0.521126686532,2.48390024383,0.999868499115,0.00487290197583,0.0120420374279,-0.00970714370729,-0.250803785485,-0.10834781513,0.409169209826,0.0,0.0,0.0
1609056027187675000,38,1609056027187675000,0.0485648316545,-0.529329004994,2.52156046407,0.99988529439,0.0047627481069,0.0100826233072,-0.0102496342016,-0.247006138444,-0.118674202433,0.408437603087,0.0,0.0,0.0
1609056027287758000,39,1609056027287758000,0.0219807550437,-0.539195766507,2.55394847654,0.999909165677,0.0046298881722,0.00826777164658,-0.00958480475455,-0.242225236834,-0.115005744192,0.409027494694,0.0,0.0,0.0
1609056027387779000,40,1609056027387779000,-0.00759633488435,-0.552381170354,2.60025144699,0.999916260571,0.00455577928014,0.00540080745187,-0.0108419555261,-0.237724415957,-0.119348769097,0.384325005426,0.0,0.0,0.0
1609056027487817000,41,1609056027487817000,-0.0299849024499,-0.561207803312,2.62309500014,0.999944983486,0.00477702446735,0.00106132794184,-0.00927812593687,-0.216780581055,-0.123192242703,0.391416136038,0.0,0.0,0.0
1609056027587843000,42,1609056027587843000,-0.0471161589308,-0.567022668348,2.62948429988,0.999957751474,0.00501243501989,-0.00111533177041,-0.00762409321808,-0.188619765133,-0.121916294608,0.387878453342,0.0,0.0,0.0
1609056027687830000,43,1609056027687830000,-0.0675895023067,-0.57700889969,2.65209982398,0.999965935926,0.0051772344319,-0.00104625044972,-0.0063426012715,-0.164170999476,-0.120216028842,0.403510276906,0.0,0.0,0.0
1609056027787902000,44,1609056027787902000,-0.080058658746,-0.5874627068,2.67731815746,0.999975945413,0.00534845301977,0.000352616209616,-0.00440207981968,-0.136450429092,-0.110740583906,0.391048871976,0.0,0.0,0.0
1609056027887912000,45,1609056027887912000,-0.0932932681297,-0.598199817817,2.70790746867,0.999976854374,0.00532612219135,0.00142188370123,-0.00398765412146,-0.115383820788,-0.09951496019,0.382225704697,0.0,0.0,0.0
1609056027987916000,46,1609056027987916000,-0.110955942963,-0.606657405124,2.74882758643,0.999975975771,0.00522791714949,0.00202760229441,-0.00407499606295,-0.0966061327122,-0.0854311354632,0.402619213254,0.0,0.0,0.0
1609056028088013000,47,1609056028088013000,-0.126525537285,-0.617088151586,2.79881833695,0.999960881423,0.00512081558433,0.00367362562278,-0.00620623443676,-0.0846535528623,-0.072418159708,0.404471084805,0.0,0.0,0.0
1609056028187989000,48,1609056028187989000,-0.13548090175,-0.627846492058,2.84831324442,0.999950670872,0.00500703144436,0.00334050947552,-0.00790104136747,-0.0683376895366,-0.0715240988703,0.410923493806,0.0,0.0,0.0
1609056028287994000,49,1609056028287994000,-0.140872366878,-0.634765629661,2.88449637866,0.999941832226,0.00486614706098,0.0027388858225,-0.00922774518212,-0.0492619064414,-0.0717060049514,0.416206932748,0.0,0.0,0.0
1609056028388101000,50,1609056028388101000,-0.146643419257,-0.641308706314,2.92419694511,0.999945636216,0.00483535711723,0.00224170477534,-0.00896206976971,-0.0357966094691,-0.0669268619023,0.407544239018,0.0,0.0,0.0
1609056028488052000,51,1609056028488052000,-0.154174528422,-0.646037677888,2.95592103364,0.99997219394,0.00498484899127,0.00165225847883,-0.00529458865653,-0.0231224445294,-0.0538442798262,0.396640608757,0.0,0.0,0.0
1609056028588119000,52,1609056028588119000,-0.155344480557,-0.653074032323,2.99611012971,0.99997266185,0.00489179450755,0.00160083604039,-0.00530878738823,-0.00308928349439,-0.0394557614902,0.389353220752,0.0,0.0,0.0
1609056028688188000,53,1609056028688188000,-0.155596117043,-0.657149989232,3.03344043179,0.999965260974,0.00472531705889,0.00232941787407,-0.00645925974077,0.0171521894351,-0.0263031594157,0.398771351138,0.0,0.0,0.0
1609056028788159000,54,1609056028788159000,-0.154952136213,-0.660054509024,3.07276610907,0.999947502926,0.0046095164157,0.00573278186621,-0.00713294911765,0.0292905441839,-0.0167979119123,0.394683991111,0.0,0.0,0.0
1609056028888155000,55,1609056028888155000,-0.152787855749,-0.662627232893,3.11394947649,0.999933666606,0.00471257985553,0.00706036958955,-0.007784931551,0.0375027755526,-0.00384553359342,0.384715311956,0.0,0.0,0.0
1609056028988248000,56,1609056028988248000,-0.149972032936,-0.664958363057,3.1599645206,0.999921126548,0.00489430355951,0.00815976413462,-0.00819784884201,0.043786770235,0.00597302841776,0.392545546371,0.0,0.0,0.0
1609056029088279000,57,1609056029088279000,-0.160437594305,-0.663171308616,3.20697047649,0.999872954249,0.00500354492233,0.00927733449508,-0.0119570465947,0.0372873374897,0.0160070699342,0.385492070265,0.0,0.0,0.0
1609056029188304000,58,1609056029188304000,-0.149564074482,-0.664671475745,3.25510053357,0.99985785326,0.00518529669533,0.00749206665206,-0.0141864340013,0.0389172958208,0.0150492084245,0.339556900203,0.0,0.0,0.0
1609056029288360000,59,1609056029288360000,-0.143777348176,-0.663118244767,3.30166797464,0.999867807807,0.00529212185924,0.00539688553727,-0.014395623771,0.0413551610978,0.0154404692257,0.351415394331,0.0,0.0,0.0
1609056029388375000,60,1609056029388375000,-0.144429087025,-0.661287226905,3.33780228912,0.999854817097,0.00533201217808,0.00295401643337,-0.0159118873933,0.0562266637984,0.0144878629443,0.372223138628,0.0,0.0,0.0
1609056029488385000,61,1609056029488385000,-0.14349980006,-0.659103099341,3.37446349113,0.99984791126,0.00550789268734,0.0021658111989,-0.0164050824023,0.0718198864773,0.0071646432043,0.406483656934,0.0,0.0,0.0
1609056029588424000,62,1609056029588424000,-0.134920924084,-0.660209557531,3.41981426628,0.999841403775,0.00573436903931,0.00225553071454,-0.016709185824,0.0849215991601,0.00659786932256,0.410780539247,0.0,0.0,0.0
1609056029688453000,63,1609056029688453000,-0.124488717377,-0.663137825795,3.46677717445,0.999846102796,0.00579382766847,0.00202086318409,-0.0164352790157,0.100230180903,0.00353084622916,0.416999103667,0.0,0.0,0.0
1609056029788474000,64,1609056029788474000,-0.122032926892,-0.659809419748,3.48969515355,0.999863684726,0.00596509094598,0.00433247713357,-0.0147736013811,0.119490904165,-0.000200613152513,0.452029620874,0.0,0.0,0.0
1609056029888474000,65,1609056029888474000,-0.110956450828,-0.658995883315,3.5357880121,0.999860456277,0.00606152836494,0.00559786602035,-0.0145254859856,0.124365762676,0.00300025339047,0.438507359908,0.0,0.0,0.0
1609056029988532000,66,1609056029988532000,-0.0944467389841,-0.661285351155,3.60319742928,0.999871721942,0.00644960008156,0.00618816146378,-0.0132909359352,0.127194144294,0.00871126388065,0.4495658894,0.0,0.0,0.0
1609056030088539000,67,1609056030088539000,-0.0823850987834,-0.662036976855,3.65534513949,0.999862807986,0.00679371296033,0.0064009884743,-0.0136834943095,0.129545261218,0.0162385451362,0.460442385067,0.0,0.0,0.0
1609056030188578000,68,1609056030188578000,-0.0721720296159,-0.661914072887,3.70027132529,0.999845425151,0.00727966848837,0.0061316055429,-0.0147829511766,0.134399493052,0.0238526933369,0.455847282812,0.0,0.0,0.0
1609056030288624000,69,1609056030288624000,-0.0619524537825,-0.658913116993,3.74515599556,0.999810479668,0.00779248926292,0.00462416605644,-0.0172307557923,0.146579383254,0.0134031207107,0.473544795363,0.0,0.0,0.0
1609056030388625000,70,1609056030388625000,-0.0480965730562,-0.657941572718,3.79375420208,0.999793308412,0.0082350485432,0.00499382911079,-0.0179049183599,0.154607996122,0.0120037674563,0.476982603768,0.0,0.0,0.0
1609056030488733000,71,1609056030488733000,-0.0281612832783,-0.659658284641,3.84109274403,0.999758014542,0.00870121165795,0.00532269111141,-0.0194902599754,0.168844886001,0.00522692775886,0.488961429796,0.0,0.0,0.0
1609056030588671000,72,1609056030588671000,-0.0148200932187,-0.657988705748,3.88388001248,0.9997342165,0.00918022148352,0.00650849660577,-0.0201211173769,0.178786321165,-0.0131918602069,0.521356726441,0.0,0.0,0.0
1609056030688724000,73,1609056030688724000,-0.00085822713281,-0.657786173428,3.93859648281,0.999730378645,0.00961036733706,0.0114961134827,-0.0177383829242,0.179006645782,-0.00888446829849,0.517013514612,0.0,0.0,0.0
1609056030788757000,74,1609056030788757000,0.0197869743991,-0.663264552444,3.9960784264,0.999703490051,0.0110975059219,0.0122801965242,-0.0178598464521,0.17133005587,-0.00351852356766,0.51071638996,0.0,0.0,0.0
1609056030888828000,75,1609056030888828000,0.029418062799,-0.658589812336,4.05168840412,0.999633110445,0.0119601978785,0.0129397605816,-0.0205708717372,0.166436304297,-0.0233075265636,0.515140274774,0.0,0.0,0.0
1609056030988860000,76,1609056030988860000,0.046020868257,-0.658822244599,4.09942895161,0.999613148679,0.0120724113713,0.0117084328766,-0.0221522565641,0.16296700681,-0.0363107995497,0.482977202145,0.0,0.0,0.0
1609056031088869000,77,1609056031088869000,0.0614787067029,-0.662743613329,4.14961505149,0.999655635601,0.0122346095668,0.0129344401284,-0.0192775724317,0.159864224034,-0.0478287633579,0.470284333809,0.0,0.0,0.0
1609056031188920000,78,1609056031188920000,0.0758048928575,-0.668422403083,4.19922939757,0.999679690567,0.0123382895632,0.0131716446058,-0.0177423407809,0.153448769228,-0.0567546206205,0.447432264303,0.0,0.0,0.0
1609056031288939000,79,1609056031288939000,0.0899476116675,-0.674512823915,4.24707008018,0.999662713206,0.012422234328,0.0113211687297,-0.0197984610076,0.147550705514,-0.0660586636375,0.423006628467,0.0,0.0,0.0
1609056031389004000,80,1609056031389004000,0.115127177338,-0.688553533726,4.29362992481,0.999702530952,0.0144161198156,0.00656800923856,-0.0185441729845,0.156918004,-0.0720377742768,0.428001437993,0.0,0.0,0.0
1609056031489023000,81,1609056031489023000,0.136514949987,-0.701663824173,4.33220951791,0.999674026797,0.0160989456908,0.00522449162399,-0.019114622209,0.173432885961,-0.0902856653201,0.430697846116,0.0,0.0,0.0
1609056031588938000,82,1609056031588938000,0.142985950608,-0.705499504867,4.36133852857,0.999667312863,0.0172426882303,0.00645341498205,-0.0180639622302,0.183877062956,-0.104849738832,0.411797064918,0.0,0.0,0.0
1609056031689016000,83,1609056031689016000,0.158080873418,-0.717112019986,4.38998801335,0.999667284029,0.0188187886301,0.00788924741132,-0.0157776491005,0.189835165119,-0.104938872181,0.351226839441,0.0,0.0,0.0
1609056031789115000,84,1609056031789115000,0.164058142706,-0.724245732941,4.41990171164,0.999606508884,0.0216593664249,0.0103703582414,-0.0144967207505,0.189631439384,-0.118726769823,0.305360896534,0.0,0.0,0.0
1609056031889092000,85,1609056031889092000,0.179010669426,-0.732784651043,4.44603552942,0.999588336993,0.0229966427443,0.0125384959515,-0.0117088465963,0.188979504023,-0.126780292566,0.254947871063,0.0,0.0,0.0
1609056031989100000,86,1609056031989100000,0.19561005282,-0.743211830243,4.47182845194,0.999571014559,0.0242109440148,0.0143598802847,-0.00808769939467,0.181503081183,-0.121895863462,0.230462977814,0.0,0.0,0.0
1609056032089211000,87,1609056032089211000,0.207613995039,-0.754249159234,4.49234390203,0.999514489676,0.0250344618607,0.0158113881618,-0.00969848709402,0.168785829341,-0.117478015554,0.20584034985,0.0,0.0,0.0
1609056032189203000,88,1609056032189203000,0.22236369357,-0.76764395509,4.51906854144,0.999475625663,0.0256543754065,0.0161661075879,-0.0113570988091,0.15306421063,-0.125131930639,0.184788120698,0.0,0.0,0.0
1609056032289238000,89,1609056032289238000,0.23407012149,-0.78094958376,4.5485310861,0.999474142694,0.0259735454455,0.0155951783296,-0.0115586952411,0.13682665862,-0.132614828173,0.170942824131,0.0,0.0,0.0
1609056032389247000,90,1609056032389247000,0.245528269209,-0.795625044233,4.5840859529,0.999498203727,0.0262040923998,0.0137677069594,-0.0112754837088,0.124242080753,-0.135006297431,0.14964285055,0.0,0.0,0.0
1609056032489290000,91,1609056032489290000,0.253895263919,-0.810102377858,4.6140859795,0.999542422033,0.0264730611597,0.0106362327978,-0.0100495841176,0.117421175961,-0.140596927378,0.14132078452,0.0,0.0,0.0
1609056032589281000,92,1609056032589281000,0.262672472571,-0.823536614134,4.63538119728,0.999563952722,0.0265658382851,0.00771872520043,-0.010323852769,0.118132965313,-0.146801049954,0.148329049934,0.0,0.0,0.0
1609056032689314000,93,1609056032689314000,0.274893558031,-0.834239804669,4.60774490931,0.99954517926,0.0264237539812,0.00828616187391,-0.0119398226612,0.123400702526,-0.141737858446,0.184085995269,0.0,0.0,0.0
1609056032789389000,94,1609056032789389000,0.286487271675,-0.846156003273,4.60061619337,0.999553122994,0.026241647149,0.00921040756231,-0.0109589534328,0.122017794743,-0.146570909822,0.126167452539,0.0,0.0,0.0
1609056032889427000,95,1609056032889427000,0.292736990591,-0.858228753857,4.62235488346,0.999539415682,0.0259519510814,0.0114012284844,-0.0108381143728,0.117020442054,-0.150289582768,0.102088099877,0.0,0.0,0.0
1609056032989422000,96,1609056032989422000,0.30237566764,-0.874136548764,4.63642964658,0.999531235677,0.0258420861641,0.0134151472949,-0.00946199304573,0.10699412551,-0.145359944123,0.108352932836,0.0,0.0,0.0
1609056033089445000,97,1609056033089445000,0.308445996602,-0.889729637946,4.65878559511,0.999561687948,0.0258888932055,0.0129645854267,-0.00617387404531,0.0912178211529,-0.149324547413,0.1187439213,0.0,0.0,0.0
1609056033189476000,98,1609056033189476000,0.310249388053,-0.902864338983,4.67083796809,0.999581127641,0.0260207699516,0.0126568110196,-0.000542153398011,0.0765319889639,-0.130160116443,0.138582318725,0.0,0.0,0.0
1609056033289476000,99,1609056033289476000,0.320296000859,-0.919292650212,4.67567462643,0.999576934775,0.0261058481479,0.0126009959982,-0.00237719535547,0.0679564019002,-0.109364195526,0.130507569971,0.0,0.0,0.0
1609056033389525000,100,1609056033389525000,0.318657390636,-0.927436476684,4.68759055999,0.999573103704,0.0263028857631,0.0124396215191,-0.00265035238861,0.0505940434845,-0.0965090149763,0.119166465691,0.0,0.0,0.0
1609056033489636000,101,1609056033489636000,0.319493987874,-0.934324514824,4.69603199179,0.999580248856,0.0265178170391,0.0116329058038,-0.000898319831028,0.0358057220806,-0.0800138249852,0.125543373366,0.0,0.0,0.0
1609056033589583000,102,1609056033589583000,0.322731220085,-0.940241532364,4.70080303277,0.999582465747,0.0267018337107,0.0110223092709,0.000644163343223,0.026433037806,-0.0549566566197,0.11664174508,0.0,0.0,0.0
1609056033689670000,103,1609056033689670000,0.325657881561,-0.945678994196,4.71192271754,0.999575799051,0.027252137223,0.0101659803722,0.00148182688358,0.0172079172148,-0.0333036594379,0.125133207611,0.0,0.0,0.0
1609056033789649000,104,1609056033789649000,0.326153994111,-0.946893927668,4.71821480547,0.999589548976,0.0274563286798,0.00803261105158,0.00153647404767,0.00953044261305,-0.0179019099694,0.121682069927,0.0,0.0,0.0
1609056033889706000,105,1609056033889706000,0.329316268649,-0.943237534138,4.71107614034,0.999547066079,0.0277403152262,0.00814557209704,0.00835387693401,0.000213352139721,0.0192847251589,0.127307644531,0.0,0.0,0.0
1609056033989708000,106,1609056033989708000,0.347178487076,-0.954028035151,4.72250183327,0.999377404173,0.032773530218,0.00875593314901,0.00969708103944,-0.01079401642,0.0745215807294,0.104712779888,0.0,0.0,0.0
1609056034089753000,107,1609056034089753000,0.358318220975,-0.958697363905,4.73535349624,0.999140349885,0.0385418699403,0.00784967633782,0.0130945818752,-0.0197430028264,0.11494992365,0.0964823628739,0.0,0.0,0.0
1609056034189808000,108,1609056034189808000,0.35647807023,-0.944707976685,4.74293221511,0.998885682046,0.0443719361856,0.00664716027115,0.0146403805437,-0.029301832266,0.168637785844,0.0884001020041,0.0,0.0,0.0
1609056034289825000,109,1609056034289825000,0.357477954125,-0.922083336321,4.74673597637,0.99864712811,0.0495871837909,0.0061214658944,0.0144066781909,-0.0427351883786,0.213925002159,0.0806664586217,0.0,0.0,0.0
1609056034389840000,110,1609056034389840000,0.351842377369,-0.900238598072,4.75264470204,0.998404378014,0.0551003473584,0.00493955100679,0.0113247745929,-0.0509378673882,0.266773798993,0.0677425002582,0.0,0.0,0.0
1609056034489849000,111,1609056034489849000,0.34554740384,-0.857102802895,4.74154615968,0.998113501678,0.0602298361889,0.00537160280723,0.0106278164759,-0.0609623097778,0.304812940722,0.0636098663164,0.0,0.0,0.0
1609056034589879000,112,1609056034589879000,0.328413731485,-0.818980358333,4.73840610265,0.997823845218,0.0646928103809,0.00678135576892,0.0107901535418,-0.0681241585961,0.345649197642,0.0606808887983,0.0,0.0,0.0
1609056034689949000,113,1609056034689949000,0.324967599984,-0.774841200418,4.74093200657,0.997468750803,0.0694759877612,0.00860792432428,0.0124531897528,-0.0799180637191,0.404048468655,0.0736244939579,0.0,0.0,0.0
1609056034789951000,114,1609056034789951000,0.308786210542,-0.728163496368,4.73915668642,0.997047830649,0.0748467122542,0.0114080372802,0.012784746717,-0.0987184348616,0.447168200172,0.0542523743013,0.0,0.0,0.0
1609056034890028000,115,1609056034890028000,0.301032008828,-0.673502945368,4.74128636225,0.996520094361,0.0815360421242,0.0133990996412,0.0109562538639,-0.120900255748,0.505464091606,0.0658806739959,0.0,0.0,0.0
1609056034990010000,116,1609056034990010000,0.291240766979,-0.618610566088,4.75031624917,0.996057933897,0.0873355587449,0.0127888864229,0.00880550307364,-0.145407860185,0.520775385741,0.0267593620609,0.0,0.0,0.0
1609056035090001000,117,1609056035090001000,0.277419745324,-0.549497005473,4.75190029378,0.995723926009,0.0918093349549,0.009756538299,0.00311755488435,-0.163309126897,0.563394683674,0.0455301563493,0.0,0.0,0.0
1609056035190045000,118,1609056035190045000,0.265969921203,-0.488735682909,4.75963813582,0.995345183873,0.0960445312216,0.00746274749769,-0.00277855409582,-0.17409203924,0.569910243985,0.0223138607206,0.0,0.0,0.0
1609056035290118000,119,1609056035290118000,0.253447459415,-0.412309175684,4.76015018657,0.995041131917,0.0992002455722,0.00393608107585,-0.00607983045496,-0.178549896193,0.581311865156,0.0188068638621,0.0,0.0,0.0
1609056035390149000,120,1609056035390149000,0.233704419432,-0.351410614671,4.76296473993,0.994772330769,0.101772220335,0.00117520337636,-0.0083092719833,-0.175821503784,0.579046181484,0.021472687776,0.0,0.0,0.0
1609056035490155000,121,1609056035490155000,0.225467479755,-0.282536707254,4.76623265477,0.994427747528,0.10514295556,-0.00178542309429,-0.00743142702904,-0.172876211627,0.612990563441,0.00855395827139,0.0,0.0,0.0
1609056035590203000,122,1609056035590203000,0.213405644998,-0.22673771487,4.77187472481,0.993709864626,0.111511697745,-0.00456994025623,-0.00921747562934,-0.148904389914,0.610423764821,0.0229982947061,0.0,0.0,0.0
1609056035690332000,123,1609056035690332000,0.200620748065,-0.158075085513,4.76665934671,0.993219709875,0.115856421981,-0.00530380581266,-0.0079854270759,-0.12598944772,0.606972609675,0.0255065032108,0.0,0.0,0.0
1609056035790221000,124,1609056035790221000,0.189039049933,-0.0964903210953,4.76841234786,0.992689009912,0.120514884594,-0.00301365180336,-0.00596741935415,-0.104800927367,0.629531094605,0.0369856432877,0.0,0.0,0.0
1609056035890258000,125,1609056035890258000,0.173112594052,-0.031402754823,4.76928562271,0.992041723187,0.125633812237,3.26877835037e-05,-0.00832848189091,-0.0996213700831,0.628433741872,0.0364755360709,0.0,0.0,0.0
1609056035990316000,126,1609056035990316000,0.166002766454,0.0353400932363,4.77470556635,0.991538246727,0.129471323514,0.0012296227649,-0.00935786792659,-0.0910414956675,0.629936534493,0.0156106295711,0.0,0.0,0.0
1609056036090228000,127,1609056036090228000,0.156753321042,0.105492296419,4.77646735636,0.990951010086,0.133887935754,0.000851734236769,-0.00945467171939,-0.0810712071724,0.645672453331,0.0266555841184,0.0,0.0,0.0
1609056036190367000,128,1609056036190367000,0.150046664184,0.168609147797,4.77903526029,0.990243473536,0.139109972342,0.000353555543091,-0.00813349324096,-0.0773637909442,0.65471082289,0.0149140414762,0.0,0.0,0.0
1609056036290393000,129,1609056036290393000,0.14529883555,0.238166656813,4.78286776209,0.989333672357,0.145457054434,-0.00184710724081,-0.00759725279887,-0.0682728219591,0.673425027095,0.0245126762387,0.0,0.0,0.0
1609056036390540000,130,1609056036390540000,0.141644212171,0.306316135803,4.78553728311,0.988417136806,0.151398540575,-0.00658641899192,-0.00816484325356,-0.0451530761651,0.67046086277,0.0280244164862,0.0,0.0,0.0
1609056036490509000,131,1609056036490509000,0.14327049038,0.379748138103,4.79088601923,0.987758594239,0.155249914692,-0.011800705615,-0.00954813287022,-0.0112624106583,0.684145769293,0.069598263025,0.0,0.0,0.0
1609056036590545000,132,1609056036590545000,0.144574727569,0.447476841587,4.79947817297,0.986991126234,0.159648350782,-0.0137326972344,-0.0131275989632,0.0289180843172,0.694671420311,0.111417563396,0.0,0.0,0.0
1609056036690589000,133,1609056036690589000,0.150186270134,0.518097643946,4.81143165732,0.986308280444,0.163680751209,-0.0139312790817,-0.0145088618937,0.0636893644371,0.694059465606,0.121220517071,0.0,0.0,0.0
1609056036790613000,134,1609056036790613000,0.15763336083,0.586281542702,4.82256153718,0.985465181962,0.168450660655,-0.0136585336591,-0.0172103028166,0.098522678235,0.692354855731,0.134599242119,0.0,0.0,0.0
1609056036890591000,135,1609056036890591000,0.163739179992,0.652953028846,4.83288932407,0.984603687868,0.173524207395,-0.0113978438418,-0.0177487024821,0.122219553016,0.682425117286,0.117197294583,0.0,0.0,0.0
1609056036991088000,136,1609056036991088000,0.178316373494,0.724172403333,4.84401887224,0.983812996262,0.177969034831,-0.0110361495171,-0.0178105146484,0.150888163932,0.666446822048,0.102971518063,0.0,0.0,0.0
1609056037090640000,137,1609056037090640000,0.1969091113,0.802563078518,4.85049309077,0.983183867593,0.181686237476,-0.0125444149919,-0.0134993062543,0.173924667292,0.677009514527,0.0762269213873,0.0,0.0,0.0
1609056037190652000,138,1609056037190652000,0.218896274029,0.867609423096,4.85927736766,0.982290755253,0.186668711102,-0.0110751912126,-0.0117048955571,0.206505109127,0.696319858573,0.100661832785,0.0,0.0,0.0
1609056037290727000,139,1609056037290727000,0.248425395457,0.941410895223,4.86367969434,0.981340366823,0.191682359509,-0.00793776660283,-0.0128821332544,0.23992018061,0.694015885676,0.0999561713307,0.0,0.0,0.0
1609056037390774000,140,1609056037390774000,0.276886915512,1.01239635459,4.87287996713,0.980611095608,0.195637604918,-0.00395109295859,-0.01059224132,0.257588391394,0.69510476767,0.0843642229276,0.0,0.0,0.0
1609056037490846000,141,1609056037490846000,0.312621993755,1.09442490958,4.87712294184,0.97992686555,0.199201959021,-0.000445204485242,-0.00785617523524,0.270781041261,0.711339170559,0.0941980782551,0.0,0.0,0.0
1609056037590756000,142,1609056037590756000,0.341680248165,1.15665661088,4.88756962862,0.979100945771,0.203337232485,0.0035766699923,-0.00158597207139,0.262969048479,0.741452241198,0.119641176669,0.0,0.0,0.0
1609056037690847000,143,1609056037690847000,0.379894705649,1.23275336035,4.89431750168,0.977851441219,0.209178051716,0.00692629039354,0.00176863999518,0.25810270634,0.759106612564,0.0840966917563,0.0,0.0,0.0
1609056037790831000,144,1609056037790831000,0.399880649105,1.30998761202,4.90478347294,0.977296436695,0.211728656524,0.00709412684604,0.00351058316852,0.244310141089,0.766649482337,0.0516960178166,0.0,0.0,0.0
1609056037890845000,145,1609056037890845000,0.426871961784,1.38473106664,4.90822966687,0.977093006728,0.212661170675,0.00645469163273,0.00477699131853,0.228997654268,0.805913039427,0.0415199372343,0.0,0.0,0.0
1609056037990886000,146,1609056037990886000,0.450038261195,1.46140431881,4.91272894204,0.976622227767,0.214787761162,0.00809082357182,0.00312737276033,0.214616628177,0.830916952671,0.0263896601973,0.0,0.0,0.0
1609056038090949000,147,1609056038090949000,0.472261303723,1.54244679258,4.91507515489,0.976302692195,0.216221149905,0.00871385888428,0.00235291534475,0.197489268995,0.854551329914,0.00506734338125,0.0,0.0,0.0
1609056038190978000,148,1609056038190978000,0.492497174799,1.61700020789,4.91286484751,0.976028080837,0.217451892957,0.00908340017963,0.00116254390857,0.185490929803,0.867246637147,-0.00482564713455,0.0,0.0,0.0
1609056038290941000,149,1609056038290941000,0.512868137356,1.70293013692,4.91017848111,0.975783519101,0.21844851536,0.0112578245258,-0.000177126968658,0.161569072697,0.887780399634,-0.0466988451297,0.0,0.0,0.0
1609056038391033000,150,1609056038391033000,0.53173206668,1.79272979461,4.90459073213,0.97557816262,0.219324769706,0.0119697509943,-0.000786812307877,0.146095584077,0.895512241186,-0.0680185633027,0.0,0.0,0.0
1609056038491008000,151,1609056038491008000,0.563635074007,1.88659395059,4.90009604101,0.975669330846,0.218856443159,0.0130019987592,-0.001470429287,0.134032970265,0.916571853846,-0.0595402887153,0.0,0.0,0.0
1609056038591069000,152,1609056038591069000,0.582403843966,1.97472142768,4.89519144531,0.975450828294,0.219675916846,0.0144517103599,-0.00541490599377,0.103016018104,0.939688916505,-0.0345443521912,0.0,0.0,0.0
1609056038691068000,153,1609056038691068000,0.598011911902,2.0644217253,4.89411217256,0.9750215656,0.221483618319,0.0150846171164,-0.00709984215078,0.0807173492189,0.939211531134,-0.00762593374243,0.0,0.0,0.0
1609056038791513000,154,1609056038791513000,0.613534193627,2.15933317606,4.89234027582,0.974515026802,0.223517085082,0.0170257247919,-0.00840832375433,0.0545494929076,0.937033918241,-0.0089458897051,0.0,0.0,0.0
1609056038891114000,155,1609056038891114000,0.637546337026,2.23722202722,4.89620364619,0.973994030449,0.225628202878,0.0183503347581,-0.00952931948254,0.0374259183153,0.919581468036,-0.003473402949,0.0,0.0,0.0
1609056038991585000,156,1609056038991585000,0.644733054076,2.32424286699,4.89585248909,0.973078653286,0.22940978987,0.0196421830028,-0.0101620606712,-0.00901981436949,0.929661471916,-0.016375543394,0.0,0.0,0.0
1609056039091293000,157,1609056039091293000,0.643394907738,2.39694347355,4.90172149403,0.97160325893,0.235592453325,0.0187109294021,-0.0115414164709,-0.0489749129579,0.9097286503,-0.0214720806059,0.0,0.0,0.0
1609056039191223000,158,1609056039191223000,0.636012593174,2.49452219987,4.9019717552,0.97025466157,0.240723405672,0.0149531153016,-0.0208455752006,-0.0837599182292,0.90032965092,-0.0190891216301,0.0,0.0,0.0
1609056039291270000,159,1609056039291270000,0.628406347334,2.56866218947,4.90943780078,0.968384923951,0.246900159916,0.0118440674332,-0.0336254095048,-0.0995339469379,0.857847477007,0.00967422456878,0.0,0.0,0.0
1609056039391275000,160,1609056039391275000,0.619206347858,2.64999458646,4.90537278956,0.966677311149,0.251802500054,0.010385644852,-0.0449734972723,-0.107628171235,0.789841092479,-0.0398602928391,0.0,0.0,0.0
1609056039491350000,161,1609056039491350000,0.618366905223,2.72922983269,4.91172449646,0.964823590728,0.257968888954,0.00972915313356,-0.0497276048755,-0.104572785731,0.723224845233,-0.0330518720688,0.0,0.0,0.0
1609056039591377000,162,1609056039591377000,0.605329802803,2.79307241453,4.91346270494,0.963416345511,0.263219920726,0.00910359189098,-0.0496119254804,-0.102536192909,0.62599349259,-0.0750826769753,0.0,0.0,0.0
1609056039691372000,163,1609056039691372000,0.592775151366,2.86578255862,4.90105154008,0.962393472016,0.268517139959,0.00704661702776,-0.04059181886,-0.104305906266,0.570159084633,-0.10901976049,0.0,0.0,0.0
1609056039791800000,164,1609056039791800000,0.584163680506,2.93738342079,4.8883512483,0.961640837526,0.272176286478,0.00137073203901,-0.0341334114166,-0.0999521417438,0.525719190098,-0.132628914376,0.0,0.0,0.0
1609056039891788000,165,1609056039891788000,0.574713666869,2.98323061136,4.87535477601,0.960582271746,0.276347639099,-0.00322009634956,-0.0300551584817,-0.0963302997586,0.510634895165,-0.094979699653,0.0,0.0,0.0
1609056039991473000,166,1609056039991473000,0.571093183922,3.05387464993,4.8623220125,0.958932752708,0.282335192215,-0.00302835119328,-0.0269377821828,-0.0789419640242,0.498034736589,-0.0713891376531,0.0,0.0,0.0
1609056040091545000,167,1609056040091545000,0.56362959907,3.10785146245,4.85437995292,0.95753242641,0.287168465551,-0.00306481710167,-0.0256228738256,-0.0646380345685,0.473923185736,-0.061338751664,0.0,0.0,0.0
1609056040191519000,168,1609056040191519000,0.556505654345,3.16867354922,4.84649507512,0.956225648661,0.291625054301,-0.0036437975711,-0.0239595343411,-0.0608098495671,0.474636149709,-0.0422404326936,0.0,0.0,0.0
1609056040291592000,169,1609056040291592000,0.550840204742,3.20627702469,4.84261681642,0.95474225463,0.2963707497,-0.00327423616898,-0.0249175705984,-0.0548619238584,0.464149459951,-0.0107730656112,0.0,0.0,0.0
1609056040391546000,170,1609056040391546000,0.543561798056,3.25749546247,4.8397819706,0.952713859386,0.302831126802,-0.00147256001761,-0.0250487992079,-0.0510967959959,0.446871684208,-0.00762390750694,0.0,0.0,0.0
1609056040491576000,171,1609056040491576000,0.538048709482,3.30693055616,4.84258156413,0.950779788222,0.30872248341,-0.00199568923964,-0.0265375162705,-0.0455396437982,0.434867879691,0.00763846008921,0.0,0.0,0.0
1609056040591688000,172,1609056040591688000,0.529404098304,3.35886311972,4.84571117056,0.949142144053,0.313502722045,-0.00224672056536,-0.02898596039,-0.0383151381944,0.423737197839,0.041335828955,0.0,0.0,0.0
1609056040691665000,173,1609056040691665000,0.529861995385,3.40633662508,4.84731436949,0.947374225199,0.318751431084,0.00034601092583,-0.0296560767357,-0.0198058395249,0.398166142406,0.0629413393408,0.0,0.0,0.0
1609056040791729000,174,1609056040791729000,0.528642392659,3.447302994,4.85235485836,0.945790426407,0.323276512824,0.00341286540672,-0.0310019019128,-0.0143050773174,0.370082633011,0.0699942191422,0.0,0.0,0.0
1609056040891741000,175,1609056040891741000,0.525764315803,3.48152124298,4.86157510003,0.944334761311,0.327633564943,0.00129885169646,-0.0297727843365,-0.0327021100063,0.341286643023,0.0398061839691,0.0,0.0,0.0
1609056040991782000,176,1609056040991782000,0.519887175976,3.52054893737,4.86781274465,0.942904905025,0.33162793987,-0.00276450556399,-0.0307507249747,-0.0192148245585,0.31711430305,0.0683972840007,0.0,0.0,0.0
1609056041091791000,177,1609056041091791000,0.517115816306,3.56117612842,4.87100879718,0.941585437195,0.33536775936,-0.00404390719429,-0.0304791282426,0.0022354187518,0.28540349636,0.0544127861726,0.0,0.0,0.0
1609056041191849000,178,1609056041191849000,0.516533867358,3.60553287254,4.8750614123,0.941186264456,0.336491827634,-0.0077692866088,-0.0296867600293,0.0180464249672,0.27501090298,0.0645393516391,0.0,0.0,0.0
1609056041291865000,179,1609056041291865000,0.519146789572,3.63362325266,4.88181462403,0.940634195993,0.337954720155,-0.00688984318705,-0.0307643708716,0.0393222429802,0.266375501931,0.107184309441,0.0,0.0,0.0
1609056041391892000,180,1609056041391892000,0.522827170907,3.6713626208,4.88828001595,0.939843117171,0.340178416931,-0.00679969230152,-0.0304519941194,0.0582428007718,0.243085212915,0.0764861343369,0.0,0.0,0.0
1609056041491917000,181,1609056041491917000,0.527455518629,3.71918320627,4.89420289247,0.939534205072,0.341016916995,-0.00988260598884,-0.0297535531152,0.0811291103802,0.237710214309,0.0432897904563,0.0,0.0,0.0
1609056041591946000,182,1609056041591946000,0.534147831153,3.74482902081,4.89911530934,0.939444088952,0.341213744997,-0.0145564064025,-0.0283918120434,0.109102468574,0.221311815525,0.0135769843329,0.0,0.0,0.0
1609056041691962000,183,1609056041691962000,0.545285892985,3.77674325445,4.89956223336,0.939446554318,0.341112649919,-0.0206214750281,-0.0256336968345,0.148474155621,0.220030278081,0.0134008748122,0.0,0.0,0.0
1609056041792011000,184,1609056041792011000,0.561979670526,3.80932048534,4.90016479783,0.939516219067,0.340536945424,-0.0255280653447,-0.0263093289674,0.194699928361,0.223183623867,-0.0103747335821,0.0,0.0,0.0
1609056041892080000,185,1609056041892080000,0.583851904618,3.86573177429,4.8966079116,0.939455872296,0.340423978316,-0.031972105402,-0.0226266098118,0.247337782864,0.244601684628,-0.0318003504395,0.0,0.0,0.0
1609056041992067000,186,1609056041992067000,0.616026261233,3.88642397623,4.89393049232,0.939285918981,0.34022549528,-0.0399575205759,-0.0197982654558,0.323338164543,0.265390965774,-0.00311570221297,0.0,0.0,0.0
1609056042092055000,187,1609056042092055000,0.649579720611,3.93273699694,4.8949654754,0.93921358055,0.339953203702,-0.0443220115085,-0.0185803309954,0.403788106347,0.30010761762,0.00738618006783,0.0,0.0,0.0
1609056042192117000,188,1609056042192117000,0.698407700805,3.95921850263,4.89604697734,0.93930049077,0.33962030463,-0.0449925589515,-0.0186629676398,0.501124179368,0.327934713615,0.0393792398412,0.0,0.0,0.0
1609056042292126000,189,1609056042292126000,0.758875377855,4.00013031029,4.88773071929,0.939599611808,0.339385428962,-0.0406174950733,-0.0178974633228,0.587112713108,0.359168939715,0.039207541335,0.0,0.0,0.0
1609056042392160000,190,1609056042392160000,0.817380885707,4.04012069196,4.89209598833,0.939860512818,0.339080435223,-0.0356796417444,-0.02033809379,0.655914764497,0.382758457318,0.0575716717464,0.0,0.0,0.0
1609056042492227000,191,1609056042492227000,0.884571789279,4.07988564342,4.89500767786,0.940116201335,0.338945316927,-0.029482278556,-0.0206977141781,0.706498062072,0.397827519902,0.042878456752,0.0,0.0,0.0
1609056042592220000,192,1609056042592220000,0.954979001963,4.12235115782,4.89934927884,0.940124341219,0.339265522824,-0.0263278093924,-0.0192866410511,0.750898085963,0.39908541705,0.0114777289435,0.0,0.0,0.0
1609056042692315000,193,1609056042692315000,1.03321523957,4.16593124014,4.88481322607,0.939910854097,0.339897094946,-0.0266074565432,-0.0181547363987,0.793118443869,0.423867897795,0.0424887290575,0.0,0.0,0.0
1609056042792311000,194,1609056042792311000,1.11522807437,4.20443231813,4.88661634796,0.939148156248,0.342395833364,-0.0208597946463,-0.0181852379021,0.831927783617,0.435341838228,0.0476246099156,0.0,0.0,0.0
1609056042892296000,195,1609056042892296000,1.19896835583,4.2469377301,4.8910808679,0.938250906704,0.345175373383,-0.0147384205886,-0.0179437074641,0.856727007998,0.439349431893,0.0415133286313,0.0,0.0,0.0
1609056042992377000,196,1609056042992377000,1.28996124674,4.2968848761,4.87849493368,0.936814162753,0.349085189965,-0.00945574450426,-0.0207206058779,0.866453247279,0.443717086749,0.0413035212065,0.0,0.0,0.0
1609056043092396000,197,1609056043092396000,1.37606110512,4.33921128318,4.88470847622,0.935438664182,0.352794977263,-0.00664588150755,-0.0211197024329,0.86757163673,0.436726659406,0.0223210264053,0.0,0.0,0.0
1609056043192415000,198,1609056043192415000,1.46958936577,4.38594501476,4.87957416337,0.933849455129,0.356926169484,-0.00379764067724,-0.0226822092717,0.872036147143,0.432899010625,0.016398985001,0.0,0.0,0.0
1609056043292427000,199,1609056043292427000,1.55647190146,4.4292002044,4.8843090861,0.932539837375,0.360260707444,-0.00413167732281,-0.0237613893421,0.877910998332,0.412632788886,0.0320128706627,0.0,0.0,0.0
1609056043392480000,200,1609056043392480000,1.6502694529,4.47361832222,4.88384199318,0.931673463795,0.362565085902,-0.00401500452401,-0.0226935031179,0.886897769175,0.406432201991,0.0488653781472,0.0,0.0,0.0
1609056043492499000,201,1609056043492499000,1.73721278685,4.51261256556,4.88745634968,0.930502060388,0.365607452904,-0.00271162074753,-0.0221303661795,0.883459662424,0.393284786089,0.0512693955818,0.0,0.0,0.0
1609056043592552000,202,1609056043592552000,1.82527004948,4.55102944319,4.89308268021,0.929191386676,0.368943484661,-0.00245637177323,-0.0218640868133,0.878540066002,0.385813779068,0.0414552408717,0.0,0.0,0.0
1609056043692554000,203,1609056043692554000,1.91637561126,4.59312224298,4.89813792673,0.927489785002,0.373252840308,-0.000520269354839,-0.0210889838221,0.87415974977,0.383621662653,0.0404969979693,0.0,0.0,0.0
1609056043792574000,204,1609056043792574000,2.00242579143,4.62943724623,4.90011166734,0.92567826451,0.377781650781,0.00144829813424,-0.0199669070989,0.859909505581,0.38624338179,0.051360405984,0.0,0.0,0.0
1609056043892634000,205,1609056043892634000,2.08910101271,4.66433619601,4.90479179245,0.923112279366,0.383841684646,0.00450637391879,-0.0225604389471,0.841865137021,0.377403599615,0.029865870229,0.0,0.0,0.0
1609056043992694000,206,1609056043992694000,2.17324048031,4.70103360018,4.90546125125,0.920661822933,0.389596976088,0.00515113359295,-0.0238635671778,0.827909892616,0.356624906755,-0.00149190905333,0.0,0.0,0.0
1609056044092670000,207,1609056044092670000,2.25468326844,4.73488342546,4.90388765864,0.917845257713,0.396196933321,0.00195955319319,-0.0241709137646,0.807401924194,0.352815184708,0.0141470203197,0.0,0.0,0.0
1609056044192705000,208,1609056044192705000,2.34003461139,4.77005205604,4.90121281637,0.913545560157,0.405893558197,0.00180600228785,-0.0261087588046,0.789592933204,0.345753451902,-0.0112830504872,0.0,0.0,0.0
1609056044292728000,209,1609056044292728000,2.42141549042,4.80316064305,4.9001427548,0.909172092197,0.415692445483,0.000533079571198,-0.0246092130136,0.785329169712,0.32574772976,-0.0428886557067,0.0,0.0,0.0
1609056044392785000,210,1609056044392785000,2.49540251129,4.83543472288,4.89848280985,0.905258658574,0.424311884827,-0.000483545480213,-0.0215859133479,0.786837518504,0.306733749903,-0.0501452613734,0.0,0.0,0.0
1609056044492801000,211,1609056044492801000,2.57025545041,4.87385347776,4.8970180772,0.902366143821,0.430505594754,-0.00188219840204,-0.0199181500499,0.778313725193,0.300382262299,-0.0639895880438,0.0,0.0,0.0
1609056044592838000,212,1609056044592838000,2.6382134681,4.9096841675,4.89294695302,0.900329000132,0.434828631011,-0.000482696443297,-0.0182076955734,0.786978636178,0.283904738928,-0.064165365153,0.0,0.0,0.0
1609056044692862000,213,1609056044692862000,2.70558708805,4.93900025589,4.88414810866,0.900088200289,0.43537109429,-0.00318733596247,-0.016825066032,0.759380179937,0.284505552305,-0.117170437571,0.0,0.0,0.0
1609056044792896000,214,1609056044792896000,2.75138167133,4.97698024254,4.87230170551,0.900012084092,0.435577785847,-0.0069453522318,-0.014212777649,0.727200275333,0.310883755214,-0.13350129769,0.0,0.0,0.0
1609056044892948000,215,1609056044892948000,2.81509321185,5.00402140028,4.85642695755,0.900201376279,0.435203491619,-0.0020759781735,-0.0152017546141,0.717783090531,0.3262149252,-0.0924707748888,0.0,0.0,0.0
1609056044992933000,216,1609056044992933000,2.87202862071,5.03657105317,4.84164933527,0.900421744051,0.434743598197,0.00471651257423,-0.0147119398993,0.687721293545,0.333612212656,-0.119945973532,0.0,0.0,0.0
1609056045092993000,217,1609056045092993000,2.93807059013,5.07355457289,4.83256119238,0.900521929757,0.434406448709,0.00926531011838,-0.0162924944389,0.651698752895,0.338085680057,-0.131669440508,0.0,0.0,0.0
1609056045193034000,218,1609056045193034000,3.00627905494,5.10808883476,4.82146412924,0.900556109137,0.434258221893,0.0113382339492,-0.0170274914419,0.614177547744,0.330156276236,-0.141709384772,0.0,0.0,0.0
1609056045293086000,219,1609056045293086000,3.0724931201,5.15220748552,4.8050661359,0.90045524962,0.434482406359,0.0124244854181,-0.0158434263448,0.579211225584,0.336485251667,-0.130870699853,0.0,0.0,0.0
1609056045393057000,220,1609056045393057000,3.13758879986,5.18745243755,4.79396141935,0.900497656122,0.434482513095,0.0116459855037,-0.0139028110834,0.549036264882,0.323873166699,-0.149463471538,0.0,0.0,0.0
1609056045493094000,221,1609056045493094000,3.19876080491,5.2207963726,4.78139882944,0.900560845993,0.434556335677,0.00978883404703,-0.00742512731409,0.528339521659,0.328296799477,-0.0938722651988,0.0,0.0,0.0
1609056045593185000,222,1609056045593185000,3.25838497011,5.25291320453,4.77131795837,0.900687404041,0.434299572785,0.0107729525089,-0.00547948669892,0.491332055533,0.345731028558,-0.0578177702985,0.0,0.0,0.0
1609056045693152000,223,1609056045693152000,3.31950696399,5.28736887758,4.76520828802,0.900892863874,0.43387368821,0.010880879866,-0.00522273433437,0.458627492392,0.360496521776,-0.0522617903949,0.0,0.0,0.0
1609056045793221000,224,1609056045793221000,3.35857321312,5.32223883215,4.75918351315,0.901006254966,0.433613620483,0.0122844301673,-0.00400617265889,0.420223368283,0.372539280046,-0.0282042730357,0.0,0.0,0.0
1609056045893237000,225,1609056045893237000,3.39164494944,5.35723682821,4.7543286998,0.901072703048,0.433327195666,0.0171864495001,0.00038893793891,0.368312177457,0.384981302778,-0.0357271082429,0.0,0.0,0.0
1609056045993315000,226,1609056045993315000,3.43527220247,5.39556716686,4.75059420786,0.901098308392,0.433097583745,0.0206799432963,0.00454549368738,0.317481737941,0.409187592957,-0.0579426981566,0.0,0.0,0.0
1609056046093320000,227,1609056046093320000,3.5150201047,5.44961201613,4.74643388934,0.901039106058,0.433097779288,0.0227760511813,0.00600786343935,0.280780763154,0.437608772307,-0.0450069095148,0.0,0.0,0.0
1609056046193307000,228,1609056046193307000,3.55713892713,5.49671359688,4.74561825687,0.90101755589,0.433105816866,0.0234457114904,0.00608391222927,0.22098353906,0.461539870575,-0.0438205410549,0.0,0.0,0.0
1609056046293367000,229,1609056046293367000,3.59132087497,5.54376316751,4.74164945856,0.900881469166,0.433409844852,0.0230081340436,0.00625385218576,0.1631590702,0.482379785673,-0.0556105419174,0.0,0.0,0.0
1609056046393399000,230,1609056046393399000,3.61854604331,5.59396512982,4.73792786923,0.900838659421,0.433652841696,0.0206724343881,0.00275191535745,0.106785903261,0.499720993903,-0.0714829044068,0.0,0.0,0.0
1609056046493431000,231,1609056046493431000,3.64139898105,5.64569066529,4.73477254631,0.900844158454,0.433854031233,0.0158136952619,0.000639377451234,0.0646611291366,0.508675313925,-0.0703864199648,0.0,0.0,0.0
1609056046593464000,232,1609056046593464000,3.65848131371,5.70121925626,4.73166206935,0.900908546392,0.433941201841,0.00766791024102,-0.000165938576936,0.0247586872011,0.532297299451,-0.0730757086706,0.0,0.0,0.0
1609056046693519000,233,1609056046693519000,3.69451072973,5.75879461271,4.72834743543,0.900881952183,0.434044302057,0.00153613496692,-0.00385906376593,0.0216879513867,0.557365102038,-0.0343583132105,0.0,0.0,0.0
1609056046793546000,234,1609056046793546000,3.71860526938,5.81843596777,4.72601857761,0.900853507906,0.434087976808,-0.00368824423078,-0.00412098756928,0.0293640446312,0.569825478826,-0.0491699671323,0.0,0.0,0.0
1609056046893588000,235,1609056046893588000,3.79562438972,5.88951453267,4.72722626937,0.900669607584,0.434425522763,-0.00733518128428,-0.0038624166705,0.0720454185999,0.604523362663,0.00957810851735,0.0,0.0,0.0
1609056046993521000,236,1609056046993521000,3.80860474046,5.95280518182,4.72130780622,0.900574845792,0.434582302146,-0.00813431357914,-0.00608298706046,0.0776450396943,0.627165407601,0.00123683703651,0.0,0.0,0.0
1609056047093597000,237,1609056047093597000,3.82214591316,6.0182314295,4.72141522961,0.900566298526,0.434561758496,-0.00982693744067,-0.00631278964614,0.0874687140794,0.649325864263,-0.00162453732392,0.0,0.0,0.0
1609056047193621000,238,1609056047193621000,3.83667071118,6.08576182685,4.72246904735,0.900550719403,0.434579997173,-0.0109807207571,-0.005296377257,0.0987589199845,0.6725122717,-0.00572970153761,0.0,0.0,0.0
1609056047293634000,239,1609056047293634000,3.87886203187,6.16130332739,4.71099119848,0.90061156281,0.434417035719,-0.0119831495043,-0.00608737525232,0.122205388456,0.703742103736,0.00573005494632,0.0,0.0,0.0
1609056047393675000,240,1609056047393675000,3.8945498607,6.23411600416,4.70670806236,0.900709653857,0.434222562723,-0.0106496552728,-0.00771169981409,0.130250175858,0.727765343284,-0.0126341925637,0.0,0.0,0.0
1609056047493685000,241,1609056047493685000,3.90954805568,6.30717375028,4.70681226512,0.90075833357,0.43412294266,-0.0100824786568,-0.00836891774118,0.13601651357,0.743313701559,-0.0293213830313,0.0,0.0,0.0
1609056047593723000,242,1609056047593723000,3.91931916082,6.37957920047,4.70233175906,0.900768298749,0.434090780909,-0.00889256360526,-0.0101285838347,0.14378704666,0.75835342839,-0.0421394744161,0.0,0.0,0.0
1609056047693726000,243,1609056047693726000,3.93190207854,6.45285327597,4.69388603882,0.900657364091,0.434308605548,-0.0075986235359,-0.0116020935604,0.150945438115,0.768148352926,-0.0411730814528,0.0,0.0,0.0
1609056047793812000,244,1609056047793812000,3.9436612881,6.52713910421,4.68766553231,0.900558714176,0.434531246439,-0.00545979867227,-0.0121156423171,0.158147157201,0.768093852091,-0.0478486008528,0.0,0.0,0.0
1609056047893802000,245,1609056047893802000,3.95815650998,6.59439617186,4.68188283503,0.900290285282,0.435078221901,-0.00569143522408,-0.0123268251705,0.15523101072,0.762476629202,-0.0830908404939,0.0,0.0,0.0
1609056047993882000,246,1609056047993882000,3.97600478939,6.67335013609,4.67749155729,0.900191365636,0.43527088479,-0.00399925149269,-0.0133704179386,0.161546755476,0.773752534355,-0.0302622571065,0.0,0.0,0.0
1609056048093852000,247,1609056048093852000,3.99378799774,6.75049363938,4.67415674858,0.900089151621,0.435431408299,-0.00241166290545,-0.0152706150188,0.158932677999,0.767501220767,-0.0544116585539,0.0,0.0,0.0
1609056048193974000,248,1609056048193974000,4.01276198766,6.82767009666,4.67013003794,0.89994020949,0.435644585435,-0.00308846411742,-0.0176600089012,0.16067820361,0.769924925504,-0.00918482476617,0.0,0.0,0.0
1609056048293931000,249,1609056048293931000,4.0486392587,6.90888348753,4.66201972911,0.899649542153,0.436107034558,-0.0026113109095,-0.0208455455171,0.174205082059,0.749676958058,-0.0393700454745,0.0,0.0,0.0
1609056048393974000,250,1609056048393974000,4.0629692686,6.98143753738,4.66057091401,0.899522043918,0.436435930035,-0.00366333963132,-0.0192445166845,0.181614868232,0.72826235347,-0.0551002795088,0.0,0.0,0.0
1609056048494002000,251,1609056048494002000,4.07699346367,7.05049720664,4.6580172029,0.899426542183,0.436752956394,-0.00576857266554,-0.0156676056492,0.189308822269,0.72009143599,-0.0479454158519,0.0,0.0,0.0
1609056048593983000,252,1609056048593983000,4.09284023659,7.119554007,4.65813910928,0.899379299767,0.436899884972,-0.00879478951524,-0.0125704948162,0.199297376796,0.721038351342,0.0157775853472,0.0,0.0,0.0
1609056048694041000,253,1609056048694041000,4.10939777891,7.18910056028,4.66195327886,0.899396394568,0.436924027884,-0.0104712728208,-0.00859486711594,0.205690899283,0.729279750884,0.0077924264944,0.0,0.0,0.0
1609056048794120000,254,1609056048794120000,4.13237429222,7.2532698654,4.66132390146,0.899267458333,0.437156970584,-0.0133130153003,-0.00588090772254,0.208196679665,0.743103614817,0.0221050641002,0.0,0.0,0.0
1609056048894143000,255,1609056048894143000,4.15674892566,7.33224604708,4.65987582798,0.899269590678,0.436997393169,-0.0169587680504,-0.00773833520758,0.2269457183,0.770624943885,0.0340837747379,0.0,0.0,0.0
1609056048994179000,256,1609056048994179000,4.18159726833,7.41196462889,4.66128206524,0.899250340233,0.436962914476,-0.0183566100042,-0.00867593408704,0.243428276652,0.796904398714,0.0460156292247,0.0,0.0,0.0
1609056049094146000,257,1609056049094146000,4.22846364003,7.5075970395,4.66148156685,0.899223092953,0.436907459916,-0.0190912576017,-0.0120509108677,0.259074286558,0.820419702063,0.032918139927,0.0,0.0,0.0
1609056049194221000,258,1609056049194221000,4.25488771157,7.5865490002,4.66547803544,0.899150571659,0.436995038431,-0.0200132045992,-0.0127693975378,0.287358197989,0.82670138633,0.0158517061367,0.0,0.0,0.0
1609056049294230000,259,1609056049294230000,4.28198290085,7.67287932886,4.66354000256,0.899174650683,0.437031523652,-0.0174505853898,-0.0135599400385,0.314269603719,0.847149880851,0.0201043495924,0.0,0.0,0.0
1609056049394237000,260,1609056049394237000,4.31440638651,7.7599022679,4.6614496592,0.899194846972,0.437046090132,-0.0161122769343,-0.0134065958278,0.333930767853,0.854618020164,-0.0188582367077,0.0,0.0,0.0
1609056049494318000,261,1609056049494318000,4.3478792645,7.84459175114,4.66206546008,0.899180355259,0.437068994028,-0.0161186452631,-0.0136224979173,0.352050527675,0.868990021217,-0.0147534738984,0.0,0.0,0.0
1609056049594332000,262,1609056049594332000,4.38446857144,7.93551032452,4.65901393842,0.89920469706,0.437044229365,-0.0137131354183,-0.0153363711992,0.369959426622,0.880133287712,-0.0151136138383,0.0,0.0,0.0
1609056049694391000,263,1609056049694391000,4.40631525547,7.99215179354,4.66111716989,0.899283909624,0.436951973472,-0.0128866230679,-0.0139770424727,0.369368868176,0.870175537957,-0.0481400481896,0.0,0.0,0.0
1609056049794393000,264,1609056049794393000,4.44323859201,8.07819707521,4.65876871893,0.899263369935,0.436913635551,-0.0173002277536,-0.0115138474523,0.387880099174,0.872491603388,-0.0915525095683,0.0,0.0,0.0
1609056049894396000,265,1609056049894396000,4.48381264412,8.16824427283,4.65062033648,0.899174760113,0.436955724293,-0.0214781790828,-0.00965057541872,0.412394677966,0.895030884714,-0.0832974141532,0.0,0.0,0.0
1609056049994394000,266,1609056049994394000,4.52655605481,8.26157209411,4.64168610657,0.899101626665,0.437023682977,-0.0236676576386,-0.00814907530614,0.439534671807,0.925513332797,-0.085525139984,0.0,0.0,0.0
1609056050094450000,267,1609056050094450000,4.57259408371,8.35906899977,4.62910579162,0.898997401852,0.437207686103,-0.0244890951777,-0.00730718093663,0.468825196439,0.959457279864,-0.0962351963917,0.0,0.0,0.0
1609056050194506000,268,1609056050194506000,4.61659877754,8.45802460973,4.61870373712,0.898999014807,0.437210199897,-0.0234239767252,-0.00996643348274,0.493173242162,0.993833097211,-0.083274346298,0.0,0.0,0.0
1609056050294521000,269,1609056050294521000,4.66677771665,8.55879068665,4.60765057267,0.899126076321,0.436915451576,-0.0204315315761,-0.0161164379405,0.523545121479,1.01117215326,-0.0984579674937,0.0,0.0,0.0
1609056050394571000,270,1609056050394571000,4.7179090328,8.66553771352,4.59612322375,0.899188445558,0.436799491942,-0.018106313342,-0.0183984953529,0.553349563663,1.01218897618,-0.110783680593,0.0,0.0,0.0
1609056050494577000,271,1609056050494577000,4.77333017235,8.77164784378,4.58908081675,0.89918431328,0.436873522409,-0.015818590872,-0.0189438209374,0.579621635811,1.01588476276,-0.104706688,0.0,0.0,0.0
1609056050594630000,272,1609056050594630000,4.82590523827,8.86400704567,4.57709483873,0.899279086096,0.43679586137,-0.0122992505517,-0.0188475260019,0.606244395822,1.01328051656,-0.0682439835316,0.0,0.0,0.0
1609056050694646000,273,1609056050694646000,4.88728369037,8.96755442139,4.56557735142,0.899485306935,0.436398186497,-0.00748920300775,-0.0206571359976,0.621466733024,1.0005735496,-0.0712196846422,0.0,0.0,0.0
1609056050794654000,274,1609056050794654000,4.95127666934,9.06838907748,4.55898347075,0.899529838621,0.436332493362,-0.00484604000086,-0.0208935531691,0.622953032206,0.992701054751,-0.0286527245265,0.0,0.0,0.0
1609056050894714000,275,1609056050894714000,5.0139920013,9.17879690559,4.56267199519,0.899552920638,0.436072796708,0.00153720647992,-0.025351448445,0.619169775742,0.971344967272,-0.0161569993293,0.0,0.0,0.0
1609056050994707000,276,1609056050994707000,5.07357181869,9.27574356251,4.5616950803,0.899532508393,0.435824106059,0.00395294630718,-0.0297151331453,0.612894665354,0.9324125736,-0.013860250745,0.0,0.0,0.0
1609056051094822000,277,1609056051094822000,5.12995950475,9.37081889438,4.56737766923,0.899496472313,0.435775487231,0.00518154426646,-0.0312885382204,0.599610493914,0.889993387979,-0.0291031923607,0.0,0.0,0.0
1609056051194794000,278,1609056051194794000,5.18822040316,9.45835246373,4.5650583194,0.899486459864,0.435795313193,0.00532097124405,-0.031276841027,0.591245808058,0.845067120438,-0.0343483674978,0.0,0.0,0.0
1609056051294768000,279,1609056051294768000,5.24599904525,9.54153969418,4.56218771559,0.899410243643,0.435937081332,0.00629139245679,-0.0313128269364,0.57656320646,0.805242683967,-0.0508295708012,0.0,0.0,0.0
1609056051394830000,280,1609056051394830000,5.30374768051,9.62015419461,4.55780094525,0.899230316343,0.436361841038,0.00649053782638,-0.0305131901619,0.570470112519,0.761223948303,-0.0546169902063,0.0,0.0,0.0
1609056051494837000,281,1609056051494837000,5.35646569032,9.69223404443,4.55641596267,0.898998781861,0.436911800111,0.00829081599333,-0.0289919213973,0.560823833741,0.724348759108,-0.0321428146852,0.0,0.0,0.0
1609056051594896000,282,1609056051594896000,5.41245390648,9.76196767664,4.55139152178,0.898781117501,0.43745157846,0.00944467979969,-0.0271922295895,0.548081764615,0.682494858982,-0.0541213297558,0.0,0.0,0.0
