%time,field.header.seq,field.header.stamp,field.pose.pose.position.x,field.pose.pose.position.y,field.pose.pose.position.z,field.pose.pose.orientation.x,field.pose.pose.orientation.y,field.pose.pose.orientation.z,field.pose.pose.orientation.w,field.twist.twist.linear.x,field.twist.twist.linear.y,field.twist.twist.linear.z,field.twist.twist.angular.x,field.twist.twist.angular.y,field.twist.twist.angular.z
1609060369824932000,0,1609060369824932000,-0.0181478646124,-0.0768096735972,1.24903605087,0.999481304639,0.00254180000741,0.00463595473765,0.0317674181011,0.117816792278,-0.0343486995771,1.22913618973,0.0,0.0,0.0
1609060369924894000,1,1609060369924894000,-0.00562021969041,-0.068085840993,1.37561971845,0.998987206669,0.00249009429746,0.0052645607975,0.0446166419917,0.130945029565,0.0636523319811,1.13625416685,0.0,0.0,0.0
1609060370024923000,2,1609060370024923000,0.0102779502361,-0.0515413457565,1.49191261211,0.99872521982,0.00223220962033,0.00535781771225,0.0501422608603,0.147620532922,0.177987453631,1.0742394791,0.0,0.0,0.0
1609060370124962000,3,1609060370124962000,0.0243387708874,-0.0268621844768,1.61534742039,0.998982119546,0.00207020726894,0.00603962536606,0.0446538015777,0.166058091692,0.302495117754,1.05697347774,0.0,0.0,0.0
1609060370225071000,4,1609060370225071000,0.0524534794781,-0.013856873121,1.76824615368,0.999652245597,0.00233310773155,0.00649719961621,0.0254505575138,0.202171736386,0.365953289456,1.08313438007,0.0,0.0,0.0
1609060370325089000,5,1609060370325089000,0.0824955831925,-0.00474661016412,1.93790265212,0.999961685915,0.00284232030773,0.00806982990176,0.0018508814745,0.239155566807,0.382436609208,1.14851831602,0.0,0.0,0.0
1609060370425110000,6,1609060370425110000,0.124459631232,0.0175767925215,2.11512472916,0.999821124604,0.00300020430961,0.0107528910379,-0.0152673803794,0.278758958678,0.348522464197,1.22142988192,0.0,0.0,0.0
1609060370525132000,7,1609060370525132000,0.163897700311,0.0550094921749,2.27095220306,0.999611051914,0.00311979058595,0.0149600724238,-0.0233282667793,0.302127336881,0.32029177951,1.26334824287,0.0,0.0,0.0
1609060370625292000,8,1609060370625292000,0.201464617655,0.109421545545,2.41004319469,0.9994753847,0.00308126647586,0.018215008235,-0.0266021550046,0.312446874867,0.300615704049,1.27191626339,0.0,0.0,0.0
1609060370725149000,9,1609060370725149000,0.229742895299,0.146841412894,2.55140107121,0.999448960734,0.00344720999184,0.0213296721235,-0.0251979506859,0.303473512564,0.266713038391,1.23544017102,0.0,0.0,0.0
1609060370825170000,10,1609060370825170000,0.273846644549,0.185827099677,2.68806591106,0.999501050459,0.00426575379299,0.0217119994609,-0.0225397993687,0.311386680968,0.254577069377,1.11796400007,0.0,0.0,0.0
1609060370925212000,11,1609060370925212000,0.303519629332,0.211041471674,2.82230436161,0.999527266406,0.00981662838467,0.0240667424794,-0.0164216145437,0.297718596996,0.266638411978,0.983996447564,0.0,0.0,0.0
1609060371025258000,12,1609060371025258000,0.34496091574,0.227668128828,2.93113908578,0.999446019876,0.0179016027539,0.0250525906467,-0.012631455795,0.292784377737,0.25171047959,0.892929394591,0.0,0.0,0.0
1609060371125257000,13,1609060371125257000,0.36924842241,0.224357920891,3.00801415424,0.999244874218,0.0272217706403,0.0255741314908,-0.0107060893933,0.270275327969,0.218407022475,0.798027487474,0.0,0.0,0.0
1609060371225301000,14,1609060371225301000,0.38774517598,0.230553968805,3.09273428466,0.998957254325,0.0361241885157,0.0266009986742,-0.00847548852943,0.243609184902,0.189570914159,0.748273973976,0.0,0.0,0.0
1609060371325351000,15,1609060371325351000,0.4025968298,0.267697522892,3.16718924898,0.998646358892,0.0436025080858,0.0272074460183,-0.00800162741909,0.215863401129,0.196251255592,0.704096844696,0.0,0.0,0.0
1609060371425386000,16,1609060371425386000,0.417199371692,0.309554483437,3.21965157138,0.998436981125,0.0484433155091,0.0270027802427,-0.00690577761663,0.190550042706,0.193501107194,0.652462904689,0.0,0.0,0.0
1609060371525443000,17,1609060371525443000,0.439877617914,0.346530348372,3.26386558554,0.998338881205,0.0507655412289,0.0263382542497,-0.00697384120895,0.17112546981,0.19939945821,0.614430015561,0.0,0.0,0.0
1609060371625478000,18,1609060371625478000,0.459050771848,0.373508497329,3.33158383307,0.998332317567,0.0520648535682,0.0241175813451,-0.00633853245077,0.153315698229,0.199592141863,0.639905782933,0.0,0.0,0.0
1609060371725545000,19,1609060371725545000,0.481114078735,0.41134120897,3.37321099679,0.998379091898,0.0524328264981,0.0211166524672,-0.006638866978,0.148294765638,0.206955499607,0.601944629027,0.0,0.0,0.0
1609060371825468000,20,1609060371825468000,0.494818772623,0.434176844436,3.42931155591,0.99843289478,0.0525181245067,0.0183186315486,-0.00616676225746,0.138179237121,0.212640480129,0.549012415972,0.0,0.0,0.0
1609060371925508000,21,1609060371925508000,0.509140966945,0.462497963511,3.49725104602,0.998481239495,0.0525070374149,0.015071052456,-0.0071476413309,0.133399883552,0.216327635806,0.578824362268,0.0,0.0,0.0
1609060372025507000,22,1609060372025507000,0.51863412342,0.481230292991,3.54484292595,0.998470471407,0.052786084436,0.0134150570713,-0.00950701121898,0.135089533043,0.212975398539,0.739932339765,0.0,0.0,0.0
1609060372125587000,23,1609060372125587000,0.524905089731,0.499364229141,3.59894278777,0.998456752692,0.0527045744395,0.0123985702999,-0.0123537966126,0.135880744262,0.198481112884,0.816963895552,0.0,0.0,0.0
1609060372225611000,24,1609060372225611000,0.546265821552,0.533729118299,3.72198610384,0.998554913197,0.0522480595931,0.00607525517448,-0.011014393907,0.129222282276,0.197217880544,0.630033946484,0.0,0.0,0.0
1609060372325667000,25,1609060372325667000,0.561052390127,0.562254573148,3.84492603641,0.998535723804,0.0520814130002,-0.0119577542428,-0.00842299358121,0.156317604138,0.202534423661,0.573718100042,0.0,0.0,0.0
1609060372425813000,26,1609060372425813000,0.583057214793,0.577438678893,3.8810883814,0.998458288633,0.0516312258817,-0.0191773647314,-0.00689137552042,0.224319400643,0.199163259862,0.435030416405,0.0,0.0,0.0
1609060372525809000,27,1609060372525809000,0.597868233747,0.589515006752,3.90453824487,0.998432960808,0.0515497181058,-0.0209673951249,-0.00588367893041,0.264196809797,0.198264368608,0.263506145315,0.0,0.0,0.0
1609060372625811000,28,1609060372625811000,0.61930052868,0.609166642504,3.92504540703,0.998232803675,0.0516329599676,-0.0290378485364,-0.00470217655279,0.3184066628,0.20730251243,0.163764051416,0.0,0.0,0.0
1609060372726112000,29,1609060372726112000,0.645570523911,0.624827082715,3.92790112685,0.997954025328,0.0517007054815,-0.0371281209837,-0.00602519842179,0.396466559399,0.210735496854,0.0882165034008,0.0,0.0,0.0
1609060372825820000,30,1609060372825820000,0.692554142953,0.646210687783,3.94391976749,0.99743994326,0.0515839913887,-0.04896657387,-0.00741121219051,0.496219302616,0.217805018439,0.0348143522989,0.0,0.0,0.0
1609060372925807000,31,1609060372925807000,0.741429544806,0.662940460812,3.92680947524,0.996994871427,0.051884893269,-0.0571066876067,-0.0069289557964,0.626751249803,0.221552377465,0.0464429736076,0.0,0.0,0.0
1609060373025867000,32,1609060373025867000,0.798115101794,0.672677967338,3.8858196923,0.997031188544,0.0520923987818,-0.0563178502605,-0.00659475557721,0.766533559365,0.225417357288,0.0393214175577,0.0,0.0,0.0
1609060373125887000,33,1609060373125887000,0.860477957667,0.678144650116,3.81589927055,0.997387564269,0.052095323085,-0.0494059753613,-0.00794817926741,0.890915489108,0.222268301496,0.0248830090408,0.0,0.0,0.0
1609060373225895000,34,1609060373225895000,0.949604282324,0.699228821706,3.79565828922,0.997971537394,0.0523661488948,-0.0353576758954,-0.0077737864512,1.0015478011,0.233114143962,0.0604531470853,0.0,0.0,0.0
1609060373325948000,35,1609060373325948000,1.04077835026,0.71360926021,3.74710032601,0.998371094422,0.0524929166831,-0.0204250915076,-0.00908114291959,1.05865415267,0.229227866913,-0.00221507164817,0.0,0.0,0.0
1609060373425976000,36,1609060373425976000,1.13265400772,0.721413742681,3.68382147172,0.998552855666,0.052544901085,-0.00728531936725,-0.00884035817489,1.09377543842,0.218851296655,-0.0608563666685,0.0,0.0,0.0
1609060373526105000,37,1609060373526105000,1.24390731019,0.73801345825,3.67750184825,0.998565772322,0.0525821678935,-0.000454175999945,-0.010065172209,1.11976276723,0.224399233498,-0.0823901123545,0.0,0.0,0.0
1609060373626024000,38,1609060373626024000,1.36653327287,0.765238802868,3.68140852556,0.998544750878,0.0524756143909,0.00309334162053,-0.0120466437269,1.14986995157,0.231881645736,-0.0680519383622,0.0,0.0,0.0
1609060373726109000,39,1609060373726109000,1.48087950887,0.78637479494,3.67113124741,0.998462279283,0.0525833478164,0.0122236566865,-0.0125956578954,1.16959753393,0.223127574935,0.0152743164159,0.0,0.0,0.0
1609060373826115000,40,1609060373826115000,1.6012717315,0.812746640016,3.68463789497,0.998148524622,0.0526037448303,0.0267264125952,-0.0147671152969,1.15468700289,0.224079098592,0.00539568769824,0.0,0.0,0.0
1609060373926177000,41,1609060373926177000,1.71094779423,0.833874962639,3.68543459298,0.99777079986,0.0524161235562,0.0364622248185,-0.0194032755015,1.10337101549,0.20794347882,-0.0248513979305,0.0,0.0,0.0
1609060374026747000,42,1609060374026747000,1.82457217547,0.858038093767,3.70034579752,0.997486812817,0.0524000007185,0.0431645853031,-0.0202760143325,1.05027114901,0.194132539506,-0.0464844842218,0.0,0.0,0.0
1609060374126705000,43,1609060374126705000,1.93113258588,0.879545348153,3.70989692416,0.997356045337,0.0523904889285,0.0461364397963,-0.0201887201932,0.98906958529,0.179466671714,-0.0317838174,0.0,0.0,0.0
1609060374226151000,44,1609060374226151000,2.02350646988,0.894795503051,3.70681279008,0.997327268581,0.0524158126742,0.0466446375813,-0.0203759591369,0.912683958951,0.159334855317,-0.0424946173446,0.0,0.0,0.0
1609060374326210000,45,1609060374326210000,2.11369538199,0.9101141137,3.71528397724,0.997531015142,0.0523189337199,0.0420873986022,-0.0205731349803,0.850174119213,0.139467329365,-0.0334340262983,0.0,0.0,0.0
1609060374426238000,46,1609060374426238000,2.1941937502,0.923764940699,3.71210268739,0.997713341359,0.0522556877087,0.0389934780846,-0.0178028155879,0.789999511394,0.128375423996,-0.0269211540281,0.0,0.0,0.0
1609060374526266000,47,1609060374526266000,2.26792988497,0.936086216246,3.71178860559,0.997823095513,0.0523113568455,0.035981125755,-0.0178311691789,0.735456764933,0.12802127817,-0.014516940554,0.0,0.0,0.0
1609060374626282000,48,1609060374626282000,2.33459064684,0.945740019925,3.71325665479,0.997848275064,0.0521965657939,0.0354353511872,-0.0178514525526,0.678389695002,0.116449845345,-0.0204956094104,0.0,0.0,0.0
1609060374726830000,49,1609060374726830000,2.39903541394,0.956266910291,3.72562975302,0.998283410788,0.0523052078869,0.021072098983,-0.0158228827553,0.61943010003,0.118763423402,-0.101285795771,0.0,0.0,0.0
1609060374826390000,50,1609060374826390000,2.45974086909,0.965635263652,3.72305668188,0.998466290131,0.0523286617418,0.00891887714014,-0.0157236211805,0.621163433498,0.117805156976,-0.00759126956164,0.0,0.0,0.0
1609060374926455000,51,1609060374926455000,2.499638336,0.969077174865,3.743242103,0.998451998731,0.0521759266967,0.00292162459428,-0.0190458135299,0.602422829638,0.116875508212,-0.00379948295696,0.0,0.0,0.0
1609060375026513000,52,1609060375026513000,2.54436449596,0.981470139209,3.75580408113,0.998402117898,0.0521898943351,-0.00588581070843,-0.0208514540954,0.604249406124,0.121196533346,-0.00466574284323,0.0,0.0,0.0
1609060375126952000,53,1609060375126952000,2.60849846028,0.993239586131,3.75312688423,0.998427205891,0.0522120661294,-0.00291878324182,-0.0202112689267,0.64690326936,0.120663688536,0.073555886338,0.0,0.0,0.0
1609060375226951000,54,1609060375226951000,2.6625534149,1.00742540565,3.75660943759,0.998380169469,0.0519839653387,0.00576364480595,-0.0223938597981,0.634399511115,0.134904000565,0.0417072243341,0.0,0.0,0.0
1609060375326508000,55,1609060375326508000,2.71395256199,1.01988419981,3.76315865571,0.998293949116,0.0518305109393,0.00666076105406,-0.0260465651618,0.60667635339,0.140576593877,0.0024663277495,0.0,0.0,0.0
1609060375426663000,56,1609060375426663000,2.77473029504,1.03689195531,3.75251563824,0.998245714609,0.0518188930434,0.00423425719153,-0.0283260773037,0.603084279075,0.146668030912,-0.00436738915445,0.0,0.0,0.0
1609060375526555000,57,1609060375526555000,2.83303942996,1.05104124428,3.74917077779,0.998182606285,0.0516811219467,0.00336273329358,-0.0308097090144,0.596807333324,0.142190988784,-0.00162949411697,0.0,0.0,0.0
1609060375626597000,58,1609060375626597000,2.89328400274,1.06718019435,3.74796569029,0.998144115974,0.0515936511304,0.00185099115526,-0.0322953981476,0.593100685807,0.131458058884,-0.0211898059064,0.0,0.0,0.0
1609060375726673000,59,1609060375726673000,2.94948998822,1.08163911098,3.74428283625,0.998078844124,0.0517204263415,-0.000175053430445,-0.0341114023099,0.591025202128,0.128402006586,-0.0157402818414,0.0,0.0,0.0
1609060375826941000,60,1609060375826941000,3.00581006145,1.09563415464,3.73799779041,0.998063182558,0.0516915666734,0.00100475646515,-0.0345956069573,0.586146087653,0.118737588824,-0.0188845361401,0.0,0.0,0.0
1609060375926698000,61,1609060375926698000,3.06457538341,1.10866664078,3.73205610001,0.998106258974,0.0516128163866,0.00123009966286,-0.0334439805829,0.582314778715,0.117013973041,-0.0207459234184,0.0,0.0,0.0
1609060376027003000,62,1609060376027003000,3.12212004428,1.12233769992,3.72164128344,0.998089340076,0.0513432707919,0.00277315066002,-0.0342614565585,0.57146166825,0.116810004818,-0.0323700683194,0.0,0.0,0.0
1609060376126769000,63,1609060376126769000,3.17426629525,1.13313841048,3.71753410759,0.998092747606,0.051105902466,0.00711156348558,-0.0338892250367,0.554355557691,0.117862876181,-0.0450268896774,0.0,0.0,0.0
1609060376226856000,64,1609060376226856000,3.23305402292,1.1464422388,3.71544591422,0.998096458006,0.0509656500021,0.00861574516535,-0.0336412242842,0.52689675302,0.122230614511,-0.104827168387,0.0,0.0,0.0
1609060376326798000,65,1609060376326798000,3.28741824919,1.15887950934,3.70628914884,0.99811979138,0.0506837865617,0.0103843630352,-0.032866408981,0.509471136401,0.116014254554,-0.0727393242694,0.0,0.0,0.0
1609060376426863000,66,1609060376426863000,3.35496353964,1.17390248045,3.68772478571,0.998105123405,0.0502537600097,0.0130293553179,-0.0330296554282,0.490754926492,0.118248381299,-0.0849014669888,0.0,0.0,0.0
1609060376526889000,67,1609060376526889000,3.40305436574,1.18580724299,3.68037294499,0.99806585268,0.0498328793424,0.016065974972,-0.0335130168445,0.456885853295,0.121701576363,-0.0863843761263,0.0,0.0,0.0
1609060376626884000,68,1609060376626884000,3.45148135326,1.19682427916,3.67339962918,0.998088247124,0.0494961420846,0.0177444828636,-0.0324825522288,0.418023986026,0.120228175189,-0.0825028911848,0.0,0.0,0.0
1609060376726909000,69,1609060376726909000,3.49747027726,1.20757202674,3.66684438785,0.998066256378,0.0493191732276,0.019052325221,-0.0326860204888,0.379207237615,0.12646997054,-0.0746910395864,0.0,0.0,0.0
1609060376826997000,70,1609060376826997000,3.54031493613,1.22037569497,3.65922364844,0.998031463932,0.0489942610884,0.0195010914201,-0.0339480016303,0.339389082364,0.127907805908,-0.0903631094006,0.0,0.0,0.0
1609060376926990000,71,1609060376926990000,3.59600237997,1.23320691093,3.63913314921,0.997982849303,0.0490151731021,0.0199037114941,-0.0350939819849,0.310019029231,0.129902752248,-0.116443999337,0.0,0.0,0.0
1609060377027032000,72,1609060377027032000,3.62254866014,1.24642666601,3.62637271468,0.997959715629,0.0488646459233,0.0197038055896,-0.0360612313277,0.26462709175,0.125389258667,-0.128111209606,0.0,0.0,0.0
1609060377127111000,73,1609060377127111000,3.65288147356,1.25929742923,3.61470929087,0.997962551223,0.048845476385,0.0189705288098,-0.0364003410556,0.226195752665,0.123361175003,-0.132614475041,0.0,0.0,0.0
1609060377227089000,74,1609060377227089000,3.68133433999,1.27178868334,3.60121347891,0.998003819438,0.048787844586,0.0178230795906,-0.0359229792855,0.191023395445,0.122703634646,-0.144176181704,0.0,0.0,0.0
1609060377327257000,75,1609060377327257000,3.70563241076,1.28578727414,3.58908052706,0.99801402907,0.0488335887358,0.0148161782827,-0.0369291111814,0.156447278671,0.123563930546,-0.147604067757,0.0,0.0,0.0
1609060377427147000,76,1609060377427147000,3.72971049611,1.30120530809,3.57640568551,0.997959682876,0.0486576560494,0.0144993893492,-0.0387126796997,0.130861113071,0.117193262776,-0.178771401255,0.0,0.0,0.0
1609060377527176000,77,1609060377527176000,3.74712815323,1.31336457092,3.55980347337,0.998102696092,0.0500130300698,0.00794767819473,-0.0350219829223,0.110077243412,0.132556955758,-0.205777682371,0.0,0.0,0.0
1609060377627266000,78,1609060377627266000,3.75483240764,1.3177725786,3.54007823035,0.997907975764,0.0540915459688,0.00462569785436,-0.0351052628581,0.092757776781,0.156925976932,-0.200996136209,0.0,0.0,0.0
1609060377727200000,79,1609060377727200000,3.79881948959,1.33277562333,3.51527575478,0.99755437618,0.0619865899887,0.00309532432286,-0.0321457336672,0.0977655832387,0.172365790109,-0.180491880142,0.0,0.0,0.0
1609060377827250000,80,1609060377827250000,3.81345181464,1.34974852834,3.497581292,0.996972666255,0.0714606804537,0.00265578510012,-0.0305257382525,0.0941983424439,0.182947803558,-0.175012819285,0.0,0.0,0.0
1609060377927303000,81,1609060377927303000,3.82174429176,1.36164381288,3.46599973926,0.99641492524,0.0802530261715,0.0028293061169,-0.0266222383891,0.0880390668019,0.180008888531,-0.172328490568,0.0,0.0,0.0
1609060378027371000,82,1609060378027371000,3.84320732153,1.38148830851,3.44807352449,0.995963153731,0.0874309692459,0.00323210561201,-0.0200692680329,0.0881423476442,0.199089187982,-0.151400520537,0.0,0.0,0.0
1609060378127314000,83,1609060378127314000,3.85962525003,1.40764174954,3.43010792213,0.995548843521,0.0933662847286,0.00483921563841,-0.0119087796331,0.0799709575404,0.233073464185,-0.179095356411,0.0,0.0,0.0
1609060378227328000,84,1609060378227328000,3.872393702,1.43768142224,3.41905064474,0.995343868309,0.0959990256781,0.004766693505,-0.00721453540712,0.0704358227982,0.272465457107,-0.180447565693,0.0,0.0,0.0
1609060378327515000,85,1609060378327515000,3.87780257483,1.46756818487,3.40312175267,0.995339531508,0.0961830189922,0.00566947242828,-0.00398760051638,0.0537205849241,0.328927103719,-0.165241258889,0.0,0.0,0.0
1609060378427505000,86,1609060378427505000,3.88563987101,1.50937594301,3.39186997388,0.995357758041,0.095921107295,0.00667890354042,-0.0041793456584,0.0373365207558,0.401531635519,-0.13286346921,0.0,0.0,0.0
1609060378527494000,87,1609060378527494000,3.88928458425,1.55145784425,3.37860858522,0.99536929886,0.0957006564765,0.00723396686276,-0.00538636804637,0.0190475580098,0.462484472036,-0.119025043626,0.0,0.0,0.0
1609060378627558000,88,1609060378627558000,3.89223088111,1.60062038538,3.36776663414,0.995348503654,0.0957282450985,0.00637103200199,-0.00876751482311,0.000688584993095,0.51625417022,-0.0906792795431,0.0,0.0,0.0
1609060378727504000,89,1609060378727504000,3.89293148435,1.65460274129,3.35877340486,0.995257447221,0.0958625564665,0.0063433590282,-0.0152560091421,-0.0123514026521,0.55748077269,-0.0630670421505,0.0,0.0,0.0
1609060378827554000,90,1609060378827554000,3.89292626458,1.71236335081,3.35924320694,0.995186698402,0.0960086464137,0.00796041455789,-0.0179556937533,-0.0239967725899,0.583249121276,0.0852015889219,0.0,0.0,0.0
1609060378927616000,91,1609060378927616000,3.89164814607,1.7722238751,3.37476529816,0.995082238723,0.0961641580682,0.00906035119988,-0.0219477314888,-0.0378033336293,0.601406074364,0.195426347503,0.0,0.0,0.0
1609060379027641000,92,1609060379027641000,3.88990546427,1.8395874302,3.40218145643,0.994997672624,0.096408495647,0.00886321745982,-0.0246267500098,-0.0497335286225,0.620785216168,0.262619353658,0.0,0.0,0.0
1609060379127698000,93,1609060379127698000,3.88526280631,1.9000533882,3.43223663457,0.994944394518,0.0966299164084,0.00847585948905,-0.0260090537736,-0.063843238221,0.629320184399,0.297808374682,0.0,0.0,0.0
1609060379227724000,94,1609060379227724000,3.87905339242,1.96215981221,3.46293343189,0.994902862653,0.0968618498995,0.00700871152177,-0.0271468945258,-0.077875968362,0.633582420684,0.303056266027,0.0,0.0,0.0
1609060379327764000,95,1609060379327764000,3.88032715391,2.0385072167,3.49083255149,0.994701250446,0.0990787151921,0.00749081852711,-0.026395419969,-0.0913557992645,0.685971570583,0.269889683771,0.0,0.0,0.0
1609060379427765000,96,1609060379427765000,3.87900259236,2.10999195629,3.51033674608,0.993925839064,0.106195411732,0.00750121429371,-0.0278871431161,-0.106738055268,0.716492255722,0.248125738954,0.0,0.0,0.0
1609060379527910000,97,1609060379527910000,3.87226139193,2.18460135725,3.53036838191,0.99267534271,0.116931523209,0.00818903941178,-0.0292510254486,-0.123300782798,0.734271798719,0.220288626707,0.0,0.0,0.0
1609060379627786000,98,1609060379627786000,3.86726205496,2.26480693611,3.54709595393,0.990978814851,0.130107627053,0.00929948710393,-0.0307654585402,-0.132101192176,0.744342776443,0.198952158578,0.0,0.0,0.0
1609060379727816000,99,1609060379727816000,3.86025288625,2.34768292551,3.56646345421,0.988603879674,0.146547127736,0.0105180291795,-0.0327975533954,-0.159825842218,0.777096511288,0.17374890592,0.0,0.0,0.0
1609060379827836000,100,1609060379827836000,3.8481451048,2.42828298231,3.58305582243,0.985602449693,0.165371051177,0.0124919210884,-0.0329268659116,-0.184182811061,0.774699383826,0.145158764139,0.0,0.0,0.0
1609060379927886000,101,1609060379927886000,3.83254805047,2.50972550074,3.59568402596,0.982297989473,0.184089736902,0.0135656906208,-0.0318998539541,-0.205332012324,0.756025841038,0.134294673603,0.0,0.0,0.0
1609060380027949000,102,1609060380027949000,3.81323139039,2.58943239661,3.60693222825,0.979121861313,0.200297738477,0.0137738326091,-0.0318037449758,-0.231084649945,0.73595944522,0.128443609556,0.0,0.0,0.0
1609060380127948000,103,1609060380127948000,3.79208915285,2.66861326952,3.61590063116,0.976174693804,0.214472785347,0.0159407352205,-0.0288146574347,-0.256669711196,0.712402192801,0.121034144635,0.0,0.0,0.0
1609060380227973000,104,1609060380227973000,3.76624512047,2.74891444579,3.62407505564,0.973812325276,0.224946556743,0.0172811510468,-0.0281062905593,-0.28728444647,0.69397575527,0.105394856981,0.0,0.0,0.0
1609060380328035000,105,1609060380328035000,3.73646642496,2.827599681,3.63072481892,0.971703926369,0.23423199308,0.0179282035291,-0.0246055362554,-0.322718632076,0.696033353369,0.0914569714199,0.0,0.0,0.0
1609060380428024000,106,1609060380428024000,3.70278961729,2.90415644399,3.63620430487,0.969499013644,0.243297991431,0.0185299269053,-0.0231169141071,-0.359638937961,0.701365341139,0.0853643625625,0.0,0.0,0.0
1609060380528086000,107,1609060380528086000,3.66632065302,2.98301453832,3.64060831079,0.967336181548,0.251819567435,0.0187523468911,-0.0222703123253,-0.392752092693,0.702397539641,0.0798686955966,0.0,0.0,0.0
1609060380628358000,108,1609060380628358000,3.62746136572,3.06214585565,3.64549603685,0.965341827098,0.259306823882,0.019410111361,-0.0223243257544,-0.424239756883,0.703504864325,0.0807513001742,0.0,0.0,0.0
1609060380728175000,109,1609060380728175000,3.58829835179,3.13966223434,3.64949582696,0.96344843232,0.266319123758,0.0198157818899,-0.0211796451494,-0.454985970423,0.709048383652,0.0701825539205,0.0,0.0,0.0
1609060380828184000,110,1609060380828184000,3.54905085435,3.21795575456,3.65364756604,0.961460136999,0.273310044189,0.0197693534742,-0.0224765960557,-0.477261207871,0.711396731821,0.0786038735518,0.0,0.0,0.0
1609060380928164000,111,1609060380928164000,3.50998853348,3.29570805446,3.65846495789,0.959350979906,0.280563714232,0.0209103364586,-0.0221913820662,-0.492642791765,0.705981569315,0.0876088003123,0.0,0.0,0.0
1609060381028238000,112,1609060381028238000,3.47172705106,3.37503082881,3.66366919417,0.956840103513,0.289035633991,0.0214284115954,-0.0213598167074,-0.520348051638,0.719294849691,0.0812048981525,0.0,0.0,0.0
1609060381128273000,113,1609060381128273000,3.43404555309,3.45670874811,3.66972667327,0.953597106079,0.299657850551,0.0205004605098,-0.0209156161549,-0.533954020763,0.722305214293,0.0915365297474,0.0,0.0,0.0
1609060381228313000,114,1609060381228313000,3.39486506779,3.5378595801,3.67657182372,0.949957317531,0.311090902372,0.0195808638981,-0.0204971973352,-0.538592301495,0.717268511762,0.0836130091371,0.0,0.0,0.0
1609060381328386000,115,1609060381328386000,3.35220615337,3.61512164558,3.68280417669,0.946213048468,0.322384638611,0.0181626775477,-0.0204726363655,-0.537356593372,0.699007684416,0.0942443761645,0.0,0.0,0.0
1609060381428419000,116,1609060381428419000,3.3102238362,3.69000650912,3.68905569919,0.942172959573,0.334037581611,0.0164342680615,-0.0214224917725,-0.536907911597,0.688163664845,0.091443844649,0.0,0.0,0.0
1609060381528427000,117,1609060381528427000,3.26452591828,3.76289813297,3.69595675584,0.937619382027,0.346639221175,0.0153967596257,-0.0217734835156,-0.536037804748,0.672565626971,0.0935481471984,0.0,0.0,0.0
1609060381628489000,118,1609060381628489000,3.21904802265,3.83566260569,3.70119323072,0.933090377443,0.358700578092,0.0154939194724,-0.0208849529203,-0.527226557834,0.652042322408,0.079038625111,0.0,0.0,0.0
1609060381728629000,119,1609060381728629000,3.17096896788,3.90761160842,3.70569025413,0.928298199944,0.370931094104,0.0157818388668,-0.020579333557,-0.529715763996,0.638851610437,0.0673290348818,0.0,0.0,0.0
1609060381828467000,120,1609060381828467000,3.12058621343,3.98117485896,3.70982330066,0.92276108305,0.384424803895,0.0167313549227,-0.0212041392471,-0.53628045671,0.6311310664,0.0625710406418,0.0,0.0,0.0
1609060381928571000,121,1609060381928571000,3.06756799966,4.05310823101,3.71342870422,0.916731356208,0.398556847768,0.0179660567584,-0.0208153896659,-0.538871702915,0.611035420084,0.0482516157372,0.0,0.0,0.0
1609060382028552000,122,1609060382028552000,3.01355539098,4.12199178508,3.7150551041,0.910522020073,0.41253663774,0.0190791885243,-0.019978940178,-0.544527345575,0.592215100501,0.0317273317926,0.0,0.0,0.0
1609060382128589000,123,1609060382128589000,2.95725809797,4.18886600828,3.71601334917,0.903967843156,0.42664832755,0.0217429414356,-0.018455016568,-0.556802682594,0.577045288192,0.00719203119595,0.0,0.0,0.0
1609060382228605000,124,1609060382228605000,2.89930395271,4.25491499921,3.71532103674,0.897149159101,0.440753755064,0.0229338310555,-0.0182634365398,-0.569776324713,0.556664115926,-0.00242519727266,0.0,0.0,0.0
1609060382328603000,125,1609060382328603000,2.83856967687,4.31825650141,3.71550970314,0.890286990354,0.454328910857,0.0241957778273,-0.019720038047,-0.585515238036,0.532864302013,-0.00666039125377,0.0,0.0,0.0
1609060382428677000,126,1609060382428677000,2.77221627179,4.38397100855,3.71641201957,0.883585378239,0.467052145832,0.0258026551478,-0.0217576520457,-0.605757023194,0.514167270991,-0.0117017669994,0.0,0.0,0.0
1609060382528670000,127,1609060382528670000,2.70390011154,4.44650114382,3.71687792136,0.876997971969,0.47910269133,0.0272571499575,-0.0243354905211,-0.622920730968,0.484643238307,-0.019103136545,0.0,0.0,0.0
1609060382628802000,128,1609060382628802000,2.63238643537,4.50774159185,3.71710434579,0.870805825699,0.490155699901,0.0296291715695,-0.0238057970946,-0.642907907024,0.451850743754,-0.0227095574292,0.0,0.0,0.0
1609060382728783000,129,1609060382728783000,2.55960679471,4.56053850059,3.71753108047,0.86467323201,0.500914317993,0.0308568933263,-0.0217462642714,-0.670341120532,0.41793244421,-0.00792413657994,0.0,0.0,0.0
1609060382828958000,130,1609060382828958000,2.48517514417,4.60600849845,3.71944528832,0.858397192848,0.511599615612,0.031732960792,-0.0203251522679,-0.701870807319,0.386007902807,0.00577505574614,0.0,0.0,0.0
1609060382928786000,131,1609060382928786000,2.41214412088,4.64370478924,3.72224097149,0.85198461361,0.522213824292,0.0325544708467,-0.018845326186,-0.727470250628,0.343632569935,0.0136007506256,0.0,0.0,0.0
1609060383028842000,132,1609060383028842000,2.33807205413,4.67549116321,3.72444833524,0.845789482447,0.532276647446,0.0329752850212,-0.0153085774144,-0.75087487844,0.303020684671,0.0210632940912,0.0,0.0,0.0
1609060383128867000,133,1609060383128867000,2.26417958261,4.70111081562,3.72660526434,0.839646516319,0.541905619454,0.0345053452144,-0.0118915259523,-0.77891956556,0.269487658012,0.0271815970203,0.0,0.0,0.0
1609060383228863000,134,1609060383228863000,2.1891948013,4.72396096415,3.72993929514,0.833210467431,0.551634263485,0.0365631858077,-0.0110945822939,-0.813994560214,0.237284646986,0.0400655905987,0.0,0.0,0.0
1609060383328911000,135,1609060383328911000,2.108854044,4.74690860164,3.73496165086,0.826657523533,0.561304551248,0.037551809606,-0.0128219003857,-0.844416066601,0.199778001332,0.0607809200213,0.0,0.0,0.0
1609060383429001000,136,1609060383429001000,2.02406429158,4.76774161412,3.7409562618,0.820495677979,0.570269628248,0.0373867155283,-0.0134769068119,-0.876206451799,0.159751826208,0.0489843466823,0.0,0.0,0.0
1609060383529104000,137,1609060383529104000,1.93476623494,4.78445882273,3.7462334195,0.814433513438,0.578967887188,0.0360445234834,-0.0139653185316,-0.909119624208,0.123962296797,0.0443355258759,0.0,0.0,0.0
1609060383629098000,138,1609060383629098000,1.84213413003,4.79863104497,3.74865455688,0.808421347914,0.58738439504,0.0358001169484,-0.0123631843545,-0.936754011762,0.0855304945183,0.00648993125037,0.0,0.0,0.0
1609060383729111000,139,1609060383729111000,1.74534875554,4.80995502438,3.74913065105,0.802478811523,0.595619910969,0.0337138895507,-0.0113160224852,-0.976698843725,0.0568175052764,-0.0102059456771,0.0,0.0,0.0
1609060383829100000,140,1609060383829100000,1.64564838603,4.8191100757,3.74991587356,0.796557289838,0.603681162214,0.031023541949,-0.0101527454163,-1.00167122216,0.032370447109,-0.00491148843583,0.0,0.0,0.0
1609060383929182000,141,1609060383929182000,1.54322527557,4.82520401458,3.75035819481,0.790630760632,0.611556820117,0.0279570111705,-0.0109389962215,-1.0254545398,0.0155077611075,0.00302441601834,0.0,0.0,0.0
1609060384029172000,142,1609060384029172000,1.43733689997,4.83003729517,3.75232608059,0.784419918666,0.619592534028,0.0249967818229,-0.0128702709779,-1.05355214265,-0.00100465177994,0.0301694637674,0.0,0.0,0.0
1609060384129129000,143,1609060384129129000,1.32936051045,4.83246254727,3.75675186859,0.777803604965,0.627894385706,0.0238361217644,-0.0142137891247,-1.06433057827,-0.019923400913,0.0630690704815,0.0,0.0,0.0
1609060384229197000,144,1609060384229197000,1.22053091815,4.8327511763,3.76198970582,0.771033554636,0.636189343353,0.0237480090377,-0.0143669445522,-1.07812695463,-0.0402646716632,0.0585104759051,0.0,0.0,0.0
1609060384329177000,145,1609060384329177000,1.11047753585,4.8302588696,3.76684029127,0.764296243699,0.644295774687,0.0232925033818,-0.0138443444897,-1.08672001741,-0.0608399949216,0.0563239891187,0.0,0.0,0.0
1609060384429218000,146,1609060384429218000,0.998501964187,4.82590077872,3.77166690009,0.757185327337,0.652647443916,0.0220116743398,-0.0154006560952,-1.09981520778,-0.0797338608242,0.0606299343961,0.0,0.0,0.0
1609060384529220000,147,1609060384529220000,0.886631688319,4.81859402106,3.7768173741,0.749584802267,0.661336126637,0.0225267741204,-0.0158017803597,-1.10870790069,-0.100452570688,0.0521725833141,0.0,0.0,0.0
1609060384629256000,148,1609060384629256000,0.773403376769,4.80936239689,3.78035782151,0.741794489615,0.67005846184,0.0214903043964,-0.0173424251557,-1.11164184901,-0.123411283064,0.0376295477341,0.0,0.0,0.0
1609060384729322000,149,1609060384729322000,0.65919006883,4.79812377857,3.78224490177,0.734312906066,0.67828872266,0.0190759983897,-0.0185760863401,-1.11388354669,-0.147358158011,0.03026349598,0.0,0.0,0.0
1609060384829391000,150,1609060384829391000,0.544272121249,4.7847317281,3.78532134491,0.726690500552,0.68642317821,0.0187522563496,-0.0198113529159,-1.10704407533,-0.168506070018,0.0433735729574,0.0,0.0,0.0
1609060384929453000,151,1609060384929453000,0.430351219933,4.76940023697,3.78956314964,0.719160238286,0.694328799426,0.016295052032,-0.0212259566526,-1.10812615846,-0.190352629817,0.0573696138511,0.0,0.0,0.0
1609060385029443000,152,1609060385029443000,0.317046047669,4.75187819143,3.7946581206,0.711131948941,0.702476853993,0.015552419324,-0.0239946463259,-1.09824183357,-0.210351118893,0.0701394057139,0.0,0.0,0.0
1609060385129488000,153,1609060385129488000,0.207704353134,4.73224119475,3.80149769032,0.703089119665,0.710413080283,0.0167347934228,-0.0264365629543,-1.07663082711,-0.23818252713,0.0603159774516,0.0,0.0,0.0
1609060385229426000,154,1609060385229426000,0.10215975795,4.7094194891,3.80203731035,0.695075056153,0.718348538849,0.0162631101385,-0.0241154368973,-1.06251626776,-0.265396838034,-0.0263679878948,0.0,0.0,0.0
1609060385329431000,155,1609060385329431000,-0.00256927504277,4.6854773511,3.79876594875,0.686854240717,0.726285832668,0.0160790949712,-0.0219454774476,-1.04206677299,-0.282180352814,-0.028910569049,0.0,0.0,0.0
1609060385429483000,156,1609060385429483000,-0.105009324743,4.66000642275,3.79671729267,0.678369023495,0.734278229881,0.0164148174282,-0.0195320980461,-1.03055791326,-0.297611178346,-0.0319103906557,0.0,0.0,0.0
1609060385529493000,157,1609060385529493000,-0.20413464522,4.63285026052,3.79390721767,0.670043602164,0.741939469617,0.0156287414321,-0.0179760136289,-1.01303396217,-0.309224686722,-0.0279720116719,0.0,0.0,0.0
1609060385629612000,158,1609060385629612000,-0.301797266693,4.60425712618,3.78983592615,0.661600678456,0.74951411991,0.0151954440079,-0.0167995477488,-1.0023416424,-0.322158112538,-0.0379570691303,0.0,0.0,0.0
1609060385729662000,159,1609060385729662000,-0.398253797025,4.57391570647,3.78452144772,0.653029244603,0.757017922876,0.0149364660497,-0.015923948013,-0.988950546548,-0.331929512434,-0.0397824506802,0.0,0.0,0.0
1609060385829628000,160,1609060385829628000,-0.491439850258,4.54200876086,3.78002653819,0.644539747967,0.764250568902,0.0156076835481,-0.0156837953732,-0.971382196041,-0.341160003953,-0.037763892305,0.0,0.0,0.0
1609060385929743000,161,1609060385929743000,-0.587227319295,4.50832333095,3.77582109637,0.636063935198,0.771300432317,0.0169353004502,-0.015215421328,-0.964723390665,-0.35723403382,-0.041889868026,0.0,0.0,0.0
1609060386029702000,162,1609060386029702000,-0.680441125282,4.47314326641,3.77207745745,0.627615658134,0.778188207859,0.018535649719,-0.0133464790839,-0.961093208215,-0.372556250889,-0.0296716786327,0.0,0.0,0.0
1609060386129764000,163,1609060386129764000,-0.775845603463,4.43544345814,3.76822125926,0.618988396179,0.785091955648,0.0175839106937,-0.0132209174256,-0.965061956671,-0.387918742255,-0.0312809967686,0.0,0.0,0.0
1609060386229770000,164,1609060386229770000,-0.865346207837,4.39830857883,3.76198433885,0.6103075629,0.79185779499,0.0176023669831,-0.0132690564168,-0.952888843614,-0.401007405877,-0.0412493826736,0.0,0.0,0.0
1609060386329739000,165,1609060386329739000,-0.955900323795,4.35969604031,3.75634612904,0.602049329462,0.798125391065,0.0175194698358,-0.0150177630895,-0.943584702651,-0.414803801594,-0.0367615380709,0.0,0.0,0.0
1609060386429793000,166,1609060386429793000,-1.04767872256,4.31911944193,3.75119360328,0.593430225992,0.804527355787,0.0175644349285,-0.0163643299767,-0.936835002702,-0.432895081386,-0.0332071649426,0.0,0.0,0.0
1609060386529809000,167,1609060386529809000,-1.13852836014,4.27742733901,3.74657801427,0.584628950139,0.810920832765,0.0195638239968,-0.0152856284611,-0.927264205672,-0.451803826301,-0.0377676820584,0.0,0.0,0.0
1609060386629851000,168,1609060386629851000,-1.22842178858,4.23437948191,3.74319172313,0.575663188218,0.817264033062,0.0224085098417,-0.0137569139604,-0.929252258164,-0.47307683929,-0.0167867562633,0.0,0.0,0.0
1609060386729879000,169,1609060386729879000,-1.31675024104,4.18901373791,3.7415252394,0.565794732567,0.824118205676,0.0227640146498,-0.0136858799075,-0.93276904881,-0.500444939694,-0.0289020440505,0.0,0.0,0.0
1609060386830005000,170,1609060386830005000,-1.40710810438,4.14080572384,3.73857516542,0.555472016432,0.831152639285,0.0219773867972,-0.0123743137041,-0.929051359551,-0.517816989568,-0.0150803468726,0.0,0.0,0.0
1609060386929964000,171,1609060386929964000,-1.49699609494,4.09077981321,3.73502889707,0.545154691252,0.837976038558,0.0216677682491,-0.0115338296869,-0.930364424474,-0.535909352009,-0.0184148926105,0.0,0.0,0.0
1609060387030083000,172,1609060387030083000,-1.58783367577,4.03704386121,3.73355169999,0.534299982038,0.844844500303,0.0241220664345,-0.0133949771934,-0.936999284814,-0.562472815876,0.00531161107508,0.0,0.0,0.0
1609060387129946000,173,1609060387129946000,-1.67790227342,3.9810174206,3.73304797965,0.523541677339,0.851533379669,0.0234072607884,-0.0157199090726,-0.932470037398,-0.593363414304,-0.00627934412634,0.0,0.0,0.0
1609060387230084000,174,1609060387230084000,-1.76848456361,3.92112333394,3.7310209914,0.512560600675,0.858170592428,0.0229833852259,-0.0172229187744,-0.920963861803,-0.625705469642,-0.0128775862409,0.0,0.0,0.0
1609060387330254000,175,1609060387330254000,-1.86148123389,3.85685004594,3.72897885225,0.501043289483,0.864918577098,0.0218079411528,-0.0198970037149,-0.917298364257,-0.661803955316,-0.0269974807846,0.0,0.0,0.0
1609060387430110000,176,1609060387430110000,-1.95326449627,3.78998281535,3.72653916905,0.489363196873,0.871511087084,0.0223191098759,-0.0222248502861,-0.906105025204,-0.694965548798,-0.00822609137514,0.0,0.0,0.0
1609060387530152000,177,1609060387530152000,-2.04419413127,3.71896938585,3.72644186837,0.47716234581,0.878058550422,0.0196035168788,-0.0307405253473,-0.887970638081,-0.735825830314,0.0186158910082,0.0,0.0,0.0
1609060387630154000,178,1609060387630154000,-2.13295165944,3.6427397334,3.7256250942,0.465160923659,0.884297245133,0.0175840160789,-0.0365308052055,-0.844678426718,-0.778267040451,-0.0111088702223,0.0,0.0,0.0
1609060387730180000,179,1609060387730180000,-2.21706827883,3.56289542159,3.72253954744,0.453366481772,0.890324431258,0.0144784032304,-0.0396436142433,-0.794239549698,-0.819460798384,-0.0428970802603,0.0,0.0,0.0
1609060387830233000,180,1609060387830233000,-2.29769181462,3.47707715229,3.71838382703,0.441572009695,0.896245292096,0.0128694379883,-0.0399113294042,-0.745366024788,-0.864491139142,-0.0635141852615,0.0,0.0,0.0
1609060387930204000,181,1609060387930204000,-2.37551570607,3.38596111508,3.71369748143,0.429981867039,0.901932719349,0.0111689853722,-0.0388357766972,-0.696990244673,-0.905247300241,-0.0621157766906,0.0,0.0,0.0
1609060388030275000,182,1609060388030275000,-2.45070018395,3.28865948752,3.70901803878,0.418317217535,0.907518600963,0.00886695579198,-0.0366342942464,-0.650184463748,-0.94583356689,-0.0836911785605,0.0,0.0,0.0
1609060388130322000,183,1609060388130322000,-2.51761580793,3.18962412215,3.70111907799,0.406547373582,0.913026741739,0.00487385870072,-0.0328275403379,-0.603213106772,-0.97222021053,-0.0816484598825,0.0,0.0,0.0
1609060388230376000,184,1609060388230376000,-2.57838865398,3.09032643098,3.69280599334,0.394374480565,0.918511025082,0.00474945341362,-0.0279947954698,-0.564403686646,-0.990246587616,-0.0733948718859,0.0,0.0,0.0
1609060388330404000,185,1609060388330404000,-2.63294550246,2.99169884491,3.68542648272,0.381290418872,0.924128632737,0.00309626570773,-0.0243782643089,-0.532107270544,-1.00410748458,-0.0798900758491,0.0,0.0,0.0
1609060388430478000,186,1609060388430478000,-2.67457224434,2.89808567052,3.67760208996,0.367428325437,0.929777933213,-0.000354110085974,-0.022567569288,-0.492809532639,-1.00401337379,-0.0537699529922,0.0,0.0,0.0
1609060388530406000,187,1609060388530406000,-2.70560491697,2.80967059016,3.67575123887,0.352714178312,0.93547555736,-0.0019629141785,-0.0217792783817,-0.442758808381,-0.995328599991,-0.016118194589,0.0,0.0,0.0
1609060388630483000,188,1609060388630483000,-2.73831862877,2.71851119834,3.67404521882,0.337980626736,0.940872399592,-0.00313937889768,-0.0227676950405,-0.391158549032,-0.981470845116,0.00916765831339,0.0,0.0,0.0
1609060388730481000,189,1609060388730481000,-2.77124829731,2.62555691435,3.67129062529,0.325247318474,0.945389448424,-0.00180205740966,-0.0212067259092,-0.338995718749,-0.962866991712,0.00110710388499,0.0,0.0,0.0
1609060388830484000,190,1609060388830484000,-2.80753246207,2.52794461722,3.66754967094,0.313640414582,0.949367695668,-0.00261667208406,-0.0179950490264,-0.312068916865,-0.957263845373,-0.00124799941574,0.0,0.0,0.0
1609060388930585000,191,1609060388930585000,-2.84699765582,2.42712729661,3.66398507837,0.302265316908,0.953102990304,-0.00106239086802,-0.0151406536778,-0.301708061998,-0.957251521028,0.0116915786997,0.0,0.0,0.0
1609060389030557000,192,1609060389030557000,-2.88734414291,2.32503080967,3.6614796874,0.291501331232,0.956468575751,-0.000700720087398,-0.0139408206801,-0.294606482663,-0.956914183722,0.0202765933968,0.0,0.0,0.0
1609060389130602000,193,1609060389130602000,-2.92607256054,2.22222735327,3.66104021316,0.280989155841,0.959600769632,-0.000396135673483,-0.014536172042,-0.288722243718,-0.962626603724,0.0389918938257,0.0,0.0,0.0
1609060389230605000,194,1609060389230605000,-2.95935462531,2.12179983624,3.66438381015,0.270608788802,0.962555834324,-0.000840566624834,-0.0160138277576,-0.273771170853,-0.957947469128,0.0526321784036,0.0,0.0,0.0
1609060389330656000,195,1609060389330656000,-2.98185339851,2.02820682259,3.66714319367,0.260452227755,0.965338698261,-0.000208963001712,-0.0169053551256,-0.243295742872,-0.951042330724,0.0259884819317,0.0,0.0,0.0
1609060389430730000,196,1609060389430730000,-3.00108815645,1.9379192724,3.66808745536,0.250648672245,0.967947177475,0.00294214240193,-0.0156476361656,-0.217320759525,-0.947294661942,0.0103653257422,0.0,0.0,0.0
1609060389530792000,197,1609060389530792000,-3.0188625184,1.84904324426,3.66942400779,0.240901759156,0.970416497906,0.00562354622919,-0.0150512044181,-0.18820464093,-0.94254214636,0.00582033078361,0.0,0.0,0.0
1609060389630735000,198,1609060389630735000,-3.03453441323,1.76100677071,3.67214086714,0.231140827135,0.972791429356,0.00580959722319,-0.0147309735888,-0.173667468707,-0.952896136479,0.0142913378991,0.0,0.0,0.0
1609060389730743000,199,1609060389730743000,-3.05067240644,1.66770548237,3.67303393239,0.220960627294,0.975164327852,0.00693704761396,-0.0135208077283,-0.158263907438,-0.962755357864,0.0168124197903,0.0,0.0,0.0
1609060389830778000,200,1609060389830778000,-3.06574112669,1.57256544071,3.67313198271,0.211162543253,0.977348218036,0.00432031315057,-0.0134972561352,-0.140764461186,-0.971251968752,0.00208994419059,0.0,0.0,0.0
1609060389930850000,201,1609060389930850000,-3.0786347715,1.47768364942,3.67363552597,0.200804811009,0.979542473245,0.00188065659574,-0.0130550417411,-0.12872634444,-0.975119646738,0.00839888346897,0.0,0.0,0.0
1609060390030895000,202,1609060390030895000,-3.08993398487,1.38250005223,3.67356036863,0.190196361268,0.981665423824,0.000484503408545,-0.0125739844713,-0.114424321137,-0.973518310959,-0.00432909487723,0.0,0.0,0.0
1609060390130927000,203,1609060390130927000,-3.09945852051,1.28842147497,3.67228850398,0.179351977273,0.98371099221,0.000587936594177,-0.0120501612002,-0.0989663099565,-0.970391740144,-0.0342560566847,0.0,0.0,0.0
1609060390230927000,204,1609060390230927000,-3.10901774698,1.19406891162,3.66743059532,0.168859686576,0.985574362959,-0.000930950034749,-0.0113452483233,-0.0882041537054,-0.96245146407,-0.0485494402111,0.0,0.0,0.0
1609060390330967000,205,1609060390330967000,-3.11581020342,1.10032679084,3.66092919785,0.158170781303,0.987346720308,-0.000885987223522,-0.011299241777,-0.0789145018068,-0.958359727526,-0.0575116310994,0.0,0.0,0.0
1609060390430997000,206,1609060390430997000,-3.12143029109,1.00599950066,3.65255293123,0.14736381729,0.989016455031,5.76789638671e-05,-0.0114172547309,-0.0690823343187,-0.959674737289,-0.0951862804964,0.0,0.0,0.0
1609060390531055000,207,1609060390531055000,-3.12627291785,0.913253148328,3.6409978916,0.136162150701,0.990616952923,-0.00037501357075,-0.0117380008349,-0.0638507802753,-0.961203597883,-0.100217129969,0.0,0.0,0.0
1609060390631069000,208,1609060390631069000,-3.13108405554,0.81995568965,3.62953133124,0.125266410561,0.992030506487,-0.00187350918358,-0.0134272315942,-0.0502892769344,-0.953758805536,-0.111059213636,0.0,0.0,0.0
1609060390731034000,209,1609060390731034000,-3.13450893947,0.726408403417,3.61757689128,0.11472538062,0.993289914762,-0.00213344648785,-0.0144457841691,-0.0378622270716,-0.947123391359,-0.121708983242,0.0,0.0,0.0
1609060390831081000,210,1609060390831081000,-3.13692294824,0.629956970759,3.60616377865,0.103745893407,0.994490832,-0.00250824675644,-0.0147811828828,-0.025112258135,-0.954834439563,-0.112560363777,0.0,0.0,0.0
1609060390931121000,211,1609060390931121000,-3.13738321039,0.535040899,3.59692756212,0.0927264779474,0.995535204185,-0.00465570317072,-0.017022982817,-0.00482370579496,-0.948673667906,-0.094929328491,0.0,0.0,0.0
1609060391031136000,212,1609060391031136000,-3.13567140253,0.441235498656,3.58833600871,0.0816815311667,0.996477105478,-0.00529899615721,-0.0182599661533,0.0164600023835,-0.938060717058,-0.085587913811,0.0,0.0,0.0
1609060391131243000,213,1609060391131243000,-3.13139416453,0.348239948355,3.58102413032,0.0705484851001,0.997280720723,-0.0071541445586,-0.0200722081612,0.0410090123928,-0.930165916864,-0.0628819058763,0.0,0.0,0.0
1609060391231208000,214,1609060391231208000,-3.12419553358,0.250435568279,3.57795783892,0.0592067677136,0.997969840392,-0.00780187092864,-0.0221333941143,0.0722998238645,-0.925160607339,-0.0346970194298,0.0,0.0,0.0
1609060391331268000,215,1609060391331268000,-3.11436032148,0.156583168387,3.57661291732,0.0484366024546,0.998558050058,-0.00644450426364,-0.0222302625405,0.103679650958,-0.909279694196,-0.0244934931303,0.0,0.0,0.0
1609060391431283000,216,1609060391431283000,-3.10153151903,0.066414218245,3.57551184378,0.0377699208808,0.999008807499,-0.00421889152241,-0.0231740494966,0.133616077866,-0.905921961109,0.0151073451531,0.0,0.0,0.0
1609060391531317000,217,1609060391531317000,-3.08538789595,-0.0236747818732,3.57761510902,0.0267316193688,0.999268722654,0.00050120935084,-0.0273347624917,0.171980250345,-0.9110919216,0.00475268088428,0.0,0.0,0.0
1609060391631347000,218,1609060391631347000,-3.06529169832,-0.112440105962,3.57813410861,0.0155554568963,0.999513131555,-0.00405259024389,-0.0267414308127,0.214785145467,-0.912303896612,0.00400367403324,0.0,0.0,0.0
1609060391731429000,219,1609060391731429000,-3.04111052418,-0.200099490055,3.57851953245,0.00421847265856,0.99971041409,-0.00537845763142,-0.0230730284508,0.253734079231,-0.896327311459,-0.00792767614801,0.0,0.0,0.0
1609060391831364000,220,1609060391831364000,-3.01378874071,-0.283192969845,3.57910602191,-0.00713939774259,0.999782687841,-0.00686007503542,-0.0183451755091,0.278922521682,-0.883945434192,0.00557155302761,0.0,0.0,0.0
1609060391931488000,221,1609060391931488000,-2.98398980231,-0.365757055704,3.58113588838,-0.0196999083295,0.99966662196,-0.00655954459546,-0.0153470168333,0.297055277454,-0.879376819834,0.016400891034,0.0,0.0,0.0
1609060392031503000,222,1609060392031503000,-2.95202350764,-0.4491248703,3.58305766699,-0.0339872589487,0.99930281781,-0.00793437694634,-0.0132585899698,0.312215057027,-0.875547330372,0.026353804565,0.0,0.0,0.0
1609060392131506000,223,1609060392131506000,-2.9184703504,-0.531783993242,3.58515273128,-0.0491614995386,0.998650295532,-0.0109828416736,-0.012653512744,0.32421035927,-0.863784139159,0.0352687852522,0.0,0.0,0.0
1609060392231492000,224,1609060392231492000,-2.88384855895,-0.613959936611,3.58663001756,-0.0648104559109,0.997719971332,-0.0136294608656,-0.0129885105448,0.338352545735,-0.838363001475,0.0319947251691,0.0,0.0,0.0
1609060392331526000,225,1609060392331526000,-2.8480887683,-0.697447586158,3.58725787292,-0.0806022008789,0.996574432076,-0.0128348673539,-0.0133398922924,0.34988373238,-0.817458666627,0.0348857243064,0.0,0.0,0.0
1609060392431613000,226,1609060392431613000,-2.81031471429,-0.781268699831,3.59008654774,-0.0963048198263,0.99518825566,-0.0119767481007,-0.0135009251473,0.363804119442,-0.800052088279,0.0318721259118,0.0,0.0,0.0
1609060392531666000,227,1609060392531666000,-2.77023627607,-0.863178108771,3.59032570916,-0.111735228046,0.993573544126,-0.0119835713968,-0.0135368106535,0.380140994455,-0.788455913205,0.0257878589235,0.0,0.0,0.0
1609060392631667000,228,1609060392631667000,-2.72892849411,-0.940539552884,3.59157270615,-0.127250149182,0.991693370447,-0.0130125263095,-0.0135030627702,0.397007182042,-0.767581108842,0.038326876895,0.0,0.0,0.0
1609060392731718000,229,1609060392731718000,-2.68692479603,-1.01873626445,3.59662090231,-0.142846910368,0.989556787013,-0.0151577123179,-0.0119318578378,0.408430208647,-0.747754129975,0.0956116252915,0.0,0.0,0.0
1609060392831728000,230,1609060392831728000,-2.64383077215,-1.09577495121,3.60745849534,-0.15834070601,0.987173142973,-0.0160824233413,-0.0126000901414,0.41948640083,-0.726318892915,0.105580365124,0.0,0.0,0.0
1609060392931745000,231,1609060392931745000,-2.59854575601,-1.17396042421,3.6177971683,-0.173913040297,0.984524245835,-0.01738234969,-0.0128108429417,0.432394858426,-0.708197189106,0.103831954735,0.0,0.0,0.0
1609060393031739000,232,1609060393031739000,-2.5527443788,-1.24888126423,3.62805384369,-0.189562771087,0.981600275692,-0.0188981543533,-0.0130274456707,0.44277491469,-0.682264097958,0.0960033510124,0.0,0.0,0.0
1609060393131808000,233,1609060393131808000,-2.50563202263,-1.32024408195,3.63827049238,-0.205519732532,0.978343429645,-0.0206499495334,-0.0133922661876,0.455040530378,-0.65827692325,0.0948603058915,0.0,0.0,0.0
1609060393231837000,234,1609060393231837000,-2.45572298562,-1.39176477265,3.64733046027,-0.22119505704,0.974925483626,-0.0204258363911,-0.0132602158756,0.46628812226,-0.632531401926,0.0864114168265,0.0,0.0,0.0
1609060393331863000,235,1609060393331863000,-2.40423849753,-1.46211455046,3.65464622577,-0.236816284931,0.971218462272,-0.0222824476358,-0.0124995304551,0.482155092407,-0.615923097712,0.0791346732166,0.0,0.0,0.0
1609060393431889000,236,1609060393431889000,-2.35179481224,-1.53196313113,3.66160030486,-0.25261528026,0.967181850505,-0.0247095206558,-0.0115856731072,0.492848927542,-0.593585298472,0.0795983738777,0.0,0.0,0.0
1609060393532018000,237,1609060393532018000,-2.29669278335,-1.60120996144,3.66893092134,-0.268259477256,0.962900014459,-0.0274119230258,-0.0104403780561,0.493805848221,-0.557016044217,0.0811638989529,0.0,0.0,0.0
1609060393632124000,238,1609060393632124000,-2.24054340333,-1.66866892927,3.67619019429,-0.283896563809,0.958440897283,-0.0259961318987,-0.0108622556828,0.498470022667,-0.529201765702,0.0776724581135,0.0,0.0,0.0
1609060393732032000,239,1609060393732032000,-2.1859067938,-1.73123685836,3.683311332,-0.299678088002,0.953691519565,-0.0226607131432,-0.0123296861725,0.506447403574,-0.512915189425,0.0755400484826,0.0,0.0,0.0
1609060393832152000,240,1609060393832152000,-2.13195198532,-1.78913119878,3.68911135377,-0.315181001604,0.948803856649,-0.0159459780148,-0.0133380516541,0.513683364266,-0.487002876713,0.0470728701543,0.0,0.0,0.0
1609060393932143000,241,1609060393932143000,-2.07837490852,-1.84421600573,3.69455528753,-0.330330679054,0.943691735507,-0.0117981868279,-0.0137241975926,0.527161863428,-0.484607728988,0.0462119889664,0.0,0.0,0.0
1609060394032124000,242,1609060394032124000,-2.02526514743,-1.89718773137,3.69920192192,-0.345573662327,0.938239011638,-0.00805944759836,-0.0148810702539,0.542096845261,-0.485289197878,0.0429808200481,0.0,0.0,0.0
1609060394132088000,243,1609060394132088000,-1.97104234595,-1.94805340586,3.70306124677,-0.360622838782,0.932566917927,-0.00685136484711,-0.0149388933825,0.555442845259,-0.480825660779,0.036509493911,0.0,0.0,0.0
1609060394232134000,244,1609060394232134000,-1.91707835491,-1.99722751452,3.70685700915,-0.375269938826,0.926773026979,-0.00743634844973,-0.0144544180199,0.566469792406,-0.476069603087,0.043548909436,0.0,0.0,0.0
1609060394332186000,245,1609060394332186000,-1.86207247674,-2.04554307555,3.71232203582,-0.389572139145,0.920834226519,-0.00925243883706,-0.0145694217006,0.579708863782,-0.472733749519,0.0499006460177,0.0,0.0,0.0
1609060394432127000,246,1609060394432127000,-1.80497392132,-2.09115990765,3.71680085516,-0.403075282583,0.91498384481,-0.0102891137187,-0.0151332232418,0.588397424278,-0.457626945014,0.0439297026389,0.0,0.0,0.0
1609060394532190000,247,1609060394532190000,-1.74589498178,-2.1366552953,3.7198513936,-0.416142670154,0.909094735104,-0.0109169281203,-0.0159016151564,0.599713204996,-0.443770508543,0.0257600964759,0.0,0.0,0.0
1609060394632264000,248,1609060394632264000,-1.68572389968,-2.18144088803,3.72189071864,-0.429150812162,0.903017144799,-0.0103097586537,-0.0168322754145,0.612615185395,-0.429387398181,0.0135667188643,0.0,0.0,0.0
1609060394732287000,249,1609060394732287000,-1.62385129651,-2.22467743318,3.72365432056,-0.441553516199,0.897009993087,-0.00938662219995,-0.0177610798869,0.627636024188,-0.414632304507,0.000713968646276,0.0,0.0,0.0
1609060394832301000,250,1609060394832301000,-1.56195775398,-2.26601201991,3.72268394863,-0.454182306797,0.890679832806,-0.00743851580362,-0.0187759449405,0.649712843519,-0.406582675775,-0.0142264904105,0.0,0.0,0.0
1609060394932476000,251,1609060394932476000,-1.49689799806,-2.30620285248,3.72041633311,-0.46732231765,0.883852854369,-0.00619999167431,-0.0193789409906,0.675659268064,-0.400970734912,-0.0447187040077,0.0,0.0,0.0
1609060395032375000,252,1609060395032375000,-1.42594996575,-2.3469718629,3.71613173562,-0.480221550521,0.876938611942,-0.00563258931901,-0.0182813357773,0.69567235897,-0.38887771642,-0.0803632665024,0.0,0.0,0.0
1609060395132486000,253,1609060395132486000,-1.3515568655,-2.38629243017,3.71094750048,-0.492906447086,0.869899366906,-0.00595444578985,-0.0168187529995,0.728259835368,-0.385710769324,-0.073919302104,0.0,0.0,0.0
1609060395232446000,254,1609060395232446000,-1.27510769783,-2.42353600279,3.70479033252,-0.50568940642,0.86254193657,-0.00812729468324,-0.0152832906592,0.752812540472,-0.375717867333,-0.0667956923105,0.0,0.0,0.0
1609060395332501000,255,1609060395332501000,-1.19817716152,-2.45965949507,3.69922556679,-0.518407824607,0.854968249451,-0.0092432901256,-0.0140421296408,0.769792601445,-0.360158311454,-0.063284696717,0.0,0.0,0.0
1609060395432484000,256,1609060395432484000,-1.12067269434,-2.49378246665,3.69450014235,-0.531147446514,0.847111353071,-0.0095616329795,-0.0139039826979,0.786682846838,-0.349453049691,-0.0461724588866,0.0,0.0,0.0
1609060395532512000,257,1609060395532512000,-1.04256158677,-2.52565232062,3.6902617668,-0.544598728622,0.838502465789,-0.00956223953007,-0.0153102326428,0.804852387282,-0.336421077115,-0.0292181285319,0.0,0.0,0.0
1609060395632528000,258,1609060395632528000,-0.962061324602,-2.55498748724,3.68684919567,-0.558673894323,0.829149724955,-0.0106650164132,-0.0167472634854,0.823611487202,-0.31477095122,-0.0297749658055,0.0,0.0,0.0
1609060395732611000,259,1609060395732611000,-0.878097959291,-2.58335380023,3.68410731102,-0.572588156785,0.819554759385,-0.0123176207198,-0.0179185741526,0.846470570867,-0.291784776966,-0.0202734684959,0.0,0.0,0.0
1609060395832654000,260,1609060395832654000,-0.790582346923,-2.61061462877,3.68263805531,-0.586259792104,0.809791236381,-0.0128703456822,-0.0192863642129,0.867656255614,-0.263608060154,-0.0242399633146,0.0,0.0,0.0
1609060395932640000,261,1609060395932640000,-0.700009483423,-2.63648224205,3.68111975986,-0.599738021895,0.79983522134,-0.0127083110785,-0.0204064359453,0.896229921474,-0.238186665531,-0.025091684994,0.0,0.0,0.0
1609060396032835000,262,1609060396032835000,-0.610633640051,-2.65881010592,3.67789827684,-0.612987721038,0.789731647756,-0.0128309673418,-0.0201331732874,0.921961686308,-0.211819891437,-0.0314405365862,0.0,0.0,0.0
1609060396132937000,263,1609060396132937000,-0.517973563241,-2.6780709981,3.67525679742,-0.626043781804,0.779425228635,-0.0135957594251,-0.0195102936352,0.94073205641,-0.182575643504,-0.0260443955099,0.0,0.0,0.0
1609060396232758000,264,1609060396232758000,-0.423529150211,-2.69479878215,3.67491558543,-0.638901904559,0.768893314193,-0.0152349681217,-0.0193732673021,0.957248328076,-0.152935527096,-0.009454362149,0.0,0.0,0.0
1609060396332703000,265,1609060396332703000,-0.326556516809,-2.7094001746,3.6739849543,-0.651715314862,0.757999278233,-0.016512431535,-0.0207745560334,0.981272143335,-0.124248250602,-0.00789330225192,0.0,0.0,0.0
1609060396432777000,266,1609060396432777000,-0.227243390785,-2.72190214531,3.67351014745,-0.663960822627,0.747216703651,-0.0204742400866,-0.020100479954,0.99051518611,-0.0889261802548,0.020377861481,0.0,0.0,0.0
1609060396532812000,267,1609060396532812000,-0.128626075583,-2.72992903777,3.67621645036,-0.675360872424,0.7367399485,-0.0242023024423,-0.022719789602,0.990679795719,-0.0417506953402,0.00253462556288,0.0,0.0,0.0
1609060396632853000,268,1609060396632853000,-0.0290610073982,-2.73325886891,3.67809612366,-0.686415252986,0.726361074532,-0.0253111618601,-0.0243523090903,0.999387944314,0.00689622521095,0.000655003268887,0.0,0.0,0.0
1609060396732743000,269,1609060396732743000,0.072206007143,-2.73278081744,3.6788136536,-0.697223538809,0.715954766803,-0.0268768378128,-0.0237853823103,1.00321443869,0.0570382103503,-0.00049553148138,0.0,0.0,0.0
1609060396832860000,270,1609060396832860000,0.174422779491,-2.72721607307,3.67915461285,0.708037420106,-0.705283255648,0.0267189185995,0.0233375324612,1.01356746266,0.108716964159,-0.00137926681847,0.0,0.0,0.0
1609060396932960000,271,1609060396932960000,0.277568400389,-2.71728625863,3.68020875634,0.718711591123,-0.694474963332,0.0248505915769,0.0232512835695,1.01723910542,0.155170818995,-0.00097849724865,0.0,0.0,0.0
1609060397032977000,272,1609060397032977000,0.378841358245,-2.70136433685,3.68044482702,0.729300309901,-0.683396060046,0.0232827938798,0.0234263655199,1.02683478496,0.202011209966,-0.00980959885947,0.0,0.0,0.0
1609060397133087000,273,1609060397133087000,0.481022962156,-2.68022501735,3.67993667957,0.73975267481,-0.672128506256,0.0218881118595,0.0230252415459,1.03734249874,0.252163240646,-0.0133846172004,0.0,0.0,0.0
1609060397232993000,274,1609060397232993000,0.583778650972,-2.65440166281,3.67917363277,0.74993274572,-0.660811180676,0.0216092512235,0.0215058283088,1.0437752154,0.291608312913,-0.00643954809405,0.0,0.0,0.0
1609060397333441000,275,1609060397333441000,0.685622207548,-2.62352436046,3.67960791172,0.759988416048,-0.64924566806,0.0204422412639,0.0219039893949,1.04706366837,0.336093951787,-0.00458921163869,0.0,0.0,0.0
1609060397433143000,276,1609060397433143000,0.788831481835,-2.58914134229,3.67941002265,0.769759163603,-0.63766987972,0.0200785084973,0.0210904728,1.05308359215,0.376711347562,-0.00482215742104,0.0,0.0,0.0
1609060397533121000,277,1609060397533121000,0.894721005565,-2.55055943293,3.67813283677,0.779366934366,-0.625906394123,0.0187232493353,0.0218588047921,1.06316250005,0.418743590463,-0.0122275925218,0.0,0.0,0.0
1609060397633281000,278,1609060397633281000,1.00254506727,-2.50767009534,3.67680162869,0.788785108187,-0.614035382641,0.0184679736698,0.0209173591783,1.07438820979,0.458646649614,-0.00250396111398,0.0,0.0,0.0
1609060397733194000,279,1609060397733194000,1.11231269235,-2.46163706472,3.6764314392,0.798077245613,-0.601976960346,0.0185411568595,0.0187796365704,1.07921134299,0.495070646916,-0.0095523387968,0.0,0.0,0.0
1609060397833256000,280,1609060397833256000,1.22149850235,-2.41131514282,3.67616876246,0.807229377778,-0.58973760223,0.0171442694446,0.0172152895284,1.08885468015,0.530945959225,0.0064376146638,0.0,0.0,0.0
1609060397933161000,281,1609060397933161000,1.33139392697,-2.35760811654,3.67748187143,0.816155190262,-0.577385414292,0.0164491988939,0.0156911639745,1.09730004428,0.561854493005,0.0233660237115,0.0,0.0,0.0
1609060398033246000,282,1609060398033246000,1.44156466672,-2.30038529285,3.68021317945,0.825035677622,-0.564648257754,0.0171607080388,0.013927877285,1.10060302591,0.591756879208,0.0444747101826,0.0,0.0,0.0
1609060398133264000,283,1609060398133264000,1.55205549817,-2.23995569821,3.68454308206,0.833824828362,-0.551582889693,0.0177518612851,0.0133170126635,1.10080058516,0.621677263428,0.0541659639171,0.0,0.0,0.0
