%time,field.header.seq,field.header.stamp,field.pose.pose.position.x,field.pose.pose.position.y,field.pose.pose.position.z,field.pose.pose.orientation.x,field.pose.pose.orientation.y,field.pose.pose.orientation.z,field.pose.pose.orientation.w,field.twist.twist.linear.x,field.twist.twist.linear.y,field.twist.twist.linear.z,field.twist.twist.angular.x,field.twist.twist.angular.y,field.twist.twist.angular.z
1609043708112673000,0,1609043708112673000,-0.672375484729,0.0236123388843,-0.603767650807,0.999803904428,-0.00274037921947,0.00374345603767,-0.0192517414358,-0.216814586909,0.0255900689092,-0.57974877629,0.0,0.0,0.0
1609043708212659000,1,1609043708212659000,-1.34207418816,0.55422019861,-0.781713022871,0.999825318731,-0.000363754986722,0.00381683307425,-0.0182929355821,-0.488255645605,0.197190309446,-0.656372205351,0.0,0.0,0.0
1609043708312750000,2,1609043708312750000,-1.70552810757,0.669177710548,-1.13207755188,0.999823483829,0.000886918171645,0.000787194192266,-0.0187508636006,-0.597914415328,0.285501574212,-0.937836222606,0.0,0.0,0.0
1609043708412765000,3,1609043708412765000,-1.9886530048,0.841872509495,-1.46948062361,0.99977767105,0.000957206173935,0.00481176350162,-0.0205070514465,-0.607743239684,0.258006082528,-0.922906457719,0.0,0.0,0.0
1609043708512788000,4,1609043708512788000,-2.26892911101,1.03496518015,-1.74651789841,0.999564262136,0.00051128484678,0.0216243385702,-0.0200851295666,-0.652931161681,0.249643615398,-0.984349430705,0.0,0.0,0.0
1609043708612789000,5,1609043708612789000,-2.55654563904,1.21254790886,-1.99502998806,0.999316939815,0.000267841990785,0.0320119450819,-0.018461241317,-0.716362060148,0.257477705786,-1.08748160161,0.0,0.0,0.0
1609043708712828000,6,1609043708712828000,-2.80802633938,-0.121240715615,-2.55700091007,0.998139638203,0.000321202113592,0.0581782332715,-0.018233284139,-0.529052355592,-0.283214620832,-1.07389156359,0.0,0.0,0.0
1609043708812816000,7,1609043708812816000,-2.19694099147,0.681984167689,-3.18799389854,0.997356888141,0.00342891444694,0.0669828306564,-0.0279424519511,-0.363806785352,-0.535210291205,-1.42636008576,0.0,0.0,0.0
1609043708912901000,8,1609043708912901000,-2.43928479008,0.214875494507,-3.4937840147,0.997262829218,0.00310165756561,0.0690878257055,-0.0261553344251,-0.346974428468,-0.572042543829,-1.49487687374,0.0,0.0,0.0
1609043709012877000,9,1609043709012877000,-2.6208485821,0.235999234995,-3.74225095197,0.997323638758,0.00281936059833,0.0672489730536,-0.0285514693593,-0.507368633995,-0.724351935549,-1.61469057307,0.0,0.0,0.0
1609043709112952000,10,1609043709112952000,-3.05381620848,0.0390072844417,-3.69394582621,0.998243754653,0.00152977637582,0.0545980166189,-0.0229373638745,-0.733963735546,-0.801890428016,-1.56050887336,0.0,0.0,0.0
1609043709212967000,11,1609043709212967000,-3.39049789443,0.102948022178,-3.35767503984,0.999105047111,0.00145427868053,0.039346778545,-0.0154538322068,-0.973220869861,-0.720883798941,-1.43196639941,0.0,0.0,0.0
1609043709312987000,12,1609043709312987000,-3.4886592949,0.436552873001,-2.75456406414,0.999431119999,0.00131062475165,0.0311015888274,-0.0129772806628,-1.2149131681,-0.588785547342,-1.26256556378,0.0,0.0,0.0
1609043710513313000,13,1609043710513313000,-0.038032476242,0.0259341297982,-0.0316996909383,0.999802294841,-0.000660255303994,8.31191007458e-06,-0.0198729772647,-0.0141487558266,-0.000438741463472,-0.0289370484365,0.0,0.0,0.0
1609043710613371000,14,1609043710613371000,-0.0558800725895,0.011715093527,-0.0446462813814,0.999798980455,-0.00101210435302,0.00341350714058,-0.0197312517219,-0.0214239412612,-0.0335333726308,-0.00662821472809,0.0,0.0,0.0
1609043710713403000,15,1609043710713403000,-0.0712807594896,0.0210770379215,-0.0567491654952,0.999747635202,-0.0015667627534,0.0103739024635,-0.0198643728866,-0.0175655651301,-0.0447780036373,0.0242396687944,0.0,0.0,0.0
1609043710813443000,16,1609043710813443000,-0.0897479571657,0.0344956274439,-0.0630910000351,0.999618909145,-0.00216439415048,0.017870308738,-0.0209285437306,-0.0146673918551,-0.0435982994421,0.0180749139285,0.0,0.0,0.0
1609043710913429000,17,1609043710913429000,-0.0928521537369,0.0391119005114,-0.0507234760872,0.999460454125,-0.00273285253507,0.0240539151392,-0.022197777434,-0.0346510655847,-0.0624577680499,0.00899351271107,0.0,0.0,0.0
1609043711013512000,18,1609043711013512000,-0.088043533768,0.0365509373637,-0.0235121772601,0.999353212881,-0.00300607276815,0.0275626159144,-0.0229002540198,-0.0483333126441,-0.0829668976668,0.0491306134425,0.0,0.0,0.0
1609043711113522000,19,1609043711113522000,-0.0904078397104,0.0308833978706,-0.00287485272041,0.999298886212,-0.00342493597475,0.0294792438011,-0.0228249866159,-0.0754011387017,-0.107911417406,0.0972044360481,0.0,0.0,0.0
1609043711213636000,20,1609043711213636000,-0.100698990822,0.0303453898191,0.0177826597384,0.999537867353,-0.00390445853096,0.0223698323887,-0.0202088478265,-0.112963680307,-0.116610746984,0.0727091156205,0.0,0.0,0.0
1609043711313575000,21,1609043711313575000,-0.123199744735,0.0345955599355,0.0301488347106,0.999653218917,-0.00445897701991,0.0189674552554,-0.0177142618696,-0.132572428743,-0.109079345771,0.0426694240394,0.0,0.0,0.0
1609043711413568000,22,1609043711413568000,-0.153040488701,0.0292747619823,0.0242309858974,0.9997174518,-0.00465075844158,0.0164150768434,-0.016550899207,-0.155237236694,-0.115209696927,0.0306341712499,0.0,0.0,0.0
1609043711513696000,23,1609043711513696000,-0.185646422878,0.0332854718125,0.0168948031163,0.999744352499,-0.00505749174638,0.0154267345558,-0.0157374484994,-0.176567872381,-0.112854540713,0.0464261127544,0.0,0.0,0.0
1609043711613730000,24,1609043711613730000,-0.211129432782,0.0293673217771,0.0202775856651,0.999754858341,-0.00538035676544,0.0149701773562,-0.0154002848841,-0.188884961929,-0.120637585909,0.0890747068052,0.0,0.0,0.0
1609043711713735000,25,1609043711713735000,-0.233297650307,0.0232298470836,0.0302526522024,0.999758638882,-0.00574273820397,0.0149396432267,-0.0150496511538,-0.195699680117,-0.121095058151,0.125780016011,0.0,0.0,0.0
1609043711813728000,26,1609043711813728000,-0.253849431374,0.0151952043964,0.0437817539432,0.999766427606,-0.00590878865323,0.0148945314849,-0.0145027369833,-0.19881385466,-0.12617843444,0.143584596391,0.0,0.0,0.0
1609043711913755000,27,1609043711913755000,-0.275541825103,0.00420967214796,0.0577802827295,0.999777968756,-0.00600214193348,0.0142122139389,-0.0143527160295,-0.204692175739,-0.133506655788,0.14901264305,0.0,0.0,0.0
1609043712013735000,28,1609043712013735000,-0.298450766451,-0.00682145772933,0.0681260683444,0.999787728923,-0.00623910799987,0.014247018994,-0.013512700541,-0.209989006015,-0.138151847132,0.0885842030389,0.0,0.0,0.0
1609043712113804000,29,1609043712113804000,-0.319007514826,-0.0156770040793,0.080922786464,0.999788297226,-0.00650261427588,0.0142412415564,-0.0133515458148,-0.210472262098,-0.143883079571,0.0973247775569,0.0,0.0,0.0
1609043712214008000,30,1609043712214008000,-0.337787608948,-0.0250159274804,0.0909308893231,0.999813999122,-0.00673636356861,0.0138533451831,-0.0116048866176,-0.210108303542,-0.137686438335,-0.0127774461006,0.0,0.0,0.0
1609043712314045000,31,1609043712314045000,-0.352280436076,-0.0359907211689,0.0990859399395,0.999818351972,-0.00688668201642,0.0128897484701,-0.0122348295919,-0.203838762014,-0.139209509318,-0.0708330405843,0.0,0.0,0.0
1609043712413915000,32,1609043712413915000,-0.366613059507,-0.0455826278114,0.105917181969,0.999823236269,-0.00703234540312,0.012609129112,-0.0120437617628,-0.19859887164,-0.134275421734,-0.067039557744,0.0,0.0,0.0
1609043712514377000,33,1609043712514377000,-0.379080046915,-0.0548362581091,0.114411534909,0.999833152381,-0.00719551717599,0.0122983120616,-0.0114299367133,-0.190742612867,-0.134266119765,-0.0966964055739,0.0,0.0,0.0
1609043712614300000,34,1609043712614300000,-0.368748257288,-0.0573270629684,0.131017451743,0.999879501475,-0.00270631399681,0.011108340546,-0.0105006269255,-0.165465044961,-0.0549405924665,-0.145096836314,0.0,0.0,0.0
1609043712714042000,35,1609043712714042000,-0.342841127083,-0.0480436385874,0.152065009801,0.999846530582,0.0104502869084,0.0100281098924,-0.00985615537937,-0.127829475667,-0.0400583445299,-0.167585483301,0.0,0.0,0.0
1609043712814030000,36,1609043712814030000,-0.382179516739,-0.0786565874768,0.151018240599,0.999672649413,0.0213771691515,0.00975706405614,-0.0101198002185,-0.144593525128,-0.0695956085396,-0.144479578993,0.0,0.0,0.0
1609043712914049000,37,1609043712914049000,-0.287276969241,0.0591794386658,0.188319862446,0.999482340018,0.0303848164324,0.00676728751053,-0.00812519177964,-0.043781702286,0.0302296376713,-0.164980902638,0.0,0.0,0.0
1609043713014059000,38,1609043713014059000,-0.224202426165,0.123420465254,0.200151119249,0.999234427639,0.0381906654154,0.00399875593919,-0.00748609696536,0.0300377766029,0.0661190509895,-0.194361911334,0.0,0.0,0.0
1609043713114149000,39,1609043713114149000,-0.219960966179,0.144416450713,0.209188745527,0.998946015399,0.0451723586738,0.0027277526144,-0.00767304995163,0.0639889846381,0.070006672678,-0.192081062407,0.0,0.0,0.0
1609043713214143000,40,1609043713214143000,-0.215289148466,0.148938613115,0.195199348642,0.998674002369,0.0509520204939,-0.000922147410864,-0.0072991946843,0.0865951768377,0.0764090552293,-0.214694522197,0.0,0.0,0.0
1609043713314459000,41,1609043713314459000,-0.21960997299,0.172266464645,0.212972450927,0.998320405403,0.057481466882,0.00118582375772,-0.00713042370532,0.110620541908,0.0864001275976,-0.219940932535,0.0,0.0,0.0
1609043713414181000,42,1609043713414181000,-0.208259311083,0.177098509825,0.190645211103,0.99793947464,0.0637074496494,0.00116056191048,-0.00753783197195,0.127238136635,0.105056317287,-0.241098472059,0.0,0.0,0.0
1609043713514227000,43,1609043713514227000,-0.210327818545,0.197713574663,0.211292782919,0.997287267021,0.073189630528,0.00104774647137,-0.00776448640991,0.144730192225,0.124910409714,-0.231919652667,0.0,0.0,0.0
1609043713614509000,44,1609043713614509000,-0.193621262265,0.204795471228,0.17895118893,0.996646096914,0.0814380944696,0.000294291047723,-0.00801920623612,0.166076307496,0.120929540772,-0.229809474091,0.0,0.0,0.0
1609043713714537000,45,1609043713714537000,-0.196327939245,0.226490227783,0.209183590603,0.995992365287,0.0890736535512,-0.00208620601892,-0.00779360489489,0.176050907617,0.12824433067,-0.169227129209,0.0,0.0,0.0
1609043713814355000,46,1609043713814355000,-0.177787293997,0.237302648455,0.18700329256,0.995456338197,0.0947369609364,-0.00535184563541,-0.00793377115711,0.205727055796,0.127696913359,-0.140292370522,0.0,0.0,0.0
1609043713914347000,47,1609043713914347000,-0.192084419903,0.250482793064,0.225837520058,0.994840340466,0.100681121414,-0.00932581295079,-0.0083089099878,0.214989929113,0.143123306361,-0.0777248039258,0.0,0.0,0.0
1609043714014986000,48,1609043714014986000,-0.166931561232,0.262709879206,0.220837969805,0.994220695509,0.10633199992,-0.0124210371302,-0.00802697022682,0.260594202836,0.143204873008,-0.0366057478992,0.0,0.0,0.0
1609043714114438000,49,1609043714114438000,-0.200659671308,0.250982401375,0.234495358972,0.993811561183,0.109950790635,-0.012709756714,-0.00937371763909,0.256286417971,0.113688012948,0.0275059520128,0.0,0.0,0.0
1609043714214451000,50,1609043714214451000,-0.173798850247,0.263715334379,0.228526320056,0.993472286512,0.112997266311,-0.011912130627,-0.0101259509698,0.291935320648,0.127342080882,0.00592222161874,0.0,0.0,0.0
1609043714314681000,51,1609043714314681000,-0.106887473885,0.255509176121,0.258139423435,0.993191260887,0.115193340419,-0.0131295138244,-0.0113679148277,0.367583697979,0.108805584273,0.0585305407574,0.0,0.0,0.0
1609043714414505000,52,1609043714414505000,-0.0646545400764,0.267990829935,0.249446836747,0.993095782281,0.115678059032,-0.0150535806062,-0.0123589475793,0.404798205953,0.116547583107,0.0533279343757,0.0,0.0,0.0
1609043714514533000,53,1609043714514533000,-0.025351159714,0.280079661841,0.259517522755,0.993062472258,0.115613474524,-0.0167073717799,-0.0134653046307,0.445795247078,0.126134412587,0.0815695580847,0.0,0.0,0.0
1609043714614554000,54,1609043714614554000,0.0139352713326,0.296169311032,0.270015525675,0.993092643102,0.115301884434,-0.0166409176422,-0.013984188334,0.470154474091,0.13946461658,0.0648065224446,0.0,0.0,0.0
1609043714714527000,55,1609043714714527000,0.0537240042656,0.31265596829,0.272063439216,0.992994707881,0.115099785127,-0.0223890466135,-0.0145698378973,0.495599368444,0.152348957847,0.0171349266714,0.0,0.0,0.0
1609043714814596000,56,1609043714814596000,0.102737474971,0.323705452025,0.279068049861,0.992984565431,0.114987610068,-0.0226711207306,-0.0156691617693,0.545280026433,0.159770120019,0.0530148752665,0.0,0.0,0.0
1609043714914628000,57,1609043714914628000,0.155455499816,0.333394756706,0.288842393384,0.99294273917,0.114893255995,-0.0236517802932,-0.0174599468815,0.575967819906,0.160403457928,0.0672002785836,0.0,0.0,0.0
1609043715014642000,58,1609043715014642000,0.213176482592,0.343237110208,0.296441663026,0.992831416464,0.114785687133,-0.0275006975887,-0.0188078745058,0.614731314672,0.159852395375,0.060785516311,0.0,0.0,0.0
1609043715114669000,59,1609043715114669000,0.272540430747,0.351405745678,0.307182421826,0.992790341569,0.114618809819,-0.0290102746799,-0.0197045701872,0.654889387172,0.160104841713,0.0501952902831,0.0,0.0,0.0
1609043715214807000,60,1609043715214807000,0.334791987887,0.358055562231,0.313637302081,0.992787599875,0.114226047921,-0.029633528119,-0.0211434510232,0.682339693058,0.161401953279,-0.0530460441907,0.0,0.0,0.0
1609043715314736000,61,1609043715314736000,0.400162655398,0.364341847192,0.310698494371,0.992713312026,0.11429380992,-0.031225405595,-0.0219585788739,0.713679463256,0.163285104956,-0.101379034309,0.0,0.0,0.0
1609043715414742000,62,1609043715414742000,0.468372021239,0.369648377302,0.306486986247,0.99269438706,0.113999121168,-0.0319087596357,-0.0233213492405,0.741045848325,0.160036566041,-0.137646260333,0.0,0.0,0.0
1609043715514872000,63,1609043715514872000,0.499929210603,0.342328492618,0.361928458151,0.992577554536,0.113731190803,-0.0346629306199,-0.0255635621856,0.731903868174,0.129274384726,-0.116352442768,0.0,0.0,0.0
1609043715614831000,64,1609043715614831000,0.563313010068,0.322307538583,0.381273096378,0.992402091641,0.113542166703,-0.0385577462977,-0.0275602083977,0.764954915971,0.108040150213,-0.0801663836134,0.0,0.0,0.0
1609043715715109000,65,1609043715715109000,0.576403412218,0.281648666347,0.426856139092,0.992285921515,0.113315320412,-0.0400213217783,-0.0304398082616,0.750001875103,0.0671686081759,-0.0242003755495,0.0,0.0,0.0
1609043715814906000,66,1609043715814906000,0.56660638731,0.229337724435,0.482386958069,0.992088772242,0.113165333782,-0.0427305848388,-0.0335793439613,0.713874705361,0.0210410870456,-0.0160071540639,0.0,0.0,0.0
1609043715914898000,67,1609043715914898000,0.544191881689,0.157897317423,0.535219133038,0.99174058635,0.113341900686,-0.0467203033554,-0.0377019388045,0.671121361359,-0.0330084074067,0.00457092551626,0.0,0.0,0.0
1609043716014964000,68,1609043716014964000,0.59515250094,0.106214255789,0.557210140509,0.99130151037,0.113235466278,-0.0523086355534,-0.0419863235015,0.673620005961,-0.0670018042574,0.0058607182479,0.0,0.0,0.0
1609043716114957000,69,1609043716114957000,0.665403338115,0.111188170135,0.587130629942,0.990871555212,0.112845607813,-0.0582948922624,-0.0451789265516,0.697586888192,-0.0649610171423,0.0379227347007,0.0,0.0,0.0
1609043716215023000,70,1609043716215023000,0.765221947939,0.112141036718,0.612015684522,0.990443317025,0.112327940692,-0.0638212560496,-0.048283711307,0.738489575448,-0.0668923522334,0.0483374823231,0.0,0.0,0.0
1609043716315089000,71,1609043716315089000,0.887443190656,0.0818804182152,0.635881635756,0.989899766234,0.112556844088,-0.0686433472614,-0.05212965121,0.780734304705,-0.0912268885907,0.057000025252,0.0,0.0,0.0
1609043716415036000,72,1609043716415036000,1.00156825893,0.0752658302793,0.65858049374,0.989394467206,0.112073107192,-0.0746431174961,-0.0544666128651,0.835743128634,-0.0929119984892,0.0664906091185,0.0,0.0,0.0
1609043716515120000,73,1609043716515120000,1.10964295291,0.0712565932262,0.677891282068,0.989227233684,0.111567461986,-0.0764392820881,-0.0560287222655,0.881156392752,-0.0882106395214,0.0675349122042,0.0,0.0,0.0
1609043716615142000,74,1609043716615142000,1.21306376561,0.0677946676348,0.696345320763,0.989062908743,0.111121897851,-0.0780822315383,-0.0575295705178,0.923517380262,-0.0853353039758,0.0831909670301,0.0,0.0,0.0
1609043716715252000,75,1609043716715252000,1.31239758106,0.06521280817,0.711713911156,0.988978362095,0.110743269553,-0.0786476507267,-0.0589260094656,0.962971051288,-0.0823555712721,0.0934066894859,0.0,0.0,0.0
1609043716815219000,76,1609043716815219000,1.3887885088,0.0305105818158,0.679373241524,0.988968595574,0.11117331039,-0.0775226785456,-0.0597649256426,0.973291381615,-0.101500268426,0.06307196987,0.0,0.0,0.0
1609043716915215000,77,1609043716915215000,1.47957464476,0.0234692490621,0.690865766317,0.988881186748,0.111218521871,-0.0788685016161,-0.0593649588709,1.00762967688,-0.0993645504487,0.0718719256636,0.0,0.0,0.0
1609043717015227000,78,1609043717015227000,1.56223176901,0.0159907233124,0.693640088645,0.988852392714,0.111230597925,-0.0792259130118,-0.0593460547678,1.03710118392,-0.0938595067334,0.0747299818645,0.0,0.0,0.0
1609043717115489000,79,1609043717115489000,1.64795075697,0.0103785700672,0.695135838457,0.98900222762,0.111171758594,-0.0776892666363,-0.0589899288276,1.06942115214,-0.088471304513,0.0777926947862,0.0,0.0,0.0
1609043717215311000,80,1609043717215311000,1.75015595221,0.00513356637706,0.704814279058,0.989188044964,0.111115159221,-0.0761538859873,-0.0579742937867,1.10354165001,-0.0917349921372,0.0944049597112,0.0,0.0,0.0
1609043717315325000,81,1609043717315325000,1.85029233242,-0.0276587225966,0.668429462274,0.989912500067,0.112597940573,-0.072024728983,-0.0469828096714,1.11569329768,-0.103415337804,0.0910863448464,0.0,0.0,0.0
1609043717415445000,82,1609043717415445000,1.97426177306,-0.0444773043654,0.689764655678,0.990653267896,0.114533054877,-0.069136814101,-0.0266154669899,1.14335415874,-0.0658192372402,0.0927755746036,0.0,0.0,0.0
1609043717515396000,83,1609043717515396000,2.07594759889,-0.0534052666683,0.699720980493,0.990931538172,0.115974309176,-0.0668171482912,-0.0118370166185,1.14610164434,0.0289357358088,0.0926980483094,0.0,0.0,0.0
1609043717615393000,84,1609043717615393000,2.20427040416,-0.0754059627244,0.670187687317,0.990984731797,0.116086703696,-0.0653920645732,-0.0140362552102,1.14422445945,0.10003713214,0.0811872040755,0.0,0.0,0.0
1609043717715433000,85,1609043717715433000,2.25105749893,-0.0886132066413,0.617305712068,0.990981794357,0.116165810081,-0.0640128890131,-0.0190509280945,1.10160943303,0.175121908813,0.0448772590311,0.0,0.0,0.0
1609043717815521000,86,1609043717815521000,2.31423725886,-0.0584265112165,0.611301633571,0.990931392599,0.115203804007,-0.0621697169932,-0.0302982671607,1.08963730944,0.253151973966,0.048681719242,0.0,0.0,0.0
1609043717915484000,87,1609043717915484000,2.36341652417,-0.0264976528082,0.601355310123,0.990980522053,0.114198495783,-0.0575281831482,-0.0400851171461,1.08617203406,0.289150347579,0.0836602639684,0.0,0.0,0.0
1609043718015487000,88,1609043718015487000,2.38597520418,-0.0180215712078,0.544169448575,0.991404927198,0.113591727575,-0.0449124330764,-0.0468621714071,1.03263674997,0.291629243324,0.0702805993746,0.0,0.0,0.0
1609043718115537000,89,1609043718115537000,2.47262992311,0.0103887012711,0.54946965634,0.991741606743,0.113010603692,-0.0345003579905,-0.0498689703672,0.990719850199,0.296792665957,0.0438351689742,0.0,0.0,0.0
1609043718215658000,90,1609043718215658000,2.45217137107,0.0318724842256,0.512818217683,0.991992942615,0.112718480034,-0.0200625460137,-0.053310789801,0.890286360386,0.288605319467,0.0701087375562,0.0,0.0,0.0
1609043718315606000,91,1609043718315606000,2.47556911058,0.0532249898848,0.50398371776,0.992146267347,0.112709892805,-0.00988232233557,-0.0533348287509,0.780534976338,0.265715563126,0.0289433596317,0.0,0.0,0.0
1609043718415677000,92,1609043718415677000,2.51242791953,0.0763787080429,0.502405159521,0.992045825308,0.113348906785,-0.0117142860952,-0.0534778582217,0.681407569533,0.258068432611,-0.00688716769452,0.0,0.0,0.0
1609043718515656000,93,1609043718515656000,2.57750217533,0.102886037056,0.504290066959,0.991910319255,0.113857971104,-0.0196293394483,-0.0525829820747,0.619140456129,0.252424414231,-0.05222358778,0.0,0.0,0.0
1609043718615688000,94,1609043718615688000,2.63104205646,0.119325635097,0.509509908025,0.991769273758,0.11410532242,-0.0238975348353,-0.0529395018318,0.580888944488,0.241951387924,-0.0222799448729,0.0,0.0,0.0
1609043718715735000,95,1609043718715735000,2.68575681992,0.140717815665,0.500753355824,0.99172678175,0.114619329465,-0.0326945798295,-0.0476598795909,0.532096859661,0.227057515394,-0.106601018101,0.0,0.0,0.0
1609043718815742000,96,1609043718815742000,2.74083571808,0.152495155121,0.500346899514,0.991555634319,0.115717052913,-0.0442613210037,-0.0383134856003,0.546979256435,0.228565949761,-0.0141114983055,0.0,0.0,0.0
1609043718915810000,97,1609043718915810000,2.81399915583,0.17620383518,0.492705512548,0.991961216873,0.11691757339,-0.042399505982,-0.0233560943727,0.566785012732,0.265364141444,0.00889586033725,0.0,0.0,0.0
1609043719015853000,98,1609043719015853000,2.9125236827,0.202100649013,0.495401094872,0.992155686209,0.117509534607,-0.0403103574497,-0.013916848834,0.587510636183,0.338625894024,0.0129965358108,0.0,0.0,0.0
1609043719115801000,99,1609043719115801000,2.96973417951,0.243598594024,0.49859044945,0.992355503961,0.117453735962,-0.0358598169233,-0.0122166770118,0.580827346705,0.421628734222,0.042552125145,0.0,0.0,0.0
1609043719215838000,100,1609043719215838000,3.06776233346,0.283084061777,0.497458387183,0.992616859113,0.117103060749,-0.0278916742519,-0.0148559306343,0.57988447184,0.490395078087,0.0347029005508,0.0,0.0,0.0
1609043719315917000,101,1609043719315917000,3.12338627095,0.333096882861,0.502449757192,0.992941347665,0.116679794388,-0.0145284896284,-0.0155636971147,0.534273824291,0.54772061794,0.0315510939455,0.0,0.0,0.0
1609043719415932000,102,1609043719415932000,3.19071802003,0.380468709976,0.497334658028,0.992998250011,0.116178512009,-0.00876815737973,-0.0194973905706,0.472283569216,0.583264830407,-0.0242604236671,0.0,0.0,0.0
1609043719515953000,103,1609043719515953000,3.25208818889,0.434499034358,0.499674407373,0.993080901922,0.116082112088,-0.000650083637987,-0.0177438124903,0.413323480625,0.633484746572,-0.0159295549981,0.0,0.0,0.0
1609043719616019000,104,1609043719616019000,3.29138980902,0.504010776466,0.499789473295,0.992986777819,0.115605439563,0.00808155872716,-0.0233950812737,0.320244828844,0.679328816601,-0.0308882232442,0.0,0.0,0.0
1609043719716016000,105,1609043719716016000,3.33613637163,0.577141425131,0.492856609499,0.992820259463,0.114983744601,0.00847507760915,-0.031856615262,0.213727610147,0.715612927337,-0.131282246354,0.0,0.0,0.0
1609043719816017000,106,1609043719816017000,3.34378916907,0.649754411263,0.476321898601,0.992620315737,0.114645227438,-0.0012773951312,-0.0394936561055,0.111581222345,0.72407456073,-0.173158148087,0.0,0.0,0.0
1609043719916097000,107,1609043719916097000,3.34884278003,0.720785638409,0.465193573881,0.992130079549,0.114447415939,-0.0171341115184,-0.0478133502424,0.0463261235252,0.718753474477,-0.18191216726,0.0,0.0,0.0
1609043720016087000,108,1609043720016087000,3.35463322497,0.791905926111,0.443846301347,0.991601167002,0.114448599786,-0.0287378580222,-0.0529412799635,0.0281904579935,0.701473268014,-0.144625345937,0.0,0.0,0.0
1609043720116186000,109,1609043720116186000,3.39855169624,0.880008338643,0.440787275305,0.991546388095,0.114491474194,-0.0315463740565,-0.0522713006882,0.0401036825734,0.689250411526,-0.127622014575,0.0,0.0,0.0
1609043720216137000,110,1609043720216137000,3.41641879373,0.956434157477,0.434362035489,0.991425104171,0.114625219333,-0.0364710988577,-0.0510605607053,0.0378756530562,0.669273531961,-0.127658824152,0.0,0.0,0.0
1609043720316271000,111,1609043720316271000,3.41689047339,1.02289883684,0.421581334584,0.991362067077,0.11477315829,-0.0394549368268,-0.0497160140822,0.0446165475136,0.650808909477,-0.0875320282304,0.0,0.0,0.0
1609043720416221000,112,1609043720416221000,3.4325674393,1.09585317633,0.422297536579,0.991602655528,0.114908382645,-0.034059579741,-0.0485817061907,0.0705062504015,0.639911899685,0.00928486883793,0.0,0.0,0.0
1609043720516270000,113,1609043720516270000,3.43714741283,1.16143817719,0.421588334629,0.991941514703,0.114747829401,-0.0243786780002,-0.0478607053382,0.0383536152618,0.626585689382,-0.0167740148255,0.0,0.0,0.0
1609043720616280000,114,1609043720616280000,3.43511387563,1.22622069784,0.427156812422,0.99200659174,0.114940351695,-0.0213486187106,-0.0474960416849,0.000487018260461,0.60780580798,0.0415419914367,0.0,0.0,0.0
1609043720716317000,115,1609043720716317000,3.43107296562,1.28459829677,0.447619889594,0.99199666432,0.114963392933,-0.0226773129208,-0.047029519905,-0.0387592085759,0.574921270644,0.122220926939,0.0,0.0,0.0
1609043720816301000,116,1609043720816301000,3.42229815104,1.34019915285,0.462235428433,0.991780675352,0.115168522706,-0.0320279201093,-0.0456236310435,-0.0690152050135,0.552246915582,0.156273212341,0.0,0.0,0.0
1609043720916339000,117,1609043720916339000,3.41616133755,1.39290320765,0.480548415806,0.991490610729,0.115347382134,-0.0419556706857,-0.0433713265701,-0.0671224418838,0.53467892589,0.210566103002,0.0,0.0,0.0
1609043721016393000,118,1609043721016393000,3.40910786145,1.4428087701,0.502430901004,0.991219656088,0.115449536235,-0.0498504146684,-0.0408648274827,-0.0421225240931,0.521863027812,0.257123753227,0.0,0.0,0.0
1609043721116438000,119,1609043721116438000,3.39747608526,1.48113645228,0.535510912861,0.991307814758,0.115948073805,-0.0528508583187,-0.0327360253511,-0.0426829238412,0.511566950897,0.14566561842,0.0,0.0,0.0
1609043721216445000,120,1609043721216445000,3.39392852689,1.53556891991,0.546650007446,0.991376258686,0.116264944919,-0.0540845104245,-0.0270266910533,-0.02426188853,0.541409630157,0.104220993225,0.0,0.0,0.0
1609043721316441000,121,1609043721316441000,3.37952195917,1.58145324078,0.563417493881,0.991570529448,0.11660763206,-0.0524385577849,-0.0209938784555,-0.0175610809092,0.556980807094,0.0760918746193,0.0,0.0,0.0
1609043721416523000,122,1609043721416523000,3.37755394665,1.64431471408,0.567712885238,0.9916623443,0.116767087747,-0.0512987002096,-0.0184305581584,-0.00936648813668,0.605269234167,0.0387994498324,0.0,0.0,0.0
1609043721516519000,123,1609043721516519000,3.37512259111,1.70769954276,0.571749507356,0.991640737239,0.11646022744,-0.0510185740085,-0.0219719998937,0.000901382167172,0.638992172869,0.0268460722788,0.0,0.0,0.0
1609043721616587000,124,1609043721616587000,3.35723559749,1.7772904988,0.56842360862,0.991700752618,0.116457925654,-0.0501007838616,-0.0213794355934,-0.00593791637909,0.665351875623,0.0106054508703,0.0,0.0,0.0
1609043721716581000,125,1609043721716581000,3.35091250271,1.84704994352,0.568740301244,0.991739583498,0.116394282826,-0.0497478522787,-0.0207393500847,-0.00013549005163,0.694538868972,0.0176983009914,0.0,0.0,0.0
1609043721816672000,126,1609043721816672000,3.3451845555,1.91928747233,0.570937127696,0.991743846245,0.116558487979,-0.0497443174615,-0.0195899258505,0.00884314591739,0.71461239597,0.0368001007504,0.0,0.0,0.0
1609043721916674000,127,1609043721916674000,3.34218357388,1.99470694717,0.576283265391,0.991798140018,0.116767402479,-0.0495086066524,-0.0158341732392,0.0144965986085,0.752204367073,0.0645812214134,0.0,0.0,0.0
1609043722016729000,128,1609043722016729000,3.32729690165,2.08518607811,0.574534868665,0.991768235245,0.116398457574,-0.0500270578546,-0.018559636728,0.0148583343411,0.790473995288,0.0818732807216,0.0,0.0,0.0
1609043722116722000,129,1609043722116722000,3.32391881333,2.16886969679,0.578077508386,0.991726678378,0.116042786059,-0.0505855448438,-0.0212924833996,0.023234052309,0.818762375884,0.0880835200626,0.0,0.0,0.0
1609043722216734000,130,1609043722216734000,3.32265201558,2.25213502983,0.586433103366,0.991733412976,0.115900929928,-0.0506979753775,-0.0214831869607,0.0326081117378,0.842634656483,0.0901140806336,0.0,0.0,0.0
1609043722316762000,131,1609043722316762000,3.32389950425,2.33692256601,0.59622223796,0.991826710899,0.11572312267,-0.0492839971723,-0.021424799862,0.0395148439544,0.860955316217,0.0678066254593,0.0,0.0,0.0
1609043722416801000,132,1609043722416801000,3.30464899968,2.42544381938,0.593102665596,0.991921912002,0.115606982631,-0.0471373979608,-0.0224502064626,0.0358252943817,0.878937653527,0.0658926998362,0.0,0.0,0.0
1609043722516843000,133,1609043722516843000,3.30665463352,2.51624583586,0.600331042343,0.992161074273,0.115285782707,-0.0414851169472,-0.0245881287446,0.0375708906355,0.896421826177,0.0786034312996,0.0,0.0,0.0
1609043722616847000,134,1609043722616847000,3.30824656565,2.6084084569,0.608249175796,0.992297350178,0.115117846776,-0.0375686285146,-0.0261237121378,0.0211528582532,0.906467302029,0.0602712351651,0.0,0.0,0.0
1609043722716896000,135,1609043722716896000,3.29726109281,2.6895881361,0.619626194794,0.992332407728,0.115074832391,-0.0364643963253,-0.026542858243,-0.00664923167584,0.902954787365,0.0536139892542,0.0,0.0,0.0
1609043722816948000,136,1609043722816948000,3.30149254424,2.78178804243,0.63070092981,0.992354764943,0.115104301473,-0.0360897927113,-0.0260872984488,-0.0208781257391,0.907093096962,0.055238034014,0.0,0.0,0.0
1609043722916976000,137,1609043722916976000,3.28561857876,2.87021214535,0.6464116872,0.992367206229,0.115164423459,-0.0365715930116,-0.0246374137315,-0.0535246749462,0.912122306375,0.0505401708068,0.0,0.0,0.0
1609043723017055000,138,1609043723017055000,3.28115979545,2.96275225674,0.650374239297,0.992353804648,0.115327116705,-0.0380071234191,-0.0221142741639,-0.0676915413933,0.91915752579,0.0399825793722,0.0,0.0,0.0
1609043723116991000,139,1609043723116991000,3.27380747723,3.05705962129,0.654250879241,0.992412140921,0.115536507712,-0.0378896821243,-0.0182710132961,-0.0831395112387,0.935988199522,0.0345538778884,0.0,0.0,0.0
1609043723217011000,140,1609043723217011000,3.25359654456,3.11363557648,0.669611421776,0.99248293979,0.115374216528,-0.0367542612109,-0.017763126674,-0.111873191798,0.934633346476,0.0340193161451,0.0,0.0,0.0
1609043723317045000,141,1609043723317045000,3.24116540049,3.21162280393,0.673483420525,0.992567764888,0.115095888961,-0.0347984274348,-0.0187413419571,-0.137377275978,0.952739902141,0.0208611124971,0.0,0.0,0.0
1609043723417108000,142,1609043723417108000,3.22718719479,3.3106000426,0.676132604765,0.992426546436,0.114874556604,-0.0381959329686,-0.0208436292302,-0.161217708608,0.967079402835,-0.000604068110656,0.0,0.0,0.0
1609043723517097000,143,1609043723517097000,3.18622985782,3.44357294404,0.680873922786,0.992088876149,0.116438870398,-0.0408506131174,-0.0230841653506,-0.195465276512,1.01535866606,0.0134573970119,0.0,0.0,0.0
1609043723617112000,144,1609043723617112000,3.15927846887,3.545020969,0.677888289093,0.991362172713,0.121696389547,-0.0418063972189,-0.025362500584,-0.217951305594,1.02407678841,-0.0171479187773,0.0,0.0,0.0
1609043723717233000,145,1609043723717233000,3.13743407251,3.65068671781,0.676736619509,0.990252270012,0.126755098542,-0.0498416480236,-0.0291444137384,-0.226602651678,1.00757681721,-0.0517861503708,0.0,0.0,0.0
1609043723817270000,146,1609043723817270000,3.07560597602,3.76297846186,0.685524181845,0.989658697043,0.129411354525,-0.054868665269,-0.0285971022811,-0.225833729229,0.978645227783,-0.0117887201464,0.0,0.0,0.0
1609043723917330000,147,1609043723917330000,3.01937726596,3.86875162827,0.687405412332,0.989523799265,0.12970977688,-0.0568292463847,-0.02807955172,-0.230502843091,0.969924814292,-0.00413116682433,0.0,0.0,0.0
1609043724017344000,148,1609043724017344000,2.99441823737,3.96397940848,0.683566798632,0.989489577597,0.129851877195,-0.0573462427364,-0.0275730712935,-0.214286872266,0.973808866135,-0.00460984302463,0.0,0.0,0.0
1609043724117392000,149,1609043724117392000,2.95324848148,4.05894963769,0.678866350662,0.989347156375,0.13280109408,-0.0527123233238,-0.0278834099993,-0.20525180815,0.971169483289,0.0165057591205,0.0,0.0,0.0
1609043724217304000,150,1609043724217304000,2.93987320786,4.15046462124,0.677808491272,0.989229737574,0.136451537325,-0.0441687654044,-0.0292339601231,-0.203958077916,0.970831907999,0.020933205566,0.0,0.0,0.0
1609043724317385000,151,1609043724317385000,2.90628200413,4.23899427017,0.675124129081,0.989031098614,0.140445928352,-0.0335100574702,-0.0311368468551,-0.230318693896,0.939506754803,0.00885610462159,0.0,0.0,0.0
1609043724417353000,152,1609043724417353000,2.8776782521,4.33547869335,0.678099309451,0.988746652934,0.143269372153,-0.0277146437368,-0.0329521142936,-0.275199701743,0.915155008739,-0.0382216136685,0.0,0.0,0.0
1609043724517393000,153,1609043724517393000,2.83852466333,4.44041810194,0.673187548139,0.988396295305,0.14571413306,-0.0271952878566,-0.0331748575407,-0.335442081375,0.903428186446,-0.0981825655519,0.0,0.0,0.0
1609043724617479000,154,1609043724617479000,2.79296665419,4.54269484879,0.663899240278,0.987224475427,0.148675907208,-0.0356947374704,-0.0448240499117,-0.382797503882,0.901273010627,-0.105394607818,0.0,0.0,0.0
1609043724717512000,155,1609043724717512000,2.7508858952,4.62572878397,0.651042094307,0.985642245241,0.153584012052,-0.0424100105181,-0.0558811832888,-0.392987624588,0.828921508689,-0.107142399029,0.0,0.0,0.0
1609043724817507000,156,1609043724817507000,2.69809695646,4.72264381635,0.644549368414,0.984396154793,0.160349312575,-0.0470605772771,-0.055114521243,-0.398089491478,0.770984305888,-0.108852991823,0.0,0.0,0.0
1609043724917507000,157,1609043724917507000,2.65042051317,4.80348981778,0.637892626743,0.983023938142,0.168450762105,-0.0507900409888,-0.0520446877391,-0.394375283717,0.724245484896,-0.0980288310681,0.0,0.0,0.0
1609043725017565000,158,1609043725017565000,2.60819701313,4.87348402739,0.627492622165,0.981240714683,0.178688689008,-0.0527066474041,-0.0495885227482,-0.386626515881,0.673296316143,-0.103765311006,0.0,0.0,0.0
1609043725117644000,159,1609043725117644000,2.56502153448,4.9475557656,0.622497712788,0.979007042643,0.189966801049,-0.0541534786618,-0.0502516238823,-0.3754669962,0.634417079968,-0.0702981790542,0.0,0.0,0.0
1609043725217632000,160,1609043725217632000,2.52596746402,5.02036951978,0.623120549032,0.9768084096,0.202188937053,-0.0520197899464,-0.0475279509549,-0.35006211634,0.586666459955,-0.0129419501276,0.0,0.0,0.0
1609043725317676000,161,1609043725317676000,2.48651844312,5.0892170985,0.62681454739,0.974688642289,0.214339574038,-0.0457411975677,-0.0441400095152,-0.340455873476,0.54302387372,0.0188260117714,0.0,0.0,0.0
1609043725417648000,162,1609043725417648000,2.44374886216,5.1566605167,0.632048978328,0.972432042529,0.22679737149,-0.034204592279,-0.0420585403406,-0.358933736966,0.518298682619,0.0628426102431,0.0,0.0,0.0
1609043725517715000,163,1609043725517715000,2.39867270101,5.22007360282,0.639925842025,0.970051296344,0.238053563878,-0.0186098882671,-0.04454946964,-0.400301454924,0.46952427389,0.0996965288004,0.0,0.0,0.0
1609043725617792000,164,1609043725617792000,2.34405128397,5.2776674105,0.650440742867,0.967437995154,0.248254408856,-0.00328478373378,-0.0492207701245,-0.480630668902,0.401514207787,0.101353399457,0.0,0.0,0.0
1609043725717783000,165,1609043725717783000,2.27894776753,5.33345195246,0.655775580985,0.964348855082,0.259522872899,-0.000391590830411,-0.0517591615195,-0.594696578754,0.334179761494,0.0109692812223,0.0,0.0,0.0
1609043725817778000,166,1609043725817778000,2.20663165728,5.37702489602,0.6572652506,0.961035091492,0.271511019126,-0.00599571899118,-0.0515496922193,-0.685523550145,0.260989269395,-0.0131736038112,0.0,0.0,0.0
1609043725917848000,167,1609043725917848000,2.12796869357,5.40929038673,0.658901862466,0.957345903495,0.283396090912,-0.0172794000345,-0.0536367323005,-0.764743755871,0.184432250975,-0.0518129637179,0.0,0.0,0.0
1609043726017868000,168,1609043726017868000,2.04557872933,5.43231665419,0.659378429974,0.953063889605,0.295156613607,-0.0329057609042,-0.0588982739557,-0.783676136579,0.0973971297448,-0.0125961216458,0.0,0.0,0.0
1609043726117928000,169,1609043726117928000,1.9614626431,5.45012123335,0.661725249949,0.948763549494,0.30615770141,-0.0448118191239,-0.0640865811685,-0.765957390774,0.00176823519856,-0.000932427300354,0.0,0.0,0.0
1609043726217926000,170,1609043726217926000,1.88392867048,5.45463371136,0.667908000833,0.944994118531,0.317306654136,-0.049631728503,-0.0619620424885,-0.740857932934,-0.085665982842,0.00455760727513,0.0,0.0,0.0
1609043726317905000,171,1609043726317905000,1.80805250932,5.45863296319,0.673151498353,0.941379654477,0.32894247196,-0.0509489966866,-0.0548214922659,-0.715886093872,-0.147239393277,0.00590857165594,0.0,0.0,0.0
1609043726417937000,172,1609043726417937000,1.73203385655,5.46588461089,0.680286839886,0.93762744725,0.340111315176,-0.0510611241076,-0.0507131645386,-0.687352870683,-0.187723832812,0.0314968575305,0.0,0.0,0.0
1609043726517964000,173,1609043726517964000,1.65319130613,5.46840447844,0.68625472838,0.933865028587,0.351114596133,-0.048941924416,-0.0471098376113,-0.671194669415,-0.223859236698,0.0369484277794,0.0,0.0,0.0
1609043726618053000,174,1609043726618053000,1.57422987331,5.4678768483,0.691165601494,0.930066449617,0.36176537774,-0.0446617054654,-0.0459079822093,-0.665646121726,-0.239163301887,0.0827122970891,0.0,0.0,0.0
1609043726718036000,175,1609043726718036000,1.49505888524,5.45162077782,0.696799556695,0.92596522017,0.37164217963,-0.0374583631522,-0.0553838639477,-0.661555332617,-0.30686308262,0.079193092798,0.0,0.0,0.0
1609043726818059000,176,1609043726818059000,1.41179744568,5.42899251317,0.699831260828,0.921867346707,0.381745635376,-0.0308284702843,-0.0589955114045,-0.677894842503,-0.38877110745,0.044543626838,0.0,0.0,0.0
1609043726918121000,177,1609043726918121000,1.31960287239,5.39646507665,0.699052692571,0.917722975172,0.391547061768,-0.0292429564924,-0.0601688354349,-0.70616782584,-0.476460198614,0.0196945812648,0.0,0.0,0.0
1609043727018109000,178,1609043727018109000,1.22360610812,5.36161084101,0.698723041577,0.913602015442,0.40121948249,-0.0294822208923,-0.0590345907191,-0.731105372993,-0.556379755511,0.0142238759935,0.0,0.0,0.0
1609043727118192000,179,1609043727118192000,1.12062153585,5.31899741744,0.700422058034,0.909382845282,0.410768084008,-0.0306186723733,-0.057921660627,-0.755664616182,-0.627840912564,0.0223215255331,0.0,0.0,0.0
1609043727218293000,180,1609043727218293000,1.01640105007,5.26669739482,0.704413758617,0.905624036371,0.419669774172,-0.0283437456033,-0.0540279323927,-0.773796130414,-0.703600498187,0.0190022679242,0.0,0.0,0.0
1609043727318285000,181,1609043727318285000,0.911526364223,5.20965957938,0.706919661606,0.903364017117,0.425261141967,-0.0268941260202,-0.0486119295734,-0.780947227993,-0.777835469268,0.00451772931957,0.0,0.0,0.0
1609043727418308000,182,1609043727418308000,0.805442266325,5.1458108558,0.711423658482,0.903084227773,0.426352486584,-0.0254899786801,-0.0448630774417,-0.811087988137,-0.826257436047,0.0227027642862,0.0,0.0,0.0
1609043727518273000,183,1609043727518273000,0.722836214099,5.06136932382,0.712739265183,0.90328778336,0.426324531415,-0.0242171400406,-0.0416185592605,-0.814792423248,-0.886303673987,0.02029850846,0.0,0.0,0.0
1609043727618285000,184,1609043727618285000,0.606064295704,4.98809444972,0.718107387134,0.903494154458,0.426551468798,-0.0207880693908,-0.036331989991,-0.870748493146,-0.911279426455,0.0133228009317,0.0,0.0,0.0
1609043727718353000,185,1609043727718353000,0.514717740038,4.89735334324,0.717208076619,0.903616145975,0.426180475457,-0.0223508842024,-0.0367219423228,-0.914766765624,-0.9482434475,-0.0484807661151,0.0,0.0,0.0
1609043727818345000,186,1609043727818345000,0.415519552213,4.80226648104,0.708744666229,0.903083794681,0.426050715823,-0.0361171716636,-0.0401994681744,-0.929677541069,-0.990728079671,-0.0903090163482,0.0,0.0,0.0
1609043727918386000,187,1609043727918386000,0.320116462848,4.70133833615,0.698481508274,0.902488688803,0.426226398757,-0.0470630771201,-0.0403768542263,-0.914840820399,-1.02594353875,-0.109779801246,0.0,0.0,0.0
1609043728018395000,188,1609043728018395000,0.186938786794,4.61759699537,0.6913674654,0.901518818214,0.42690264694,-0.0601338932183,-0.037441492073,-0.919905453979,-1.03001685212,-0.120844501043,0.0,0.0,0.0
1609043728118514000,189,1609043728118514000,0.0566494101422,4.54391472615,0.688013623024,0.900755320329,0.427368791017,-0.0691694807763,-0.034804486666,-0.890686070358,-0.998295060697,-0.0747744726778,0.0,0.0,0.0
1609043728218484000,190,1609043728218484000,-0.0599463693859,4.47647679006,0.685826491428,0.900320056645,0.427681375995,-0.0736650612198,-0.0329529207292,-0.843206348948,-0.954978606484,-0.0409102524734,0.0,0.0,0.0
1609043728318617000,191,1609043728318617000,-0.162306986299,4.41062197884,0.685078418708,0.900074881632,0.427988758812,-0.0751207778121,-0.0323681715023,-0.780640341823,-0.902691969306,0.000828829707959,0.0,0.0,0.0
1609043728418592000,192,1609043728418592000,-0.239148083063,4.32163642027,0.688024673152,0.900600857056,0.427797322655,-0.0684924833881,-0.034875875888,-0.684361591396,-0.874347993648,0.0874526517933,0.0,0.0,0.0
1609043728518556000,193,1609043728518556000,-0.322167066742,4.2623748227,0.698450369205,0.901863045777,0.428135779265,-0.0471865728567,-0.0334100062455,-0.647266185994,-0.848510619116,0.118985509819,0.0,0.0,0.0
1609043728618601000,194,1609043728618601000,-0.390416161683,4.18066890124,0.712365281695,0.902895498546,0.428044196814,-0.0280752499767,-0.0277428300162,-0.65608612036,-0.860532283698,0.0943746089006,0.0,0.0,0.0
1609043728718614000,195,1609043728718614000,-0.467744463532,4.13185669816,0.723027711573,0.903314483464,0.428274363214,-0.0136848578061,-0.020414172672,-0.703566696859,-0.837404107398,0.0895841484293,0.0,0.0,0.0
1609043728818768000,196,1609043728818768000,-0.533084108827,4.0875852988,0.731670399386,0.903421363514,0.428431754016,-0.00521461138693,-0.015775928655,-0.760153738749,-0.808977111367,0.0754085095511,0.0,0.0,0.0
1609043728918691000,197,1609043728918691000,-0.614382734611,4.03901723165,0.740184009286,0.903354431597,0.428704513305,-0.000885910208218,-0.0127446596476,-0.834843387148,-0.785248799838,0.0723623818545,0.0,0.0,0.0
1609043729018679000,198,1609043729018679000,-0.702283644359,3.96406576893,0.748320215201,0.903403908769,0.428669882025,0.000888506929717,-0.0101351083401,-0.91202642386,-0.782396308616,0.0684737024563,0.0,0.0,0.0
1609043729118790000,199,1609043729118790000,-0.795478842243,3.89773744661,0.75629090956,0.903253804877,0.429009241508,0.000545196149972,-0.00912893408852,-0.989537093901,-0.767332466344,0.0800080378648,0.0,0.0,0.0
1609043729218840000,200,1609043729218840000,-0.904864045965,3.82857207024,0.765846906189,0.90326583781,0.428792424124,-0.00336410513081,-0.0153807040359,-1.07101944089,-0.755520032463,0.0978306255469,0.0,0.0,0.0
1609043729318808000,201,1609043729318808000,-1.01624623814,3.75664759522,0.775755695541,0.902891608987,0.428874987943,-0.0101602416406,-0.027381684171,-1.13622030854,-0.752914578933,0.104894992277,0.0,0.0,0.0
1609043729418898000,202,1609043729418898000,-1.13222609383,3.68180380879,0.786499320978,0.900864492657,0.431950002887,-0.017233177934,-0.0395648638803,-1.1755307505,-0.774581815018,0.11054818847,0.0,0.0,0.0
1609043729518849000,203,1609043729518849000,-1.25031236085,3.60272511327,0.797978134126,0.898248688849,0.436575878324,-0.0207850800588,-0.0460301628723,-1.17930542084,-0.822077224384,0.113337949343,0.0,0.0,0.0
1609043729618944000,204,1609043729618944000,-1.37532223179,3.53633874431,0.813157019465,0.895460504086,0.442008783044,-0.0218645354606,-0.047965231393,-1.18358316953,-0.858635046867,0.123061051185,0.0,0.0,0.0
1609043729719014000,205,1609043729719014000,-1.49534609349,3.47050192123,0.825897934386,0.892893147365,0.447306765819,-0.0211652936157,-0.047016114117,-1.18161644012,-0.895441916382,0.124171756623,0.0,0.0,0.0
1609043729819014000,206,1609043729819014000,-1.62360161972,3.41533664938,0.840863198328,0.890093650615,0.453178316585,-0.0193533868043,-0.044588708572,-1.19717985582,-0.912879149088,0.137431765304,0.0,0.0,0.0
1609043729918984000,207,1609043729918984000,-1.74473228165,3.35114858698,0.853926710168,0.887279307084,0.45895001936,-0.0173695468489,-0.042410019958,-1.20317187446,-0.937607739253,0.144313762671,0.0,0.0,0.0
1609043730019001000,208,1609043730019001000,-1.86786408585,3.33133748708,0.873563932524,0.884598420821,0.464345858747,-0.0156977783335,-0.0402757631948,-1.21819145974,-0.929318672976,0.145624480687,0.0,0.0,0.0
1609043730119054000,209,1609043730119054000,-1.98572130243,3.25378668228,0.887753034933,0.882396147644,0.46863431608,-0.0150357134686,-0.0391515483066,-1.22947238358,-0.956209681387,0.135697348163,0.0,0.0,0.0
1609043730219214000,210,1609043730219214000,-2.10764740367,3.22868121594,0.907694432523,0.879811551982,0.473593971383,-0.0137848668516,-0.0380836016494,-1.25740899612,-0.937253191097,0.138120395593,0.0,0.0,0.0
1609043730319114000,211,1609043730319114000,-2.22067508744,3.17228605736,0.923925383145,0.876521205565,0.479402434019,-0.0152097518655,-0.0406515178035,-1.27207896889,-0.946912460893,0.137428558733,0.0,0.0,0.0
1609043730419120000,212,1609043730419120000,-2.3213840795,3.16607984262,0.947382089294,0.872528652386,0.486211279227,-0.0173139137104,-0.0446382247631,-1.27704730499,-0.924307576907,0.129957540064,0.0,0.0,0.0
1609043730519164000,213,1609043730519164000,-2.43836976966,3.09753969242,0.960127324676,0.867631883308,0.493932898857,-0.0208589336154,-0.0530104836997,-1.27131703973,-0.955922042102,0.114758267409,0.0,0.0,0.0
1609043730619209000,214,1609043730619209000,-2.50720857039,3.17014470668,0.982481699723,0.862256075312,0.502784121431,-0.0221240903067,-0.0568604647628,-1.23064479225,-0.899983001342,0.0875988169482,0.0,0.0,0.0
1609043730719305000,215,1609043730719305000,-2.54272465011,3.27111674808,0.999955734184,0.856984851865,0.511839386631,-0.0216547675984,-0.055932790088,-1.15912032404,-0.836960004858,0.039994244777,0.0,0.0,0.0
1609043730819289000,216,1609043730819289000,-2.55947644121,3.40026233024,1.01130709855,0.852033189494,0.520878991047,-0.0195722107905,-0.0483885239503,-1.08221611311,-0.743150575158,0.0241224602394,0.0,0.0,0.0
1609043730919365000,217,1609043730919365000,-2.56371740685,3.5227122835,1.01760349362,0.84749813942,0.528737395221,-0.0184471973428,-0.0429345022579,-0.98198367075,-0.629442019741,-0.00936950778689,0.0,0.0,0.0
1609043731019330000,218,1609043731019330000,-2.54723441672,3.65376552062,1.01843823518,0.845996155384,0.531425531638,-0.0181305231396,-0.0393534436699,-0.848663675987,-0.505501021378,-0.0164600024375,0.0,0.0,0.0
1609043731119346000,219,1609043731119346000,-2.50021929933,3.7870415279,1.02057175663,0.845739737045,0.532035139098,-0.0121048094743,-0.0389407439103,-0.71692003682,-0.367711018067,0.027168312409,0.0,0.0,0.0
1609043731219391000,220,1609043731219391000,-2.44976490853,3.89510112222,1.02008675879,0.845964590474,0.531592990463,-0.00550136930151,-0.0415034828824,-0.614737400548,-0.287374389275,0.0278372891437,0.0,0.0,0.0
1609043731319409000,221,1609043731319409000,-2.37189491817,3.99059136013,1.01634852042,0.846171638959,0.531095903796,0.00129398551041,-0.0439206556717,-0.51345089896,-0.236640999726,0.0326648791556,0.0,0.0,0.0
1609043731419411000,222,1609043731419411000,-2.07408244681,4.28835728524,0.987356228871,0.846385121006,0.530752810511,0.00638086307861,-0.0435082252058,-0.236012116543,-0.0253331809188,-0.00330694376719,0.0,0.0,0.0
1609043731519463000,223,1609043731519463000,-2.011402959,4.36149611375,0.979266956751,0.846480583416,0.530494843575,0.0113116819644,-0.0437937060645,-0.18208923559,-0.0316862849665,-0.0323562355926,0.0,0.0,0.0
1609043731619517000,224,1609043731619517000,-2.00500831036,4.43339632419,0.972107776439,0.846477504057,0.530361666647,0.0146033563675,-0.044486848159,-0.179378059454,-0.0391828674024,-0.0486976350227,0.0,0.0,0.0
1609043731719614000,225,1609043731719614000,-2.02328724092,4.42392841756,0.968046732481,0.846500984877,0.530169990263,0.0170216312494,-0.0454546817811,-0.193246490453,-0.121016347819,-0.0796063778532,0.0,0.0,0.0
1609043731819572000,226,1609043731819572000,-2.0482171987,4.41731667187,0.963034255323,0.846522324965,0.530022053166,0.0186391049925,-0.0461428245599,-0.210969389671,-0.196345006604,-0.0875174064317,0.0,0.0,0.0
1609043731919569000,227,1609043731919569000,-2.06175327299,4.41810550865,0.958271040876,0.846581240045,0.530027221862,0.0227470432858,-0.0430571725789,-0.220966313497,-0.262793600662,-0.0992194115906,0.0,0.0,0.0
1609043732019626000,228,1609043732019626000,-2.08554905978,4.38837370235,0.946559252857,0.84658793896,0.530192314372,0.0296135869324,-0.0361663774521,-0.254340819759,-0.34260918411,-0.083583059722,0.0,0.0,0.0
1609043732119718000,229,1609043732119718000,-2.11574239799,4.35617041066,0.940967172822,0.846503077954,0.530157091058,0.038010457524,-0.0303513250769,-0.313330771244,-0.415281709613,-0.068402058878,0.0,0.0,0.0
1609043732219660000,230,1609043732219660000,-2.15340217065,4.31143421273,0.937584945312,0.846409143982,0.530095302549,0.0442612589216,-0.0251291097914,-0.392602692179,-0.489219288728,-0.0500123309108,0.0,0.0,0.0
1609043732319756000,231,1609043732319756000,-2.18484835619,4.26244190114,0.94799159683,0.846398705291,0.530110604706,0.0464154135767,-0.0209186003817,-0.465440503478,-0.55817233235,-0.0751195416398,0.0,0.0,0.0
1609043732419719000,232,1609043732419719000,-2.2414932317,4.19399767298,0.942965598325,0.846816118174,0.530063873063,0.0404684930554,-0.0172352413253,-0.565550688095,-0.632027813813,-0.120221416281,0.0,0.0,0.0
1609043732519752000,233,1609043732519752000,-2.30305764081,4.11572245543,0.931519960343,0.84750626581,0.530166417956,0.0197850662952,-0.0162864924569,-0.641519747169,-0.685118428939,-0.135077081777,0.0,0.0,0.0
1609043732619833000,234,1609043732619833000,-2.36651176021,4.04279937644,0.915640252575,0.847741063335,0.530241415323,0.00287326441148,-0.0130719303911,-0.66614877687,-0.702364433606,-0.116338835156,0.0,0.0,0.0
1609043732719862000,235,1609043732719862000,-2.4232495488,3.98394057818,0.918964460524,0.847734928644,0.530308093125,-0.00631922370594,-0.00888169661117,-0.67040837471,-0.690552994851,-0.080721297582,0.0,0.0,0.0
1609043732819843000,236,1609043732819843000,-2.48011139833,3.93327318835,0.912953453018,0.847753538696,0.530142394292,-0.0135024575019,-0.00898126073357,-0.665097598636,-0.663429903152,-0.0517839623199,0.0,0.0,0.0
1609043732919900000,237,1609043732919900000,-2.54059023787,3.88325747537,0.9032760437,0.847570106142,0.529926618503,-0.0258011081553,-0.0117045715332,-0.65683924091,-0.640551800641,-0.0917500591418,0.0,0.0,0.0
1609043733020071000,238,1609043733020071000,-2.60499540703,3.82079141913,0.8979133885,0.847396397321,0.529632395919,-0.0355214860589,-0.0121282739193,-0.613222251015,-0.602863922577,-0.0385353736269,0.0,0.0,0.0
1609043733120014000,239,1609043733120014000,-2.6570033069,3.77686004471,0.893926893808,0.847516429685,0.529726283858,-0.029808420087,-0.0147452939994,-0.535853212784,-0.549144721541,0.0923612140905,0.0,0.0,0.0
1609043733219933000,240,1609043733219933000,-2.7026864696,3.72353275954,0.895530322725,0.847690068887,0.53021423572,-0.00927218872522,-0.0144373774387,-0.534152600748,-0.542082803533,0.0873433388437,0.0,0.0,0.0
1609043733320009000,241,1609043733320009000,-2.7516698492,3.66681867925,0.905868457916,0.847653370709,0.530262104077,0.000577067892539,-0.0174794478914,-0.53710828405,-0.551641088704,0.101526914516,0.0,0.0,0.0
1609043733420089000,242,1609043733420089000,-2.8008780377,3.61052401524,0.896895068446,0.847658671484,0.530144615353,0.0033335384936,-0.02025712199,-0.559643289355,-0.579496628315,0.0453504110329,0.0,0.0,0.0
1609043733520060000,243,1609043733520060000,-2.85276680793,3.55056597072,0.885956391777,0.84774319465,0.530082686528,0.000157014106653,-0.0185417559705,-0.573047164495,-0.600064047572,0.0551027927393,0.0,0.0,0.0
1609043733620056000,244,1609043733620056000,-2.90788540004,3.48853918338,0.89505867862,0.847771110808,0.530094155783,-0.00505386698434,-0.0160868925584,-0.584475760461,-0.615886064837,0.049495323196,0.0,0.0,0.0
1609043733720114000,245,1609043733720114000,-2.96382073524,3.42532507521,0.902760388046,0.847775630114,0.530057628777,-0.0123252657114,-0.0127858901135,-0.582483240563,-0.614638530207,0.0924412596575,0.0,0.0,0.0
1609043733820114000,246,1609043733820114000,-3.02250525019,3.36299350866,0.910830546485,0.847743435095,0.530038939487,-0.0163691942499,-0.0110381321259,-0.574096671975,-0.598926294902,0.131454128786,0.0,0.0,0.0
1609043733920164000,247,1609043733920164000,-3.08379610456,3.30451957665,0.922289517709,0.847676608557,0.530088492203,-0.0178719591492,-0.0114521096541,-0.562004665437,-0.575104983123,0.167602480676,0.0,0.0,0.0
1609043734020330000,248,1609043734020330000,-3.14162835899,3.24070733098,0.918463197173,0.847736054955,0.530075203688,-0.0135510604033,-0.0134249143963,-0.550341312059,-0.562784221572,0.18186348519,0.0,0.0,0.0
1609043734120191000,249,1609043734120191000,-3.19656771703,3.18482188476,0.938145278432,0.847708353037,0.530166292698,-0.00913493300176,-0.0151922110864,-0.55865520869,-0.56096649718,0.162150662607,0.0,0.0,0.0
1609043734220221000,250,1609043734220221000,-3.24753827611,3.12652199724,0.956168449098,0.847746817227,0.530092252388,-0.00751847513687,-0.0164623926386,-0.554314648723,-0.570209510129,0.137188920663,0.0,0.0,0.0
1609043734320250000,251,1609043734320250000,-3.3072924187,3.05822262026,0.940917950158,0.847875910145,0.529887153034,-0.00872458619363,-0.0158090999444,-0.557484681508,-0.584747580988,0.0947203343741,0.0,0.0,0.0
1609043734420284000,252,1609043734420284000,-3.36166189585,2.9988484932,0.949607916025,0.847906479077,0.529869786082,-0.00902538691565,-0.0145311709306,-0.559167479521,-0.587629880506,0.0623884531252,0.0,0.0,0.0
1609043734520359000,253,1609043734520359000,-3.4155012072,2.93940607043,0.956058299983,0.847930759111,0.529753966467,-0.0143868145098,-0.012929900782,-0.563999897451,-0.586013969636,0.0281535127286,0.0,0.0,0.0
1609043734620314000,254,1609043734620314000,-3.47093602802,2.88034219904,0.961032437924,0.84795438339,0.529630607575,-0.0184167773592,-0.0112073869396,-0.548082056685,-0.568585929351,0.0668270022779,0.0,0.0,0.0
1609043734720356000,255,1609043734720356000,-3.52659105212,2.82194840775,0.966857692878,0.848019621736,0.529468893933,-0.0202284397046,-0.010780618462,-0.531370439158,-0.550110379776,0.0851868792454,0.0,0.0,0.0
1609043734820384000,256,1609043734820384000,-3.57886395459,2.76537382282,0.975310551962,0.848025925057,0.529435137859,-0.0210621700063,-0.010336838297,-0.51601608854,-0.531208524771,0.0989813819092,0.0,0.0,0.0
1609043734920399000,257,1609043734920399000,-3.61293663871,2.68676499158,0.947716981565,0.848111983426,0.529261690505,-0.0218601178031,-0.0105005610454,-0.488173667228,-0.527540316308,0.088643223743,0.0,0.0,0.0
1609043735020477000,258,1609043735020477000,-3.65836605178,2.6356492241,0.959432578554,0.848148123294,0.529197336599,-0.0220531901182,-0.0104209737777,-0.468085191825,-0.506948696482,0.0976246022129,0.0,0.0,0.0
1609043735120522000,259,1609043735120522000,-3.70057444391,2.58378043379,0.969441618635,0.848208544182,0.529327129751,-0.0180829382535,-0.00529741729146,-0.442206660763,-0.486308765089,0.131328755827,0.0,0.0,0.0
1609043735220528000,260,1609043735220528000,-3.73671165131,2.53364912826,0.983876614492,0.848187055711,0.52964401154,-0.00713767360292,0.00223454242353,-0.449788976742,-0.456873052581,0.134174573944,0.0,0.0,0.0
1609043735320527000,261,1609043735320527000,-3.78470546904,2.48943226606,1.00465225282,0.84813875415,0.529725635587,-0.00626108790914,0.00349334914364,-0.49334620512,-0.438728090929,0.100962174029,0.0,0.0,0.0
1609043735420586000,262,1609043735420586000,-3.82764312317,2.41314266363,1.00083671864,0.848322347874,0.529248822353,-0.0152740809697,-0.00340302615723,-0.514113618821,-0.427584459783,0.123830839395,0.0,0.0,0.0
1609043735520641000,263,1609043735520641000,-3.87894846816,2.36427294359,1.00620557002,0.848331283739,0.529030187408,-0.0200023355557,-0.00781027613358,-0.503269738944,-0.409568685528,0.132131774889,0.0,0.0,0.0
1609043735620621000,264,1609043735620621000,-3.92219936171,2.30516631674,1.01313352935,0.848420588893,0.52870070307,-0.0233129432303,-0.0107040924239,-0.479722431829,-0.402955415107,0.111420499928,0.0,0.0,0.0
1609043735720662000,265,1609043735720662000,-3.96740031169,2.25799370208,1.02269804881,0.84843017668,0.528661007198,-0.0240225898868,-0.0103290823138,-0.45379421559,-0.38678365381,0.117643234129,0.0,0.0,0.0
1609043735820742000,266,1609043735820742000,-4.02273053721,2.17741039886,1.01744114232,0.848453971321,0.528699550465,-0.022902829672,-0.00883766269518,-0.438613316564,-0.390929149547,0.107409617787,0.0,0.0,0.0
1609043735920834000,267,1609043735920834000,-4.06367708886,2.14007628266,1.0279143347,0.848489361102,0.528676831718,-0.0225483058733,-0.00762794887131,-0.421152701282,-0.369254565762,0.093888380196,0.0,0.0,0.0
1609043736020769000,268,1609043736020769000,-4.10894326089,2.09496040238,1.03502236193,0.848491668446,0.528665161005,-0.0227942158349,-0.00744713639443,-0.409068371043,-0.34882396373,0.0803821685852,0.0,0.0,0.0
1609043736120814000,269,1609043736120814000,-4.15061381611,2.05302391137,1.04180086755,0.848542547901,0.528680716324,-0.0211811445885,-0.00485836422492,-0.383716107766,-0.331740725566,0.0873632948676,0.0,0.0,0.0
1609043736220885000,270,1609043736220885000,-4.1919159862,2.02445397663,1.05076612033,0.848587053289,0.528910847733,-0.0120448765689,-0.00287212289249,-0.390978475113,-0.290012920699,0.133176503111,0.0,0.0,0.0
1609043736320846000,271,1609043736320846000,-4.23440282259,1.99081623052,1.0606670883,0.848612527654,0.528946263832,-0.00496304605722,-0.00692791897571,-0.407179214025,-0.283639057021,0.114875412889,0.0,0.0,0.0
1609043736420920000,272,1609043736420920000,-4.30806586382,1.8796157974,1.05483241369,0.848626668019,0.52890859896,-0.00220179246533,-0.0091446368642,-0.451143529677,-0.336188256678,0.0385112815502,0.0,0.0,0.0
1609043736520923000,273,1609043736520923000,-4.34792193941,1.86226408228,1.07253550017,0.848700422362,0.528477064381,-0.0168811911273,-0.0116021933765,-0.454044478177,-0.33003578419,0.0113910876399,0.0,0.0,0.0
1609043736621064000,274,1609043736621064000,-4.3935080771,1.79973226227,1.08855205551,0.848593591592,0.528496897525,-0.0218021256577,-0.0102280463058,-0.440921924785,-0.328659172701,0.0505621570732,0.0,0.0,0.0
1609043736720943000,275,1609043736720943000,-4.45397404089,1.72940596219,1.08987948281,0.848575254212,0.528423392216,-0.02451303008,-0.00937378545618,-0.432852557411,-0.33082388752,0.0639859460246,0.0,0.0,0.0
1609043736820998000,276,1609043736820998000,-4.49373039242,1.69510052378,1.09115778437,0.848582215651,0.528338309246,-0.0261648237277,-0.00906952390235,-0.404337283472,-0.307987936755,0.064718700335,0.0,0.0,0.0
1609043736921091000,277,1609043736921091000,-4.57183868149,1.59953579984,1.08441389994,0.848633879325,0.528273614481,-0.0254227948262,-0.0100602489253,-0.388975331579,-0.31491977732,0.0906098703396,0.0,0.0,0.0
1609043737021066000,278,1609043737021066000,-4.60471092364,1.58849051794,1.095795792,0.848775357109,0.528262406767,-0.0180974017405,-0.0138458228763,-0.372746123132,-0.283780303561,0.116786331897,0.0,0.0,0.0
1609043737121098000,279,1609043737121098000,-4.64562032837,1.55105034528,1.10652088963,0.848813164896,0.528321051291,-0.0130983914967,-0.0148832120783,-0.373521741186,-0.291351263297,0.0757651659138,0.0,0.0,0.0
1609043737221203000,280,1609043737221203000,-4.69212776973,1.49455170148,1.11484375917,0.848713479887,0.528386103139,-0.0184987686213,-0.0123024642607,-0.369643992568,-0.310141369433,0.0365209557227,0.0,0.0,0.0
1609043737321174000,281,1609043737321174000,-4.75456568599,1.39060203985,1.1077210889,0.848648752998,0.528402630625,-0.021840285502,-0.0104381948761,-0.361500171957,-0.335196342997,0.0583161726043,0.0,0.0,0.0
