%time,field.header.seq,field.header.stamp,field.pose.pose.position.x,field.pose.pose.position.y,field.pose.pose.position.z,field.pose.pose.orientation.x,field.pose.pose.orientation.y,field.pose.pose.orientation.z,field.pose.pose.orientation.w,field.twist.twist.linear.x,field.twist.twist.linear.y,field.twist.twist.linear.z,field.twist.twist.angular.x,field.twist.twist.angular.y,field.twist.twist.angular.z
1609059067187274000,0,1609059067187274000,0.185041235063,0.0170118066402,0.781093462371,0.999739653715,0.00498877855484,0.0199973841334,-0.00978986750259,0.15038879519,-0.0388352154615,0.414097983241,0.0,0.0,0.0
1609059067287265000,1,1609059067287265000,0.229341436955,0.0104798403186,0.932775959341,0.99970431464,0.0050379217664,0.0204625561843,-0.0121320414479,0.161731452628,-0.0444937017167,0.489899195318,0.0,0.0,0.0
1609059067387289000,2,1609059067387289000,0.258975258493,0.00843775881807,1.0383544459,0.999701199744,0.00501808259446,0.0206057453105,-0.0121545603681,0.16026133743,-0.0496739713812,0.557899323432,0.0,0.0,0.0
1609059067487278000,3,1609059067487278000,0.269150570549,-0.000576610142567,1.13056547651,0.999676335508,0.00501883853944,0.0216912643369,-0.0123095303238,0.143836929021,-0.0649396628985,0.660796315229,0.0,0.0,0.0
1609059067587431000,4,1609059067587431000,0.285214810521,0.00816239021455,1.23426545119,0.999690379067,0.00507091134816,0.0213028592041,-0.0118160927851,0.134178644414,-0.0641517212235,0.693735969327,0.0,0.0,0.0
1609059067687286000,5,1609059067687286000,0.295115838816,0.00649536340172,1.32108211148,0.999710104527,0.00494660586503,0.020975977271,-0.0107352864624,0.126556981441,-0.0650023216904,0.691924393948,0.0,0.0,0.0
1609059067787624000,6,1609059067787624000,0.299681274448,0.00680355056573,1.39174922996,0.999699572507,0.00507194187951,0.0222012385975,-0.00906339559013,0.112269307848,-0.0642469708537,0.708660379846,0.0,0.0,0.0
1609059067887419000,7,1609059067887419000,0.30513301557,0.00240362102409,1.49149181528,0.99970475816,0.00510408269617,0.0221085041853,-0.00869246198072,0.0951321198443,-0.0668364132927,0.71437876038,0.0,0.0,0.0
1609059067987401000,8,1609059067987401000,0.3099886384,-0.00376495707011,1.60299065174,0.999736832047,0.00526473142881,0.020810915413,-0.00809042964672,0.0795877986442,-0.0656639207336,0.767679490961,0.0,0.0,0.0
1609059068087471000,9,1609059068087471000,0.317956083159,-0.00410021080153,1.7298189652,0.999739526069,0.00546258844053,0.0199350246345,-0.00967651469441,0.0805060629534,-0.0618177417856,0.820839282856,0.0,0.0,0.0
1609059068187565000,10,1609059068187565000,0.328896820543,-0.0134244076831,1.822404388,0.999754057856,0.00545889586504,0.0187837373224,-0.0104496635271,0.0736970436006,-0.0686012517811,0.812686831069,0.0,0.0,0.0
1609059068287530000,11,1609059068287530000,0.335184455954,-0.0213050183915,1.90266802796,0.999736094143,0.00533813819796,0.0182849247729,-0.0128416461232,0.0708805018908,-0.0807550300389,0.818479746544,0.0,0.0,0.0
1609059068387606000,12,1609059068387606000,0.341632673857,-0.0325400574354,1.98602563743,0.999723404419,0.00516033890043,0.0179943877468,-0.0142368384608,0.0637524053185,-0.0999323010285,0.803077319362,0.0,0.0,0.0
1609059068488256000,13,1609059068488256000,0.345700466238,-0.0446594508699,2.05742652262,0.999743189402,0.00502428535745,0.0175119624763,-0.0134774986644,0.062241740518,-0.110853180652,0.788745941047,0.0,0.0,0.0
1609059068587647000,14,1609059068587647000,0.343971508295,-0.0527119042482,2.09228422105,0.999686269408,0.00500049298652,0.0197943109489,-0.0145101027482,0.0528311255796,-0.121538813326,0.75598709636,0.0,0.0,0.0
1609059068687726000,15,1609059068687726000,0.345889638826,-0.0619901683556,2.16793375108,0.999683337283,0.00515831739113,0.0200696541264,-0.0142767609402,0.0403312890694,-0.135813723707,0.738633638616,0.0,0.0,0.0
1609059068788171000,16,1609059068788171000,0.309873855648,-0.0612285421768,2.16694479332,0.99970168481,0.00540082038045,0.0204332574852,-0.0122415079403,0.0168501522258,-0.141806501207,0.705591849306,0.0,0.0,0.0
1609059068888100000,17,1609059068888100000,0.306765871955,-0.0698785187838,2.21073856994,0.999733312268,0.00545005054276,0.0191844307075,-0.0116429768227,0.00549543099808,-0.144687482968,0.683983778707,0.0,0.0,0.0
1609059068987698000,18,1609059068987698000,0.306512933368,-0.0795615976233,2.27453069408,0.999752511604,0.00541654228368,0.0185382493143,-0.01104128266,0.00103067367873,-0.1518454458,0.695430092145,0.0,0.0,0.0
1609059069087761000,19,1609059069087761000,0.303499349659,-0.0920754926965,2.34443844956,0.999765225192,0.00557280028934,0.0187710983036,-0.00927816054398,-0.00597998822674,-0.154364142311,0.692183072372,0.0,0.0,0.0
1609059069188446000,20,1609059069188446000,0.297179387918,-0.102419178437,2.40128040092,0.999768959234,0.00566289987301,0.0189360311911,-0.00844904969902,-0.0155117508703,-0.161479645588,0.71101820737,0.0,0.0,0.0
1609059069287904000,21,1609059069287904000,0.292558755455,-0.11511912297,2.45098411095,0.999800104714,0.00581746170642,0.0183878161956,-0.00527218828376,-0.022848516512,-0.148950060914,0.731145321725,0.0,0.0,0.0
1609059069387886000,22,1609059069387886000,0.272912514946,-0.114434391252,2.4861233443,0.999783086444,0.00593914498221,0.0191892396583,-0.00550269920884,-0.0289379834057,-0.147169754418,0.726836034517,0.0,0.0,0.0
1609059069487970000,23,1609059069487970000,0.266668820784,-0.126429958785,2.56241445321,0.999756976458,0.0060578768397,0.0204126429495,-0.00571088081418,-0.0385043563786,-0.138196987346,0.719557826911,0.0,0.0,0.0
1609059069588642000,24,1609059069588642000,0.260612141152,-0.141445169782,2.64966730709,0.999733549004,0.00622449399371,0.0211695581534,-0.00677764549836,-0.0496316408833,-0.132853752602,0.725781302317,0.0,0.0,0.0
1609059069687946000,25,1609059069687946000,0.261474660441,-0.155377427887,2.71629971819,0.999724230753,0.00617647521292,0.0214263982536,-0.00736363076739,-0.0592333863248,-0.131114193127,0.731695625897,0.0,0.0,0.0
1609059069788044000,26,1609059069788044000,0.241005308653,-0.165515314577,2.75653555477,0.999689221357,0.00618634968553,0.0215745757818,-0.010850228564,-0.0681492692324,-0.134154954275,0.744231554943,0.0,0.0,0.0
1609059069888540000,27,1609059069888540000,0.240111336886,-0.183266074882,2.86431475985,0.999681387312,0.00620376143222,0.0217228586924,-0.0112585352451,-0.0795324890245,-0.150804858252,0.744073233187,0.0,0.0,0.0
1609059069988117000,28,1609059069988117000,0.237033888254,-0.199486290815,2.96219793006,0.99969519575,0.00633950197083,0.0209515036399,-0.011417565644,-0.0878949317229,-0.158476897259,0.769031997435,0.0,0.0,0.0
1609059070088089000,29,1609059070088089000,0.227148953664,-0.213043317246,3.0400893804,0.999711542633,0.00665068898836,0.02007021506,-0.0113923803003,-0.0962486755901,-0.165629769913,0.780268428173,0.0,0.0,0.0
1609059070188424000,30,1609059070188424000,0.216035459227,-0.224704003339,3.11239346507,0.999746426061,0.00672619807775,0.0191833514354,-0.0096871494861,-0.103845613595,-0.177046269024,0.781674462972,0.0,0.0,0.0
1609059070288457000,31,1609059070288457000,0.200628208381,-0.241280367281,3.15079434499,0.999772067286,0.00708417735382,0.018543285471,-0.00785967362621,-0.102122155144,-0.174272897092,0.754146599624,0.0,0.0,0.0
1609059070388190000,32,1609059070388190000,0.187652137259,-0.257936186664,3.22729538293,0.999786369673,0.00752792882333,0.0186383822855,-0.004812069244,-0.110372291126,-0.172997992453,0.727529831915,0.0,0.0,0.0
1609059070488229000,33,1609059070488229000,0.178242191135,-0.274236950274,3.29186021532,0.99984051222,0.00770493119222,0.0159834857736,-0.00202789069506,-0.109461963373,-0.162758769974,0.741973206129,0.0,0.0,0.0
1609059070589010000,34,1609059070589010000,0.168451869294,-0.288999051603,3.34411095405,0.999828889411,0.00789556120582,0.016336311718,-0.00360235096703,-0.105618034837,-0.150484219033,0.753976697116,0.0,0.0,0.0
1609059070688334000,35,1609059070688334000,0.157845393185,-0.304235897804,3.4212332294,0.999811603183,0.00782543207189,0.0168901078385,-0.00549954636051,-0.106119499715,-0.145350315408,0.748214361347,0.0,0.0,0.0
1609059070788313000,36,1609059070788313000,0.14651944178,-0.31686349586,3.48819132357,0.999808651806,0.00765886365217,0.0164892702868,-0.00721841725021,-0.0963921949156,-0.134627665119,0.717003739398,0.0,0.0,0.0
1609059070888834000,37,1609059070888834000,0.144510866329,-0.333979245708,3.57665844553,0.999787772547,0.00755537254307,0.0162917071503,-0.0100948743854,-0.0909597966695,-0.135176386196,0.699473634362,0.0,0.0,0.0
1609059070988752000,38,1609059070988752000,0.141229486104,-0.35180419067,3.66265520066,0.999733303565,0.00788551691386,0.0161323063137,-0.0145220197832,-0.0826367618133,-0.134913783184,0.726367117178,0.0,0.0,0.0
1609059071088405000,39,1609059071088405000,0.136144127571,-0.368599544135,3.74452008778,0.999686044288,0.00824751365766,0.0160705003178,-0.0173646305642,-0.0788652196308,-0.150481671849,0.710924159986,0.0,0.0,0.0
1609059071188425000,40,1609059071188425000,0.131331508916,-0.386975651512,3.82080069548,0.999668760679,0.00855128410581,0.0149852954105,-0.0190967375312,-0.0708251015678,-0.171706107621,0.697741037944,0.0,0.0,0.0
1609059071288496000,41,1609059071288496000,0.125382005308,-0.405382948012,3.90060729164,0.999686317676,0.00855186413658,0.0137251480369,-0.0191246485384,-0.0674548603994,-0.195185548231,0.671360840623,0.0,0.0,0.0
1609059071388531000,42,1609059071388531000,0.115811764295,-0.419088150433,3.93952616884,0.9997261765,0.00865392573193,0.0140907187028,-0.016556969445,-0.0557310409866,-0.206585876378,0.683946517466,0.0,0.0,0.0
1609059071488585000,43,1609059071488585000,0.105892586549,-0.434283518927,3.9817688687,0.999783077909,0.00872721559475,0.0138298628708,-0.0128983614558,-0.0486295312687,-0.20826006328,0.663282286712,0.0,0.0,0.0
1609059071588513000,44,1609059071588513000,0.100224656315,-0.455116720962,4.04853943748,0.999791463598,0.0088462083689,0.0147789876881,-0.0109706625998,-0.041207357171,-0.213578111387,0.629356620344,0.0,0.0,0.0
1609059071688885000,45,1609059071688885000,0.0956639152116,-0.476508611473,4.09958050776,0.999796051169,0.00902037004922,0.0159155923441,-0.00855470112874,-0.0353018084633,-0.208425487343,0.564211346373,0.0,0.0,0.0
1609059071788703000,46,1609059071788703000,0.0958009581359,-0.497728305752,4.14302369611,0.99980520975,0.00905514714539,0.0156816126687,-0.00785072548323,-0.0246729168428,-0.201127807047,0.531248877481,0.0,0.0,0.0
1609059071888725000,47,1609059071888725000,0.0934498882352,-0.521798822221,4.19960840344,0.999800818724,0.00930140433253,0.0161159866709,-0.00721676733596,-0.020195282783,-0.195026246481,0.520017836092,0.0,0.0,0.0
1609059071988753000,48,1609059071988753000,0.0944182607467,-0.55037112266,4.26112202279,0.999791671616,0.00952036174912,0.0161563441448,-0.00805907089129,-0.0152155303575,-0.1937086023,0.491207485368,0.0,0.0,0.0
1609059072088756000,49,1609059072088756000,0.0954184169303,-0.572447234658,4.31209906562,0.999776113814,0.00962379007,0.0158073158213,-0.0102583467425,-0.00915405621419,-0.182655753618,0.469996212969,0.0,0.0,0.0
1609059072188805000,50,1609059072188805000,0.0940386429052,-0.585571292658,4.3315180374,0.999739221083,0.00980250993991,0.0177166354166,-0.0105603720003,-0.00319091432729,-0.183868567505,0.468521698903,0.0,0.0,0.0
1609059072288808000,51,1609059072288808000,0.0948671951512,-0.612035846205,4.40049227772,0.999734016072,0.00986492312465,0.0170306702755,-0.0120223404351,-0.0112440540381,-0.190059958724,0.419179170507,0.0,0.0,0.0
1609059072388905000,52,1609059072388905000,0.0954312877699,-0.628483980724,4.43358412013,0.99979835113,0.00985401160464,0.0148832226276,-0.00920028355664,0.00573845401561,-0.194041066512,0.383817185823,0.0,0.0,0.0
1609059072488909000,53,1609059072488909000,0.0979318714479,-0.636487561839,4.42957086359,0.999823831464,0.00972288043657,0.0148391866992,-0.00612945107641,0.0151182713033,-0.188071906146,0.273460676106,0.0,0.0,0.0
1609059072588905000,54,1609059072588905000,0.0991771736251,-0.65576540953,4.45141220488,0.999839706419,0.00964668750393,0.0148115537307,-0.00284969544563,0.0222178618753,-0.174171300668,0.181798978817,0.0,0.0,0.0
1609059072688885000,55,1609059072688885000,0.101119014755,-0.673557815169,4.46620456766,0.999838284206,0.00989192809489,0.0146947851345,0.0031013679939,0.0284435914263,-0.148596680393,0.135848145786,0.0,0.0,0.0
1609059072789269000,56,1609059072789269000,0.105685779915,-0.689788982407,4.47246781038,0.999828041724,0.0100806761242,0.0144310101536,0.00583205768964,0.0361652907305,-0.114658772974,0.0920097460915,0.0,0.0,0.0
1609059072889051000,57,1609059072889051000,0.113181541682,-0.704002895381,4.47070482215,0.999807305808,0.0103406195119,0.0140357206676,0.00902337995909,0.0464666393204,-0.0821433391546,0.0515517231023,0.0,0.0,0.0
1609059072989004000,58,1609059072989004000,0.111693936256,-0.709918954405,4.48322939584,0.999799028847,0.010374983013,0.0119656287553,0.0122916789867,0.0579643044808,-0.0415478938032,0.00992418482365,0.0,0.0,0.0
1609059073089056000,59,1609059073089056000,0.121811095607,-0.709447192617,4.47919453639,0.999777279368,0.0103300824373,0.0105657012122,0.0150680792996,0.0741152244606,0.0103378258111,-0.0455332192938,0.0,0.0,0.0
1609059073189089000,60,1609059073189089000,0.133134570741,-0.704626220041,4.4563121769,0.999772156981,0.0102602192986,0.0100762322122,0.0157743960538,0.0890893236329,0.0622068899322,-0.107995770557,0.0,0.0,0.0
1609059073289108000,61,1609059073289108000,0.146020985852,-0.695098351344,4.42511998434,0.999681539119,0.0105042620453,0.0103413562345,0.0204826066214,0.103341907605,0.115532231113,-0.144557943934,0.0,0.0,0.0
1609059073389096000,62,1609059073389096000,0.15502221641,-0.679599745173,4.40212501089,0.999598621317,0.010613687639,0.0109411507816,0.0238796381075,0.114186249188,0.180970747343,-0.177196627413,0.0,0.0,0.0
1609059073489117000,63,1609059073489117000,0.166836871751,-0.658883983075,4.3702647359,0.999552043579,0.0106040478937,0.012141186652,0.0252162236013,0.126903873609,0.266593794622,-0.190468909168,0.0,0.0,0.0
1609059073589178000,64,1609059073589178000,0.190799549358,-0.639768523657,4.3456879464,0.999585481663,0.0108708389846,0.0141907760556,0.022567932652,0.140586786993,0.348195147328,-0.189516066561,0.0,0.0,0.0
1609059073689256000,65,1609059073689256000,0.207676167996,-0.602722080057,4.33994461525,0.999682941821,0.0111299398619,0.0157564282407,0.01618255972,0.143031010275,0.408734089782,-0.17525574777,0.0,0.0,0.0
1609059073789245000,66,1609059073789245000,0.222678770768,-0.557828895441,4.33143803526,0.999728205701,0.0113116909114,0.0163095977909,0.0122293660311,0.146232599557,0.459559847655,-0.156971956571,0.0,0.0,0.0
1609059073889312000,67,1609059073889312000,0.237229586661,-0.507429413349,4.31804913384,0.999752907615,0.0115852882675,0.0169401984912,0.0085401690017,0.14819746542,0.492570691284,-0.168575411376,0.0,0.0,0.0
1609059073989394000,68,1609059073989394000,0.253787170576,-0.454609050301,4.30550574237,0.999761011285,0.0117604414059,0.0169042160423,0.00733892453018,0.148297066099,0.530356082304,-0.188036652859,0.0,0.0,0.0
1609059074089321000,69,1609059074089321000,0.2683427114,-0.398694720725,4.28894723202,0.999747019095,0.0119033626989,0.017272024807,0.00811695306303,0.153089159515,0.570629092199,-0.182843670398,0.0,0.0,0.0
1609059074189295000,70,1609059074189295000,0.284890866617,-0.338373767953,4.26420570208,0.999736348369,0.0121575521518,0.0181816521277,0.00698964956583,0.152638727511,0.611628164552,-0.175482980833,0.0,0.0,0.0
1609059074289551000,71,1609059074289551000,0.300863141387,-0.276267431924,4.2407877218,0.999710591578,0.0124785258334,0.0192657141592,0.00720081504651,0.146774223457,0.64609335749,-0.161846673593,0.0,0.0,0.0
1609059074389446000,72,1609059074389446000,0.315463519233,-0.209713190342,4.21912634647,0.999690048358,0.0125861471137,0.0203152522957,0.00697758117305,0.140832152609,0.681069686982,-0.140494932283,0.0,0.0,0.0
1609059074489543000,73,1609059074489543000,0.329451674569,-0.137776207868,4.21175052433,0.999684634998,0.012710398683,0.0203768781889,0.00733887936881,0.133442443301,0.719198452601,-0.119438591405,0.0,0.0,0.0
1609059074589518000,74,1609059074589518000,0.343395791702,-0.0613766529745,4.2015253205,0.999688373659,0.012483135509,0.0208446558223,0.00572950451725,0.128143418757,0.760354161222,-0.101040552902,0.0,0.0,0.0
1609059074689569000,75,1609059074689569000,0.355519571542,0.0161054602758,4.19018332914,0.999696648251,0.012319009258,0.021005094344,0.00369316904663,0.122593435608,0.793030942152,-0.0947021735392,0.0,0.0,0.0
1609059074789574000,76,1609059074789574000,0.3666543842,0.0977030391434,4.18153742721,0.999700806754,0.0120761532037,0.0210780338021,0.00286006814384,0.116612845731,0.819809484634,-0.0794828348778,0.0,0.0,0.0
1609059074889638000,77,1609059074889638000,0.376482629027,0.180674257831,4.16977844848,0.999698645229,0.011873946389,0.0214108337602,0.00179006200637,0.108548983722,0.849459250655,-0.0648877800164,0.0,0.0,0.0
1609059074989669000,78,1609059074989669000,0.3859573799,0.276987406885,4.1603693279,0.99968267174,0.0117929912228,0.0221955475358,0.00168488859419,0.100353146542,0.888333334335,-0.0431095631531,0.0,0.0,0.0
1609059075089657000,79,1609059075089657000,0.395180379642,0.366578202798,4.1584975995,0.999670074592,0.0119364939779,0.0227333199972,-0.000676932813529,0.0882639204825,0.918035699397,-0.0196969722087,0.0,0.0,0.0
1609059075189708000,80,1609059075189708000,0.403217242275,0.459752681932,4.15910241502,0.999664764727,0.0122250680023,0.022745631954,-0.00188204736642,0.0772126229904,0.945549228273,0.00115069042549,0.0,0.0,0.0
1609059075289792000,81,1609059075289792000,0.410321983286,0.555325603936,4.16170605982,0.999669820544,0.0124305465846,0.0222832195399,-0.0030314241192,0.0655377529915,0.96501576606,0.0233553531251,0.0,0.0,0.0
1609059075389859000,82,1609059075389859000,0.418119252977,0.664533999743,4.1624519726,0.999685524701,0.0124734160656,0.0215354464688,-0.0030806070987,0.0569153223482,0.99150517596,0.0458064701719,0.0,0.0,0.0
1609059075489856000,83,1609059075489856000,0.424468488702,0.762562339531,4.16686987584,0.999669270764,0.0126108815949,0.0217297566961,-0.00548930134609,0.0514636540293,1.00940280822,0.0669379932224,0.0,0.0,0.0
1609059075589845000,84,1609059075589845000,0.429426651659,0.863329209477,4.17320224716,0.999612780332,0.0127018543857,0.0233997160651,-0.00808737166486,0.0436361499237,1.01485652685,0.0756080581564,0.0,0.0,0.0
1609059075689836000,85,1609059075689836000,0.43561111506,0.974443469671,4.17963852224,0.999617216994,0.0125593445506,0.0236055045609,-0.00710369674578,0.0289468495096,1.03283675424,0.0872303798149,0.0,0.0,0.0
1609059075789942000,86,1609059075789942000,0.437609265179,1.07710811032,4.19027898838,0.999598333956,0.0124893241311,0.0237860146955,-0.00902291743776,0.017346830394,1.03872276163,0.104177770004,0.0,0.0,0.0
1609059075889946000,87,1609059075889946000,0.436786266941,1.18024782723,4.20012436068,0.999601653667,0.0123109853772,0.0244182500043,-0.00698016421338,0.00387462869234,1.04843316531,0.106518352439,0.0,0.0,0.0
1609059075989941000,88,1609059075989941000,0.436813411022,1.28998721082,4.2161637609,0.999602643921,0.0121064045377,0.0246174483044,-0.00647846236789,-0.00858859973579,1.06308117675,0.103220880285,0.0,0.0,0.0
1609059076089973000,89,1609059076089973000,0.433912497959,1.39633482589,4.22810389222,0.999643938689,0.0120503893464,0.0232031551676,-0.0053289350242,-0.022386896689,1.0781591186,0.0877858381979,0.0,0.0,0.0
1609059076190028000,90,1609059076190028000,0.430293313577,1.50375440227,4.23702501967,0.999690345179,0.012066167205,0.0212982804713,-0.00447265179933,-0.0318686365449,1.09765998342,0.0801373149699,0.0,0.0,0.0
1609059076290084000,91,1609059076290084000,0.424799544422,1.61869880709,4.24707765297,0.999693622065,0.0120987989773,0.0210389197502,-0.00486260435409,-0.0355986943014,1.12309609599,0.0577158614687,0.0,0.0,0.0
1609059076390155000,92,1609059076390155000,0.420826746526,1.73238387428,4.25192295754,0.999696439391,0.0122565675573,0.0205883091363,-0.00573821816087,-0.0433748049382,1.14396457518,0.0458742220807,0.0,0.0,0.0
1609059076490143000,93,1609059076490143000,0.415414715959,1.84773478511,4.25733498404,0.999676472077,0.0124040951614,0.0211419055202,-0.00679039243627,-0.050468350743,1.16509873265,0.06165028631,0.0,0.0,0.0
1609059076590165000,94,1609059076590165000,0.404785957717,1.97482038165,4.26305188339,0.999629600929,0.0125955662421,0.0227649176275,-0.00798568609637,-0.0628455538929,1.18786340428,0.0675379694922,0.0,0.0,0.0
1609059076690148000,95,1609059076690148000,0.397137024359,2.09424043724,4.26796279705,0.999584537585,0.0125678455293,0.0245251113614,-0.00844514022102,-0.0769280622887,1.20221847708,0.0311985776425,0.0,0.0,0.0
1609059076790269000,96,1609059076790269000,0.38816239209,2.21430486343,4.27119069291,0.999559258988,0.0124420398466,0.0253888293922,-0.00904935120338,-0.0925444245064,1.21533843587,0.0224294900412,0.0,0.0,0.0
1609059076890234000,97,1609059076890234000,0.377340610817,2.33794165646,4.27594350075,0.999541867001,0.0121954403123,0.0255930528596,-0.010598254218,-0.110915624626,1.22688630287,0.0274096298981,0.0,0.0,0.0
1609059076990201000,98,1609059076990201000,0.365265636159,2.4603492205,4.27960309641,0.999527030524,0.0120988583347,0.0257069059909,-0.0117680866514,-0.126420404706,1.23231666964,0.0465762567366,0.0,0.0,0.0
1609059077090250000,99,1609059077090250000,0.351478350544,2.58459838932,4.28231396888,0.999386147671,0.0120606166436,0.0284876317579,-0.0164415390451,-0.14599758527,1.24328025212,0.05342973072,0.0,0.0,0.0
1609059077190297000,100,1609059077190297000,0.331848012864,2.71460805853,4.28795537477,0.999180288961,0.0116246030202,0.0320777855941,-0.0217861062842,-0.179070690537,1.23707863876,0.0489026620866,0.0,0.0,0.0
1609059077290337000,101,1609059077290337000,0.313588860483,2.83702575967,4.29404197542,0.998964062381,0.0113423199711,0.0358121782015,-0.0256834916303,-0.21442894543,1.21311383213,0.0665161710047,0.0,0.0,0.0
1609059077390366000,102,1609059077390366000,0.291560465928,2.96542397883,4.2990945712,0.998803694171,0.0109773673931,0.0393491842183,-0.026876004469,-0.260016225996,1.19012605604,0.0547549708102,0.0,0.0,0.0
1609059077490447000,103,1609059077490447000,0.262732722621,3.08258977176,4.3068247524,0.998820248756,0.0110683658278,0.0395846628341,-0.0258583917069,-0.311850560087,1.17147249506,0.0498647779766,0.0,0.0,0.0
1609059077590531000,104,1609059077590531000,0.231306222571,3.20390211488,4.31219492246,0.998902488691,0.010990591365,0.0377784316603,-0.0254128921948,-0.360040413133,1.15032487024,0.0438434629873,0.0,0.0,0.0
1609059077690495000,105,1609059077690495000,0.194688252344,3.31795682469,4.31941802098,0.999069809666,0.0111426928676,0.0340634750383,-0.0239798973788,-0.40323358065,1.13494087333,0.0490072305221,0.0,0.0,0.0
1609059077790459000,106,1609059077790459000,0.151392433196,3.42904758996,4.32919332574,0.999198075758,0.0112445554644,0.0302906659704,-0.023648275394,-0.439945864618,1.11449961224,0.0509802753808,0.0,0.0,0.0
1609059077890500000,107,1609059077890500000,0.10687842356,3.54050919721,4.34009967553,0.999285671015,0.0113306734282,0.0248795654758,-0.0260915841837,-0.46666098551,1.09863783981,0.0717881976297,0.0,0.0,0.0
1609059077990547000,108,1609059077990547000,0.0579436908904,3.64822304297,4.34749035818,0.999394615044,0.0115257708638,0.0194336022774,-0.0264555311739,-0.481202930018,1.07285741482,0.0844814050266,0.0,0.0,0.0
1609059078090586000,109,1609059078090586000,0.0109837601698,3.75753346786,4.35821745045,0.999429643349,0.0117125751182,0.0158906938053,-0.0273987121805,-0.4825954207,1.05958596032,0.101519524564,0.0,0.0,0.0
1609059078190630000,110,1609059078190630000,-0.0355247466516,3.86301855436,4.36662714826,0.999440918536,0.0120813592444,0.0133647369082,-0.0281651366593,-0.47663589485,1.03194683234,0.116121139847,0.0,0.0,0.0
1609059078290699000,111,1609059078290699000,-0.080897547415,3.97079535639,4.37518917569,0.999442715956,0.0119918601574,0.0129539513635,-0.0283310422705,-0.467627684981,1.0070150081,0.136494078485,0.0,0.0,0.0
1609059078390827000,112,1609059078390827000,-0.128258524872,4.07013669095,4.38712978833,0.999504940382,0.0118395415557,0.01299016017,-0.0260951173037,-0.459370158066,0.981032470607,0.157932651069,0.0,0.0,0.0
1609059078490769000,113,1609059078490769000,-0.174647058874,4.16624045635,4.40333934721,0.999552654605,0.0117993466049,0.0130467917763,-0.0241877513472,-0.451796602584,0.962976363427,0.168859175772,0.0,0.0,0.0
1609059078590768000,114,1609059078590768000,-0.22277703499,4.26385367259,4.41193873651,0.999602209793,0.0119114560698,0.0131860536047,-0.0219013100476,-0.446122264214,0.953092301761,0.178959530749,0.0,0.0,0.0
1609059078690803000,115,1609059078690803000,-0.266728112304,4.35698096278,4.42764663057,0.999629600216,0.012245150757,0.0143432714782,-0.0196211421244,-0.4386833477,0.949232131928,0.18073328695,0.0,0.0,0.0
1609059078790872000,116,1609059078790872000,-0.310656102875,4.45111338306,4.44353737217,0.999654046258,0.0125170678106,0.0160083801844,-0.0166985800732,-0.437383026655,0.944494946667,0.179732308992,0.0,0.0,0.0
1609059078890819000,117,1609059078890819000,-0.360845815768,4.54616571998,4.45150279812,0.999677905131,0.0125039338814,0.0174900881791,-0.013484600316,-0.447304623576,0.946603688831,0.168389629776,0.0,0.0,0.0
1609059078990918000,118,1609059078990918000,-0.404991733997,4.63875293657,4.46925394458,0.999715994831,0.0124955093162,0.0170955770457,-0.0109331226428,-0.451492754815,0.95057777636,0.180793016101,0.0,0.0,0.0
1609059079090896000,119,1609059079090896000,-0.450551483417,4.73323177774,4.48479960109,0.999719867718,0.0124778563085,0.0174948791928,-0.00992060454701,-0.453785766682,0.96360958036,0.184971755968,0.0,0.0,0.0
1609059079190998000,120,1609059079190998000,-0.499644150985,4.82984282269,4.49465283204,0.999705655315,0.0125815606445,0.0188588494595,-0.00864007294478,-0.465545748651,0.986230102283,0.168388629032,0.0,0.0,0.0
1609059079291000000,121,1609059079291000000,-0.545417147441,4.92536525561,4.51143831149,0.999692944911,0.012811245213,0.0191114481915,-0.00920002382308,-0.477288757679,1.00240815813,0.150227742791,0.0,0.0,0.0
1609059079391117000,122,1609059079391117000,-0.593961649046,5.02299032758,4.52594042793,0.999668512247,0.0130214486439,0.01902279362,-0.0114647643223,-0.48953512239,1.01323867539,0.145085769729,0.0,0.0,0.0
1609059079491172000,123,1609059079491172000,-0.647125118326,5.12297727851,4.53540259675,0.999667783265,0.0129993485629,0.0185450763096,-0.0123052909192,-0.507141405699,1.01696419679,0.135232465722,0.0,0.0,0.0
1609059079591075000,124,1609059079591075000,-0.696888434261,5.22386080386,4.54980045041,0.999675136972,0.0130325691613,0.0175318036687,-0.0131304425433,-0.519590247362,1.02681594396,0.134680176283,0.0,0.0,0.0
1609059079691183000,125,1609059079691183000,-0.749026430384,5.32357017174,4.56520655631,0.999671230443,0.0131329689746,0.0157666626916,-0.015374280402,-0.52634365984,1.03163525776,0.128742957815,0.0,0.0,0.0
1609059079791151000,126,1609059079791151000,-0.804419672884,5.42649258999,4.57445523383,0.999697533835,0.0133178266715,0.0137947015119,-0.0154007320298,-0.53581924249,1.02428232427,0.123077564191,0.0,0.0,0.0
1609059079891220000,127,1609059079891220000,-0.858487705643,5.52877720408,4.58691176948,0.999716428501,0.0134477425987,0.0114185697573,-0.0159949075758,-0.535484577273,1.03159155714,0.133466045534,0.0,0.0,0.0
1609059079991240000,128,1609059079991240000,-0.912916969807,5.63025987447,4.59842826991,0.999736470672,0.0136854947217,0.0101748651473,-0.0153677767562,-0.531457731268,1.02678853745,0.147187137574,0.0,0.0,0.0
1609059080091179000,129,1609059080091179000,-0.965165757761,5.72649198801,4.60661564429,0.999747733764,0.0139437102332,0.00979356495919,-0.0146331084784,-0.523040122924,1.01684152874,0.154115561381,0.0,0.0,0.0
1609059080191251000,130,1609059080191251000,-1.01721000155,5.82726440412,4.62030801247,0.99975876908,0.0141340341065,0.010000272161,-0.0135139662354,-0.520670733831,1.01691787108,0.158956555652,0.0,0.0,0.0
1609059080291307000,131,1609059080291307000,-1.06705123782,5.92943452421,4.63329101358,0.999758219933,0.0142872185191,0.0113942478966,-0.012228989252,-0.514649926111,1.02545663753,0.164715854805,0.0,0.0,0.0
1609059080391318000,132,1609059080391318000,-1.12033416239,6.03123749576,4.64268248754,0.999711582774,0.0142970744954,0.0125206993786,-0.0146825411638,-0.520724878304,1.02237968968,0.157123933555,0.0,0.0,0.0
1609059080491449000,133,1609059080491449000,-1.17144160913,6.13117504537,4.66018811298,0.999685350513,0.0143010284616,0.0127491222727,-0.016190751542,-0.524103248998,1.02269294339,0.159711461349,0.0,0.0,0.0
1609059080591475000,134,1609059080591475000,-1.22239211835,6.23001004152,4.6778487734,0.999629017675,0.0144541187607,0.012090699932,-0.019665209059,-0.52925988873,1.01298704154,0.161052012943,0.0,0.0,0.0
1609059080691399000,135,1609059080691399000,-1.2771609363,6.32873602141,4.69467359059,0.999610313045,0.0146120487747,0.011325912481,-0.0209149179107,-0.536065675021,0.998701195218,0.150625749752,0.0,0.0,0.0
1609059080791448000,136,1609059080791448000,-1.33004266087,6.43071996733,4.709049565,0.999609289033,0.014863622683,0.0105639472985,-0.0211836025613,-0.539806235628,0.972573570931,0.147338457665,0.0,0.0,0.0
1609059080891505000,137,1609059080891505000,-1.38332993681,6.52810630756,4.72325258482,0.999630031872,0.0149848852338,0.0101274453211,-0.020314710086,-0.542772551927,0.958449321368,0.138627599312,0.0,0.0,0.0
1609059080991553000,138,1609059080991553000,-1.44264687029,6.63228109571,4.73767094251,0.999635568441,0.0149371535483,0.00960447692172,-0.0203313987349,-0.548457517847,0.950845751281,0.128050760668,0.0,0.0,0.0
1609059081091578000,139,1609059081091578000,-1.49719633463,6.72901755451,4.74938203708,0.999691223271,0.0148837291278,0.00826607001032,-0.0180998565878,-0.54634627878,0.937224134488,0.0880241490576,0.0,0.0,0.0
1609059081191555000,140,1609059081191555000,-1.55057192014,6.82242390967,4.76032433713,0.99975102513,0.0149676540185,0.00666661012182,-0.015146398733,-0.544227583341,0.933822506792,0.0733802004231,0.0,0.0,0.0
1609059081291592000,141,1609059081291592000,-1.60567012733,6.91781718907,4.76848104427,0.999791079287,0.0151391322168,0.00546417403965,-0.012599494261,-0.539757425847,0.93350549579,0.068757373446,0.0,0.0,0.0
1609059081391639000,142,1609059081391639000,-1.659081805,7.00897973288,4.77311084318,0.999798792243,0.0154607158161,0.00440277313334,-0.0119982034017,-0.532894417448,0.932215085197,0.0516752718938,0.0,0.0,0.0
1609059081491682000,143,1609059081491682000,-1.71079270443,7.09891586969,4.77683405614,0.999797302129,0.0157659862364,0.0040288847237,-0.0118556493593,-0.52499293671,0.931171042627,0.0540901207223,0.0,0.0,0.0
1609059081591773000,144,1609059081591773000,-1.76094662718,7.18791144466,4.78110159552,0.999782977391,0.0159188085834,0.00312942840799,-0.0130689070348,-0.51490888445,0.933650376579,0.0529594605837,0.0,0.0,0.0
1609059081691800000,145,1609059081691800000,-1.81185181767,7.2791869111,4.78890244983,0.999720749554,0.0161005033835,0.00194811948817,-0.0171872491095,-0.506121137364,0.931994083905,0.0495569965408,0.0,0.0,0.0
1609059081791969000,146,1609059081791969000,-1.85988463385,7.36866509094,4.79824727015,0.999370145096,0.0157897735759,7.39430121313e-05,-0.0317803504303,-0.493375988715,0.901737262482,0.0586772047799,0.0,0.0,0.0
1609059081891795000,147,1609059081891795000,-1.90757743335,7.45361190933,4.81165723051,0.999045951431,0.0153618174695,-0.003268136262,-0.0407494880877,-0.48064572622,0.838963981995,0.0306005254541,0.0,0.0,0.0
1609059081991848000,148,1609059081991848000,-1.95911432581,7.5403404512,4.82020592735,0.99899681097,0.0151771854964,-0.011093822605,-0.040644210068,-0.4519760399,0.776208588128,0.0494379553843,0.0,0.0,0.0
1609059082091854000,149,1609059082091854000,-2.00806471144,7.61615070161,4.82712246366,0.999131700646,0.0151562797905,-0.0156024612003,-0.0355344220776,-0.409913069869,0.723029109309,0.0781996532623,0.0,0.0,0.0
1609059082191956000,150,1609059082191956000,-2.04330727635,7.68349426646,4.82939853069,0.999195717746,0.0154432981185,-0.0186887116701,-0.0319398534438,-0.360888910897,0.68832900618,0.0672448653788,0.0,0.0,0.0
1609059082291972000,151,1609059082291972000,-2.07847006536,7.75070572471,4.82860226451,0.99920605761,0.0154885468141,-0.0216543288797,-0.029638646958,-0.310883318993,0.655362437827,0.0426643326569,0.0,0.0,0.0
1609059082392005000,152,1609059082392005000,-2.10733055415,7.81385336521,4.83281079961,0.999290575206,0.0156705981202,-0.0234204473949,-0.0249852216968,-0.252330911226,0.620979844351,0.0448818150531,0.0,0.0,0.0
1609059082492024000,153,1609059082492024000,-2.13018354352,7.87533939582,4.83537838602,0.999406447192,0.0156174038706,-0.0238901407073,-0.0192901836207,-0.196591248326,0.60270228929,0.038772747565,0.0,0.0,0.0
1609059082592091000,154,1609059082592091000,-2.14925254418,7.93730729653,4.8307118826,0.999536349735,0.0155848873074,-0.022412389589,-0.0134863501268,-0.135478527559,0.599391459914,0.064426318428,0.0,0.0,0.0
1609059082692129000,155,1609059082692129000,-2.15968336246,7.99306249617,4.83135329722,0.999652224401,0.0156208187948,-0.0189033508929,-0.0096996698325,-0.0827512720905,0.601060330596,0.0625476663301,0.0,0.0,0.0
1609059082792287000,156,1609059082792287000,-2.16772101147,8.05076752688,4.83424618013,0.999747595977,0.0157034756614,-0.0146351530729,-0.00663004405815,-0.0422208542445,0.60276665361,0.0686924457933,0.0,0.0,0.0
1609059082892227000,157,1609059082892227000,-2.17393131398,8.10691226494,4.82848399201,0.999825221365,0.0159292602713,-0.00966451694106,0.00154353564006,-0.00725374503002,0.613613550813,0.0775289879433,0.0,0.0,0.0
1609059082992139000,158,1609059082992139000,-2.17068169049,8.1672875953,4.83449462487,0.999822870334,0.0162928966484,-0.00410229462588,0.00848178374007,0.0195555026318,0.650554813962,0.0710510403468,0.0,0.0,0.0
1609059083092164000,159,1609059083092164000,-2.16908826105,8.23335813341,4.83494161705,0.999796111631,0.0164742796921,-0.000201260613792,0.0116744494851,0.0343087413821,0.696392084269,0.0767075255704,0.0,0.0,0.0
1609059083192220000,160,1609059083192220000,-2.16152743633,8.30424800364,4.84359115328,0.999755291447,0.0166424949577,0.00254525572432,0.0143494340585,0.0461012529339,0.74512066598,0.0896155699195,0.0,0.0,0.0
1609059083292295000,161,1609059083292295000,-2.15369664685,8.37653190073,4.85304862411,0.999751860056,0.0167043049326,0.00418781576102,0.0141296394031,0.0550324742948,0.800721898853,0.0998634342628,0.0,0.0,0.0
1609059083392274000,162,1609059083392274000,-2.148783128,8.45945170487,4.86606974554,0.999781316307,0.016886175541,0.00527709406106,0.0111502877571,0.0601806766034,0.851782139248,0.129093228657,0.0,0.0,0.0
1609059083492319000,163,1609059083492319000,-2.14358992369,8.5453326994,4.87879516282,0.999821615471,0.0169425017633,0.00601756598439,0.00578599788335,0.0650452938177,0.895931216996,0.135650346478,0.0,0.0,0.0
1609059083592330000,164,1609059083592330000,-2.13685091948,8.63434094463,4.89404926949,0.999830829366,0.0169586059118,0.00699799258067,0.00132152728144,0.0670476593983,0.92283887281,0.145177038798,0.0,0.0,0.0
1609059083692406000,165,1609059083692406000,-2.12414750749,8.71804240495,4.91209914453,0.999819710824,0.016874348495,0.00827881866389,-0.0026950644027,0.0753685789179,0.935076825234,0.162377070189,0.0,0.0,0.0
1609059083792477000,166,1609059083792477000,-2.11666135948,8.81422606224,4.92963421075,0.999802351757,0.0166610849275,0.00846489004372,-0.0067831635095,0.0758572628558,0.944614418496,0.153499889694,0.0,0.0,0.0
1609059083892454000,167,1609059083892454000,-2.10729488165,8.90624394843,4.95093630632,0.999797851697,0.0165461189753,0.00633043500402,-0.00950827432358,0.074721574807,0.949339707108,0.136858948442,0.0,0.0,0.0
1609059083992524000,168,1609059083992524000,-2.09118090792,8.98917143414,4.97136274513,0.999787473895,0.0163755361671,0.00498760792631,-0.0114879338934,0.0892986796755,0.943393686322,0.141032821275,0.0,0.0,0.0
1609059084092890000,169,1609059084092890000,-2.08153327541,9.08495654609,4.98268172569,0.99974695992,0.0160610099253,0.00461582224747,-0.015058362295,0.0961992117971,0.936175051911,0.144647081811,0.0,0.0,0.0
1609059084192759000,170,1609059084192759000,-2.07165062391,9.17936208159,4.99424163314,0.999712857541,0.0158727075403,0.00512533177801,-0.0172043772468,0.103371565079,0.925724020606,0.157628464054,0.0,0.0,0.0
1609059084292707000,171,1609059084292707000,-2.06036081969,9.26736957507,5.00800465164,0.999649243656,0.0158894627073,0.0065295844769,-0.0201563677292,0.109982158607,0.909510309284,0.164845459356,0.0,0.0,0.0
1609059084392597000,172,1609059084392597000,-2.04871170359,9.35673182375,5.02564031206,0.9996512846,0.0158775129245,0.00758213684519,-0.0196907333777,0.112448068221,0.888279112912,0.156036756685,0.0,0.0,0.0
1609059084492697000,173,1609059084492697000,-2.03666843093,9.44471305444,5.04245283082,0.999632931171,0.0158751612029,0.00860154618097,-0.0201989004377,0.114197025586,0.875020046178,0.164689931953,0.0,0.0,0.0
1609059084592687000,174,1609059084592687000,-2.02274273118,9.53049371953,5.0596895737,0.99961229372,0.0158272463783,0.00872459442967,-0.0211811701502,0.112188445982,0.859866023528,0.145105206303,0.0,0.0,0.0
1609059084692965000,175,1609059084692965000,-2.00967131791,9.61327174411,5.07691538495,0.999589839113,0.0157985612246,0.00749750671279,-0.0226792062926,0.114245753151,0.835128594466,0.158024464286,0.0,0.0,0.0
1609059084792765000,176,1609059084792765000,-1.99806877307,9.69572132691,5.09338701342,0.999571340255,0.0158430384424,0.00641071808577,-0.0237704978416,0.114706754061,0.814954245301,0.135980083798,0.0,0.0,0.0
1609059084892784000,177,1609059084892784000,-1.9867725652,9.77626495699,5.10619535828,0.999575154583,0.0161452569421,0.00511195798025,-0.0237214861153,0.120124629651,0.785787387575,0.124335161142,0.0,0.0,0.0
1609059084993005000,178,1609059084993005000,-1.97511642122,9.85225977573,5.11554077307,0.999592907176,0.0165626446034,0.00442825819659,-0.0228054654817,0.126209184945,0.767890803918,0.121491067452,0.0,0.0,0.0
1609059085092949000,179,1609059085092949000,-1.96173615489,9.92691639159,5.12885625806,0.999535226362,0.0168356841351,0.00333611124001,-0.0251944708672,0.132494008874,0.743008794957,0.114887413693,0.0,0.0,0.0
1609059085192876000,180,1609059085192876000,-1.94856868871,9.99867664789,5.1415370564,0.999511941294,0.0170504586623,0.00282352568311,-0.0260228509883,0.142269652602,0.716098114015,0.124545125836,0.0,0.0,0.0
1609059085292906000,181,1609059085292906000,-1.93524188168,10.0666904046,5.15344541656,0.999364355633,0.0169086493728,0.00260162775923,-0.0312764096477,0.151136534786,0.683371905638,0.133112342152,0.0,0.0,0.0
1609059085393062000,182,1609059085393062000,-1.91935096046,10.1283433947,5.16250485992,0.999116859477,0.0167449125759,0.00267484729285,-0.0384441699602,0.1565511795,0.644531869697,0.128097293696,0.0,0.0,0.0
1609059085493226000,183,1609059085493226000,-1.90299774138,10.1850975714,5.17265081721,0.998754973597,0.0166521280852,0.00282856164437,-0.0469383487662,0.169988195546,0.579660417938,0.129535908032,0.0,0.0,0.0
1609059085592985000,184,1609059085592985000,-1.88612941614,10.239205793,5.18450276622,0.998686524275,0.0168082652955,0.00228134483712,-0.0483477394996,0.176009233586,0.497099242827,0.103653577797,0.0,0.0,0.0
1609059085693040000,185,1609059085693040000,-1.87236523548,10.2812628419,5.19421503845,0.99886612163,0.016931813992,-0.00272046858223,-0.044411527619,0.17786551324,0.428643094981,0.060002057002,0.0,0.0,0.0
1609059085793302000,186,1609059085793302000,-1.8513385745,10.3196090131,5.20713834887,0.998992891346,0.0168178992709,-0.0102444599035,-0.0403164029396,0.209203520242,0.369006211765,0.0665632271253,0.0,0.0,0.0
1609059085893079000,187,1609059085893079000,-1.82940518168,10.3506501347,5.21209212087,0.999101456862,0.0165808464062,-0.0140265464826,-0.0363951978008,0.251683142684,0.319555849022,0.083725249529,0.0,0.0,0.0
1609059085993474000,188,1609059085993474000,-1.80677639633,10.3701644387,5.21159698051,0.999146077273,0.0164435718265,-0.0137938577462,-0.0353051653876,0.301194021427,0.260837077192,0.121960885188,0.0,0.0,0.0
1609059086093342000,189,1609059086093342000,-1.78036570255,10.3903174444,5.20827844625,0.999224822413,0.016453740502,-0.00744535077272,-0.0349799292406,0.334621932017,0.220402101329,0.128811166458,0.0,0.0,0.0
1609059086193311000,190,1609059086193311000,-1.74660818157,10.4076675304,5.21417732368,0.99932623139,0.0167319122481,-0.0020850783261,-0.0326002886128,0.354128901367,0.179260199167,0.0965648948555,0.0,0.0,0.0
1609059086293333000,191,1609059086293333000,-1.70902077259,10.421158166,5.22461395649,0.999393405567,0.017045877075,-3.93386941542e-05,-0.0303686917287,0.36877296883,0.14310349738,0.0830566093651,0.0,0.0,0.0
1609059086393393000,192,1609059086393393000,-1.67001536812,10.4290359845,5.23232823518,0.99939406559,0.017290093245,0.00303775094115,-0.0300553890065,0.381412545205,0.109385449621,0.0548476014779,0.0,0.0,0.0
1609059086493316000,193,1609059086493316000,-1.63263733944,10.431702447,5.23302760251,0.999453837393,0.0173943615193,0.00349682790509,-0.0278789401343,0.381068141989,0.0704320922562,0.0053263577916,0.0,0.0,0.0
1609059086593253000,194,1609059086593253000,-1.59242284838,10.4388381873,5.24390832984,0.99945837663,0.0173989112628,-0.00185523953936,-0.0278709410915,0.390445687743,0.0443118573286,-0.035665832705,0.0,0.0,0.0
1609059086693454000,195,1609059086693454000,-1.55114314428,10.4379716712,5.24906144566,0.999444193303,0.0176600324711,-0.00943678914772,-0.0266528560542,0.416110838455,0.0150687695337,-0.0396904745942,0.0,0.0,0.0
1609059086793280000,196,1609059086793280000,-1.50659958565,10.4334417623,5.24433732036,0.999421620548,0.0179905832493,-0.0162748338662,-0.0238305073139,0.459062287774,-0.00495425054561,-0.0445532459079,0.0,0.0,0.0
1609059086893456000,197,1609059086893456000,-1.45984339349,10.4224090772,5.22536222811,0.999369541884,0.018484457488,-0.0188951520761,-0.0237026752568,0.517383487263,-0.0270874272807,-0.0122545598088,0.0,0.0,0.0
1609059086993471000,198,1609059086993471000,-1.40647084343,10.4092480528,5.21593259735,0.99947170676,0.0190246095712,-0.0146390947807,-0.0219104659935,0.571489835561,-0.0541559346217,0.0137087938676,0.0,0.0,0.0
1609059087093613000,199,1609059087093613000,-1.3503023011,10.4027819293,5.2031127662,0.999556626067,0.0190371342529,-0.00796972488478,-0.0214621129091,0.602397485153,-0.0721031610446,0.0048109697138,0.0,0.0,0.0
1609059087193558000,200,1609059087193558000,-1.28977650408,10.3973183493,5.19892519085,0.999665197933,0.0188102039336,-0.00033558060569,-0.0177638862661,0.620435228371,-0.072517062359,-0.0016543674341,0.0,0.0,0.0
1609059087293549000,201,1609059087293549000,-1.22893951969,10.3881059099,5.19721303017,0.99966220075,0.0182010645404,0.00797725614594,-0.0167501948158,0.61436121314,-0.077367084542,-0.00880645493437,0.0,0.0,0.0
1609059087393594000,202,1609059087393594000,-1.17114093775,10.3756089313,5.18779072335,0.999510002806,0.0175826177217,0.0193992787448,-0.0171544113645,0.594864169499,-0.0887749580292,-0.00307124764497,0.0,0.0,0.0
1609059087493654000,203,1609059087493654000,-1.11131852517,10.3690911344,5.18767664653,0.999284608061,0.0171532782149,0.0287100089558,-0.0176570814172,0.548733508833,-0.0957659552503,0.0133765654786,0.0,0.0,0.0
1609059087593700000,204,1609059087593700000,-1.06239054927,10.3595956744,5.18729324251,0.999077318019,0.0174148440684,0.0335380623577,-0.0204067194765,0.491720047352,-0.0987062341885,-0.0192173843005,0.0,0.0,0.0
1609059087693740000,205,1609059087693740000,-1.01432001125,10.3513541566,5.19010844534,0.998956758938,0.0175588056099,0.035384260847,-0.0229136684357,0.427837712119,-0.116677556859,-0.0453662669612,0.0,0.0,0.0
1609059087793668000,206,1609059087793668000,-0.971247614525,10.34039837,5.19140202321,0.998994926745,0.0177432139061,0.0324134194557,-0.025370946707,0.367061937189,-0.139831363583,-0.113708384656,0.0,0.0,0.0
1609059087893699000,207,1609059087893699000,-0.937519148764,10.3235514301,5.1796600265,0.999381470457,0.0184151182177,0.0199150129132,-0.022381961251,0.313029280378,-0.156813613385,-0.141982252443,0.0,0.0,0.0
1609059087993775000,208,1609059087993775000,-0.907965374292,10.3055009785,5.16857847168,0.999605294134,0.0192180089382,0.00563147789518,-0.0197030588555,0.295346678407,-0.174817308158,-0.101987392616,0.0,0.0,0.0
1609059088093757000,209,1609059088093757000,-0.870433532536,10.2858849506,5.18244743376,0.999607842715,0.0198548000196,-0.00784802751834,-0.0181206004926,0.304055555321,-0.184395628189,-0.0656351466742,0.0,0.0,0.0
1609059088193777000,210,1609059088193777000,-0.835878596883,10.2698347103,5.18614490281,0.99939379085,0.0203902393969,-0.020465417341,-0.0194282176405,0.339931082296,-0.176650652081,-0.0339935623793,0.0,0.0,0.0
1609059088293845000,211,1609059088293845000,-0.80020734403,10.2534036256,5.18019401989,0.999170960311,0.0210867740705,-0.0292622146377,-0.0188802231062,0.393105464906,-0.175097751779,-0.00169181766779,0.0,0.0,0.0
1609059088393916000,212,1609059088393916000,-0.757227423485,10.2359668474,5.18041362632,0.999112177123,0.0217228959653,-0.0309951510196,-0.0185006466918,0.467053593986,-0.170903666722,0.0548285744861,0.0,0.0,0.0
1609059088493906000,213,1609059088493906000,-0.704880271323,10.2186207726,5.18988180347,0.999270729427,0.0219907893259,-0.0242743646464,-0.0196257411527,0.54464421209,-0.177994240724,0.1073079161,0.0,0.0,0.0
1609059088593937000,214,1609059088593937000,-0.651089873297,10.20243139,5.18868654319,0.999505810958,0.0217318184463,-0.0118938195537,-0.0193493923445,0.582027669868,-0.18047781236,0.0919419165199,0.0,0.0,0.0
1609059088694034000,215,1609059088694034000,-0.591966292943,10.1849038111,5.19737847735,0.999627151207,0.0210529184077,-1.8319795275e-05,-0.0173877215573,0.587223019152,-0.172451180832,0.0854391204546,0.0,0.0,0.0
1609059088794048000,216,1609059088794048000,-0.532863347391,10.166354948,5.19190687056,0.999571747981,0.0199569162052,0.0135671406143,-0.0165521850402,0.567160958865,-0.176202981952,0.0544728597301,0.0,0.0,0.0
1609059088894060000,217,1609059088894060000,-0.476564319089,10.1478035052,5.19059003215,0.999484492462,0.0184523070843,0.018994047204,-0.0181518005301,0.517718885579,-0.175990757813,-0.0403638063638,0.0,0.0,0.0
1609059088994266000,218,1609059088994266000,-0.425994734421,10.1307987374,5.18297435422,0.999566923205,0.01781318929,0.0120223411667,-0.0201027270541,0.47473538629,-0.172799887634,-0.0812426349657,0.0,0.0,0.0
1609059089094132000,219,1609059089094132000,-0.379819494623,10.1120518951,5.17297910848,0.99955157323,0.0177787968365,0.00495226796026,-0.023580540235,0.463440301621,-0.182394834701,-0.0543233408102,0.0,0.0,0.0
1609059089194141000,220,1609059089194141000,-0.335440043974,10.0923433599,5.16479228448,0.999498408347,0.0182177642444,0.00679003815551,-0.0249988031781,0.454467123153,-0.194524253433,-0.0435630458948,0.0,0.0,0.0
1609059089294201000,221,1609059089294201000,-0.292122846904,10.0750227423,5.15474164062,0.99945604574,0.018693587541,0.0123851679099,-0.024182018839,0.432957343813,-0.210395515521,-0.052441660432,0.0,0.0,0.0
1609059089394254000,222,1609059089394254000,-0.250598036337,10.0548230135,5.14787118203,0.999395389302,0.0189865618789,0.0177951096858,-0.0230586292246,0.396291229454,-0.223721898447,-0.0695158308504,0.0,0.0,0.0
1609059089494264000,223,1609059089494264000,-0.211539900756,10.0318488752,5.14164482679,0.999293165104,0.019034908496,0.020765078213,-0.0248928496308,0.349006133233,-0.236356725036,-0.122252966007,0.0,0.0,0.0
1609059089594241000,224,1609059089594241000,-0.175464920301,10.0041139797,5.12715450066,0.999483756651,0.0189616621292,0.0183104861264,-0.0183684963647,0.309510003256,-0.264331280483,-0.163544781967,0.0,0.0,0.0
1609059089694302000,225,1609059089694302000,-0.145968501018,9.97200396734,5.10999023909,0.999683878366,0.0193804822539,0.0156878981853,-0.00322956537521,0.275350303361,-0.266144485553,-0.219536152674,0.0,0.0,0.0
1609059089794284000,226,1609059089794284000,-0.118693334384,9.94666093684,5.08834554736,0.999653070996,0.0200385036088,0.0122809107151,0.0118901326094,0.248233597195,-0.218559346643,-0.235811295057,0.0,0.0,0.0
1609059089894327000,227,1609059089894327000,-0.0931080192854,9.92822600468,5.06665794476,0.999431530277,0.0207414882532,0.0104503165462,0.0244376315868,0.229719774166,-0.14853751495,-0.211815505018,0.0,0.0,0.0
1609059089994352000,228,1609059089994352000,-0.0645279126164,9.91216818556,5.05233792744,0.999141550362,0.0211989948122,0.00947397136342,0.0343075622288,0.22284178801,-0.0679836991114,-0.189240250099,0.0,0.0,0.0
1609059090094338000,229,1609059090094338000,-0.0457461806306,9.91196366497,5.03254252593,0.998898798675,0.0215924084885,0.00985428466024,0.0404703715789,0.199132241865,0.0449513444113,-0.187935656643,0.0,0.0,0.0
1609059090194399000,230,1609059090194399000,-0.0288509684666,9.91995658529,5.02178988614,0.998837165752,0.021570828926,0.00931635260203,0.0420977579784,0.17533266506,0.156282201434,-0.180956676299,0.0,0.0,0.0
1609059090294967000,231,1609059090294967000,-0.0137460457914,9.93952585316,5.00386967016,0.998860565888,0.0214034881277,0.00870229131661,0.0417580020468,0.152321803283,0.249107431903,-0.168854814906,0.0,0.0,0.0
1609059090394560000,232,1609059090394560000,-0.00663880988496,9.97282419708,4.98886001487,0.998950646907,0.0209282656263,0.00903103786021,0.0397247164525,0.129960594721,0.35018080788,-0.146754778799,0.0,0.0,0.0
1609059090494584000,233,1609059090494584000,-0.000324567532548,10.0150995683,4.97593657075,0.999080839115,0.0205546799704,0.00851080083479,0.036640801213,0.10421235216,0.445023108972,-0.120348595259,0.0,0.0,0.0
1609059090594631000,234,1609059090594631000,0.0018077933411,10.0673428859,4.96545970198,0.999162634147,0.0203227444484,0.00735426356868,0.0347409180793,0.0831414102282,0.531571344433,-0.0832983310859,0.0,0.0,0.0
1609059090694650000,235,1609059090694650000,0.00103972036076,10.1295769954,4.95905813188,0.999231524497,0.0201556376779,0.00669780260723,0.0329431352619,0.0634538257451,0.616839309023,-0.0397915539047,0.0,0.0,0.0
1609059090794668000,236,1609059090794668000,-0.00416652430995,10.1998754919,4.95583768768,0.999341092577,0.0196223995875,0.00685019958128,0.029755955483,0.0415810092007,0.689376241266,-0.00735904150805,0.0,0.0,0.0
1609059090894784000,237,1609059090894784000,-0.0077751726158,10.2737512366,4.95245000069,0.999422244807,0.0191253999346,0.00774353042085,0.0270080247251,0.0203136880167,0.766205801138,0.0144111064469,0.0,0.0,0.0
1609059090994807000,238,1609059090994807000,-0.0160073480034,10.3559860837,4.96011140048,0.999487569452,0.018850847624,0.00792505160289,0.0246259540379,-0.00461204181624,0.82955326757,0.0305441016162,0.0,0.0,0.0
1609059091094837000,239,1609059091094837000,-0.0187301055361,10.4427568795,4.96816235565,0.999627006953,0.0185872380828,0.00738926976804,0.0185946293845,-0.0231638018228,0.881918958556,0.0736171382085,0.0,0.0,0.0
1609059091194907000,240,1609059091194907000,-0.026741234387,10.5341124253,4.97782411247,0.999708021507,0.0185219481246,0.00627473421883,0.0141928462092,-0.042120762483,0.919977458888,0.118798183556,0.0,0.0,0.0
1609059091294744000,241,1609059091294744000,-0.0360003741343,10.625949529,4.98931763223,0.999737301069,0.0185052182614,0.0053823015641,0.0124063120161,-0.0537333106809,0.943622484996,0.169204962558,0.0,0.0,0.0
1609059091394966000,242,1609059091394966000,-0.0367094993727,10.7258091932,5.00938985912,0.999734036033,0.0187605403527,0.0053538483042,0.0122977896989,-0.0663683187436,0.974808086838,0.194707237333,0.0,0.0,0.0
1609059091494822000,243,1609059091494822000,-0.0454224618771,10.8242740007,5.0337829591,0.999749172554,0.0189732378263,0.00404955901173,0.0111896959958,-0.0755693127101,0.99315490005,0.222485815591,0.0,0.0,0.0
1609059091594857000,244,1609059091594857000,-0.0577911285995,10.9254502446,5.05885353798,0.999758463394,0.0192700513842,0.00369785197525,0.00989979203115,-0.0835537928627,1.0227774721,0.234309731623,0.0,0.0,0.0
1609059091694915000,245,1609059091694915000,-0.0721727553714,11.0309186545,5.07956590751,0.999776675826,0.0194244535429,0.0028464265132,0.00782220781597,-0.0942645962861,1.03320382359,0.244810922721,0.0,0.0,0.0
1609059091794936000,246,1609059091794936000,-0.0814001216316,11.1334042615,5.10181180402,0.999767491906,0.0196989546057,0.00180563744927,0.00858213199117,-0.0962932032538,1.04680236965,0.220534980155,0.0,0.0,0.0
1609059091894924000,247,1609059091894924000,-0.0924101129064,11.2391258395,5.12258436592,0.999759002417,0.0199539178659,0.00224677638578,0.00887300650313,-0.0913529563774,1.06011111585,0.229894560508,0.0,0.0,0.0
1609059091994953000,248,1609059091994953000,-0.107246346717,11.3488934534,5.13974641369,0.999749670175,0.0201127320596,0.00347229968706,0.00916614039461,-0.101488691314,1.08277004888,0.242547574833,0.0,0.0,0.0
1609059092095587000,249,1609059092095587000,-0.116010245165,11.4571197835,5.16685923935,0.999716239018,0.0209750582015,0.0031766693901,0.010834996513,-0.106679641146,1.10636272583,0.232014551362,0.0,0.0,0.0
1609059092195008000,250,1609059092195008000,-0.124832408225,11.5671976451,5.19291111791,0.999709252554,0.0216647330138,0.000746354135306,0.0105590082836,-0.107417022268,1.12711934944,0.252153228049,0.0,0.0,0.0
1609059092295034000,251,1609059092295034000,-0.140779679529,11.6788725791,5.21127237923,0.999738298486,0.0219103662609,-0.00118820392574,0.00646981938129,-0.0990757091941,1.14145237258,0.296788035584,0.0,0.0,0.0
1609059092395082000,252,1609059092395082000,-0.150812303346,11.7969224409,5.23855113538,0.999749837932,0.0223073802733,-0.00162257722023,9.78938164766e-05,-0.0885395822296,1.15739026472,0.328266301881,0.0,0.0,0.0
1609059092495088000,253,1609059092495088000,-0.158599420083,11.9166926782,5.27013978414,0.999738420865,0.0222961661457,-0.00154218445376,-0.00485720986961,-0.0808248136157,1.15857360603,0.361943220205,0.0,0.0,0.0
1609059092595125000,254,1609059092595125000,-0.166225134802,12.033164102,5.30983403093,0.999718347711,0.0223337609226,-0.00160639418719,-0.00786434170651,-0.0677393625758,1.15678588476,0.415339953032,0.0,0.0,0.0
1609059092695184000,255,1609059092695184000,-0.168983668378,12.1591412983,5.34630148222,0.999691907579,0.0224238616605,-0.000255225426003,-0.0106393237668,-0.0549333046784,1.15941621797,0.47092350482,0.0,0.0,0.0
1609059092795468000,256,1609059092795468000,-0.176115201141,12.2740303162,5.39832526627,0.999671047372,0.0225770581563,0.00281470521183,-0.0118385356408,-0.0473584326438,1.14421603993,0.508030570323,0.0,0.0,0.0
1609059092895228000,257,1609059092895228000,-0.182066949047,12.3873930813,5.45171786573,0.99965175847,0.0228696755833,0.00472550151008,-0.0122885866665,-0.0418438767812,1.13236557735,0.531835552922,0.0,0.0,0.0
1609059092995280000,258,1609059092995280000,-0.18456076912,12.5115509566,5.502246853,0.999622513794,0.0230536046097,0.00720471560275,-0.0130940178277,-0.0395000761057,1.12853745624,0.564452839503,0.0,0.0,0.0
1609059093096007000,259,1609059093096007000,-0.188351799936,12.6219748369,5.56458304888,0.999566023154,0.0231517572129,0.00881372394292,-0.0159398796536,-0.0432518759518,1.11307603118,0.595591267772,0.0,0.0,0.0
1609059093195379000,260,1609059093195379000,-0.18035655606,12.7320018486,5.62739605056,0.999486421263,0.0228939600625,0.00955516286368,-0.0202844562626,-0.0381885670435,1.09035766237,0.618952324008,0.0,0.0,0.0
1609059093295353000,261,1609059093295353000,-0.185460646167,12.8370441892,5.69125811591,0.999216780002,0.0224677944199,0.00940112420173,-0.0311872351983,-0.0420239168691,1.0622519021,0.629492642502,0.0,0.0,0.0
1609059093395413000,262,1609059093395413000,-0.180734370833,12.9328110496,5.75809584596,0.998879657376,0.0217989304512,0.00898156013159,-0.041031308643,-0.038033151365,0.993979915795,0.658145498567,0.0,0.0,0.0
1609059093495979000,263,1609059093495979000,-0.184653092377,13.03139133,5.82525889407,0.99864709175,0.0212632091211,0.00812518219178,-0.0467530051649,-0.0353677113694,0.915111066473,0.677559009942,0.0,0.0,0.0
1609059093595516000,264,1609059093595516000,-0.181216122219,13.1165062425,5.8948884909,0.99864663144,0.0207958354139,0.00865622245319,-0.0468775911858,-0.0208770800482,0.835372818081,0.704490131309,0.0,0.0,0.0
1609059093695493000,265,1609059093695493000,-0.183930195868,13.1944460173,5.96462358796,0.998686715993,0.0205615838057,0.0101223268976,-0.0458214258788,-0.0185612412069,0.76906463444,0.670953784745,0.0,0.0,0.0
1609059093795556000,266,1609059093795556000,-0.186042124957,13.2642863467,6.03220287686,0.998697199029,0.020223006258,0.0124356601658,-0.045169558618,-0.0171724448755,0.70780090964,0.662981650745,0.0,0.0,0.0
1609059093895617000,267,1609059093895617000,-0.181797256863,13.3276069875,6.09793455828,0.998656769528,0.0202025491517,0.0146015512056,-0.0454236544777,-0.0204424856417,0.645231377057,0.645424487713,0.0,0.0,0.0
1609059093995576000,268,1609059093995576000,-0.181754926408,13.3863887454,6.16284675549,0.998701172869,0.0204269963844,0.014527389171,-0.0443583148028,-0.0228559837665,0.576847461271,0.629022755982,0.0,0.0,0.0
1609059094095607000,269,1609059094095607000,-0.176054820426,13.4383093407,6.22394129885,0.99876265763,0.0204734190638,0.0139396711738,-0.0431239887109,-0.0216291596337,0.514996903828,0.620910034149,0.0,0.0,0.0
1609059094195688000,270,1609059094195688000,-0.179415009757,13.4876860544,6.28601594834,0.998806960973,0.0205444946399,0.0120632751718,-0.0426269380041,-0.0228957108821,0.459309174373,0.640654464606,0.0,0.0,0.0
1609059094295639000,271,1609059094295639000,-0.180759972236,13.5277288089,6.35083533817,0.998846701114,0.0206991383969,0.0105801462818,-0.0420104016721,-0.02317802862,0.404492556661,0.637199610449,0.0,0.0,0.0
1609059094395665000,272,1609059094395665000,-0.182578773004,13.5620306388,6.41560432287,0.998947750136,0.021071728099,0.0089736275571,-0.0397347301773,-0.0171650340051,0.353518595645,0.653244751506,0.0,0.0,0.0
1609059094495679000,273,1609059094495679000,-0.184796771608,13.5952879224,6.48045515702,0.999062422342,0.0216762533286,0.00873013274768,-0.0364444932381,-0.0100839134187,0.308700867101,0.653359418742,0.0,0.0,0.0
1609059094596337000,274,1609059094596337000,-0.175660271311,13.6274538786,6.5449701972,0.999124910143,0.0223626178162,0.0105612799112,-0.033731092824,0.00452110083499,0.275468662017,0.64995121274,0.0,0.0,0.0
1609059094695838000,275,1609059094695838000,-0.180300071135,13.653674742,6.60894272144,0.99911766552,0.0225924093377,0.0127772262738,-0.0330184187308,0.00319176233769,0.243044220967,0.643898700509,0.0,0.0,0.0
1609059094795848000,276,1609059094795848000,-0.181412025924,13.6724532094,6.67425648619,0.999149674445,0.0229207157898,0.0144245292756,-0.031088612048,-0.00483087248503,0.205400247995,0.605021904366,0.0,0.0,0.0
1609059094895884000,277,1609059094895884000,-0.178266535315,13.6672866062,6.73160037203,0.999307648426,0.0235982175888,0.00989437176943,-0.0270083196494,-0.0057886791416,0.174234481868,0.571524050104,0.0,0.0,0.0
1609059094995899000,278,1609059094995899000,-0.176395869878,13.6772898263,6.78888557586,0.999365763933,0.0237351111931,0.00584980378928,-0.0258939022044,0.00520311386171,0.158900054926,0.56029639118,0.0,0.0,0.0
1609059095095918000,279,1609059095095918000,-0.173835216602,13.689541075,6.84491984852,0.999396519181,0.023765531168,0.00446262335247,-0.0249375614115,0.026619346431,0.143198031273,0.568350058209,0.0,0.0,0.0
1609059095195974000,280,1609059095195974000,-0.172739723775,13.6986545817,6.9004943214,0.999430139447,0.0238032969113,0.00473437867057,-0.023460287277,0.0448596080725,0.13145306177,0.569344018771,0.0,0.0,0.0
1609059095296163000,281,1609059095296163000,-0.170132683071,13.7091524444,6.95669627901,0.999490538024,0.0240832467585,0.005735700474,-0.0201435688409,0.0617684875521,0.123635506346,0.585364277321,0.0,0.0,0.0
1609059095396151000,282,1609059095396151000,-0.167198986852,13.7200065042,7.0138409886,0.99952555889,0.0244562577568,0.00790902935944,-0.016970440091,0.0725325079748,0.124585685368,0.600443205447,0.0,0.0,0.0
