%time,field.header.seq,field.header.stamp,field.pose.pose.position.x,field.pose.pose.position.y,field.pose.pose.position.z,field.pose.pose.orientation.x,field.pose.pose.orientation.y,field.pose.pose.orientation.z,field.pose.pose.orientation.w,field.twist.twist.linear.x,field.twist.twist.linear.y,field.twist.twist.linear.z,field.twist.twist.angular.x,field.twist.twist.angular.y,field.twist.twist.angular.z
1609055165284657000,0,1609055165284657000,0.02644616907,0.0369969966283,0.0188949907848,0.998896729059,0.0272268482078,0.0365426613144,-0.0113427208575,0.130819745955,-0.0702495435788,0.0115215904552,0.0,0.0,0.0
1609055165384689000,1,1609055165384689000,0.083172437112,0.201141094205,-0.0084278423028,0.999170284174,0.0256476147819,0.0310204848217,-0.00621872978476,0.249105333151,0.527975868633,-0.0699441716221,0.0,0.0,0.0
1609055165484740000,2,1609055165484740000,0.090839691387,0.067888102411,0.0163089635359,0.999410854434,0.0224689795545,0.0252894881428,-0.00579057749035,0.3201527834,0.217047959601,-0.0138058356723,0.0,0.0,0.0
1609055165584686000,3,1609055165584686000,-0.183595374108,0.180434976055,0.0537222074081,0.999443491965,0.0212125384902,0.0250844005264,-0.00578856023514,-0.262530655222,0.0369715996145,-0.155283603611,0.0,0.0,0.0
1609055165684704000,4,1609055165684704000,-0.0430699810869,0.106882084746,0.0231066665728,0.999416431667,0.0218623320814,0.025174711591,-0.00742081166474,-0.00835736812099,0.0602987155494,-0.0800781014935,0.0,0.0,0.0
1609055165784783000,5,1609055165784783000,-0.0238264239515,0.125377209889,0.0162305512542,0.999257598914,0.0234123432994,0.0284623931901,-0.011225211295,-0.00949740662366,0.0710191074058,-0.060913340247,0.0,0.0,0.0
1609055165884815000,6,1609055165884815000,-0.0333283607766,0.11442618778,0.0209779637242,0.999045348728,0.0263412900649,0.0306441771677,-0.0165970487591,-0.081481488454,0.0478403128358,0.012464532343,0.0,0.0,0.0
1609055165985456000,7,1609055165985456000,-0.0461109975963,0.0755072651901,0.0283490028813,0.998845355856,0.0282576547676,0.0294166934441,-0.0253794834131,-0.156270206726,-0.0409003790354,0.120912497836,0.0,0.0,0.0
1609055166084987000,8,1609055166084987000,-0.0386605752933,0.0077239708604,0.0364869084077,0.998670448107,0.0287459482187,0.0286135237352,-0.0318162348311,-0.181859202619,-0.145137427528,0.133769347793,0.0,0.0,0.0
1609055166184931000,9,1609055166184931000,-0.0775128656769,0.00878241752388,0.0667638261855,0.998901634386,0.0293444635314,0.0189045730799,-0.0312577094124,-0.23313854394,-0.150969476263,0.177382407789,0.0,0.0,0.0
1609055166285013000,10,1609055166285013000,-0.108227692801,-0.00452000080341,0.0869280164222,0.999116033029,0.0296661882409,0.0100808291934,-0.0280258220621,-0.255031972099,-0.189865676421,0.185855999466,0.0,0.0,0.0
1609055166384979000,11,1609055166384979000,-0.132719585127,-0.0284260558802,0.105577507079,0.999232632111,0.029932170721,0.000407962043897,-0.0252595654462,-0.246355652734,-0.232928166487,0.216645926282,0.0,0.0,0.0
1609055166484955000,12,1609055166484955000,-0.154101122061,-0.0579082934458,0.120359747387,0.999279322702,0.0302582160689,-0.00472927430992,-0.0224256448149,-0.226518799811,-0.271925610454,0.217821284125,0.0,0.0,0.0
1609055166585040000,13,1609055166585040000,-0.172677635749,-0.0888002869652,0.137617875271,0.999226862555,0.0299854985644,-0.0101319447726,-0.0233214647625,-0.199379904321,-0.313715077252,0.198184823298,0.0,0.0,0.0
1609055166685432000,14,1609055166685432000,-0.190289746913,-0.124452095056,0.152284042568,0.999156589162,0.0297748155151,-0.0151299430678,-0.0238883971496,-0.167512728151,-0.355084056254,0.178628979651,0.0,0.0,0.0
1609055166785321000,15,1609055166785321000,-0.206778261387,-0.159403507193,0.170947843645,0.999022320769,0.0297012592516,-0.021713798858,-0.0245101763176,-0.132747937047,-0.385116357053,0.171687690871,0.0,0.0,0.0
1609055166885471000,16,1609055166885471000,-0.229576972905,-0.204749091588,0.198957694189,0.998857383788,0.0302130439359,-0.0292347662916,-0.0227250361643,-0.0916035294567,-0.426716690664,0.197793708778,0.0,0.0,0.0
1609055166985232000,17,1609055166985232000,-0.235170428455,-0.248171747926,0.225037208131,0.998854842301,0.0303629255433,-0.0342393029906,-0.013955891069,-0.0316425425752,-0.45244421739,0.197826467915,0.0,0.0,0.0
1609055167085806000,18,1609055167085806000,-0.237238126997,-0.297418437216,0.250290645803,0.998746961793,0.0306012004149,-0.0394286921215,-0.00366757144444,0.0449840591274,-0.46243185553,0.239275557406,0.0,0.0,0.0
1609055167185222000,19,1609055167185222000,-0.227819046482,-0.342417895651,0.276718849638,0.998615309407,0.0317111928766,-0.0413122727319,0.00742699042336,0.131039454398,-0.435736659708,0.267694804129,0.0,0.0,0.0
1609055167285287000,20,1609055167285287000,-0.210384996152,-0.386921147624,0.306724999356,0.998610877682,0.0329212567572,-0.0397830150689,0.0104793864856,0.215719860096,-0.396879352617,0.308292705961,0.0,0.0,0.0
1609055167385321000,21,1609055167385321000,-0.184975570055,-0.426217518345,0.340312100914,0.998768689756,0.0339724149311,-0.0343257924778,0.0113454553855,0.284813572691,-0.365774082758,0.349305984849,0.0,0.0,0.0
1609055167485322000,22,1609055167485322000,-0.152408674262,-0.455715610923,0.376247189648,0.998921384203,0.0335832162441,-0.0294979127335,0.0125741366353,0.333184937558,-0.30904221178,0.368007909148,0.0,0.0,0.0
1609055167585333000,23,1609055167585333000,-0.115058802133,-0.48326154119,0.416094578676,0.999022653576,0.033321677779,-0.0259442369048,0.013049904333,0.381722348284,-0.266152146826,0.410629278394,0.0,0.0,0.0
1609055167685362000,24,1609055167685362000,-0.0817480289343,-0.51046994889,0.462431010548,0.999065045314,0.03344034403,-0.0252609613688,0.0106142570592,0.408707850796,-0.226638928242,0.444039305276,0.0,0.0,0.0
1609055167785408000,25,1609055167785408000,-0.0439452140815,-0.538844820545,0.512634051904,0.99902675497,0.0330350051166,-0.0271370860828,0.0108540246115,0.439202575934,-0.197861661318,0.484785127746,0.0,0.0,0.0
1609055167885400000,26,1609055167885400000,0.00160705845687,-0.564114728891,0.57449382474,0.998920652279,0.0326932233124,-0.0307612620833,0.011934335162,0.482676617951,-0.156342157373,0.535281746487,0.0,0.0,0.0
1609055167985461000,27,1609055167985461000,0.0557122169391,-0.57987679485,0.628341985365,0.998881487777,0.0325626129211,-0.0331266630789,0.00883593846131,0.52905017935,-0.113857970401,0.529490398492,0.0,0.0,0.0
1609055168085549000,28,1609055168085549000,0.111718314946,-0.593395143842,0.684446967539,0.99886404391,0.032449658262,-0.0345734138315,0.00472445954168,0.579595124822,-0.083695406175,0.556824541247,0.0,0.0,0.0
1609055168185580000,29,1609055168185580000,0.164900878541,-0.613916983338,0.750487676607,0.998863549031,0.0327464671598,-0.0346300811409,-0.00019179542378,0.621455752837,-0.0728080089784,0.572587526222,0.0,0.0,0.0
1609055168285536000,30,1609055168285536000,0.227656909882,-0.623214739926,0.807717156122,0.998981885689,0.0329570778359,-0.0307200556528,-0.00230244803656,0.658278541602,-0.0729168436013,0.543598080536,0.0,0.0,0.0
1609055168385588000,31,1609055168385588000,0.296021830173,-0.631603133587,0.861428197483,0.999109956356,0.0330904817144,-0.0259268128838,-0.00348073336115,0.684692619606,-0.0712901474597,0.541535941069,0.0,0.0,0.0
1609055168485592000,32,1609055168485592000,0.352857979265,-0.651362924929,0.922372890666,0.999241560901,0.032226465329,-0.0213632163074,-0.00462286599326,0.682535542003,-0.0826395988079,0.511867466787,0.0,0.0,0.0
1609055168585812000,33,1609055168585812000,0.421858248144,-0.663013746808,0.972658863983,0.999351554207,0.0312302467612,-0.0170425112491,-0.00554036109749,0.674711033511,-0.0811392048384,0.456384239026,0.0,0.0,0.0
1609055168685666000,34,1609055168685666000,0.485746200556,-0.674444526148,1.0211641023,0.999394248781,0.030890649714,-0.0156521538405,-0.00345157115069,0.662669180087,-0.0811809628994,0.455987322096,0.0,0.0,0.0
1609055168785675000,35,1609055168785675000,0.551643986421,-0.681887212873,1.06613569033,0.999434761321,0.0309691434383,-0.0124687507545,-0.00394971791283,0.647229099494,-0.0732476217989,0.393035079664,0.0,0.0,0.0
1609055168885702000,36,1609055168885702000,0.617360526343,-0.692818454777,1.11069419813,0.999452676467,0.0305072469496,-0.0112972852589,-0.00600222735785,0.634496426512,-0.076341842994,0.364414474094,0.0,0.0,0.0
1609055168985737000,37,1609055168985737000,0.67949214763,-0.701175934321,1.14492908555,0.999445223233,0.0299599113774,-0.0127810038155,-0.00694948980861,0.606586249896,-0.0740445461956,0.298423850119,0.0,0.0,0.0
1609055169085754000,38,1609055169085754000,0.738028483023,-0.70918235313,1.17640173542,0.999395915241,0.0304783294421,-0.015869913419,-0.00519825762319,0.590152818286,-0.0755460023057,0.30088825374,0.0,0.0,0.0
1609055169185835000,39,1609055169185835000,0.796568892938,-0.718956240558,1.20856064138,0.999300103802,0.0310360525953,-0.0205488162053,-0.00371646790686,0.58305451985,-0.0728687244121,0.266173555052,0.0,0.0,0.0
1609055169285879000,40,1609055169285879000,0.855154675677,-0.728265507724,1.23666049532,0.999229523563,0.0312330429296,-0.0236743472685,-0.00209321532834,0.584328861251,-0.0625913050123,0.257033645923,0.0,0.0,0.0
1609055169385964000,41,1609055169385964000,0.915505892736,-0.736447785505,1.2668628457,0.99917597586,0.0318765161991,-0.0250923484284,0.00127711739097,0.588998371896,-0.0455804330643,0.306760442882,0.0,0.0,0.0
1609055169485947000,42,1609055169485947000,0.974231416503,-0.743185250159,1.30697080337,0.998958002356,0.0324495975929,-0.0318353512278,0.00405506561447,0.581568892527,-0.0284671405506,0.269936141467,0.0,0.0,0.0
1609055169586394000,43,1609055169586394000,1.03247344824,-0.749524565353,1.34489479606,0.998593332779,0.0325713669491,-0.0417283813384,0.00303380531489,0.594222318924,-0.00339864436099,0.217473408357,0.0,0.0,0.0
1609055169686032000,44,1609055169686032000,1.09790734266,-0.750446642164,1.37284603744,0.998002042,0.0331387729754,-0.0537677508764,0.00166578966509,0.633966078666,0.0249668644778,0.218591680766,0.0,0.0,0.0
1609055169785986000,45,1609055169785986000,1.1710019341,-0.764004155269,1.42494011566,0.997170436951,0.0335745482116,-0.0672443022942,-0.00143985851313,0.706620062114,0.0377451284981,0.265366314295,0.0,0.0,0.0
1609055169885991000,46,1609055169885991000,1.24867960873,-0.755945322644,1.43735594129,0.996716365436,0.0337734445335,-0.0735670904161,-0.00192990275772,0.82724338808,0.0588145674507,0.331971171511,0.0,0.0,0.0
1609055169986032000,47,1609055169986032000,1.32316943411,-0.760376222661,1.45802779068,0.997181417116,0.0335983568151,-0.0669014418622,-0.00495669786164,0.921565634778,0.0704648357699,0.366785220506,0.0,0.0,0.0
1609055170086067000,48,1609055170086067000,1.4233528284,-0.749510991834,1.5008722038,0.99796344589,0.0336571265794,-0.0540165141193,-0.00428657204306,0.998600580394,0.080359151854,0.471982620872,0.0,0.0,0.0
1609055170186113000,49,1609055170186113000,1.52691871283,-0.742641064947,1.54785540645,0.998614935222,0.0335507811368,-0.0403717458346,-0.00356067058692,1.0435918406,0.0862597737947,0.551444787518,0.0,0.0,0.0
1609055170286103000,50,1609055170286103000,1.61620720514,-0.731865188186,1.57244585117,0.999081329715,0.0331215652404,-0.0266541530427,-0.00538652536948,1.03360090496,0.0937931647912,0.511324454122,0.0,0.0,0.0
1609055170386190000,51,1609055170386190000,1.71565485963,-0.722457875367,1.61348345578,0.999244329138,0.0326285531679,-0.0198765921938,-0.00714627787511,1.01279935799,0.104204108686,0.473016828173,0.0,0.0,0.0
1609055170486187000,52,1609055170486187000,1.81482695282,-0.710898259723,1.65813019982,0.999237431487,0.0327904896545,-0.0187982181747,-0.00979623888842,0.989557262937,0.107997056174,0.407688388068,0.0,0.0,0.0
1609055170586307000,53,1609055170586307000,1.91051893997,-0.70651960564,1.69963696842,0.999115899138,0.0325717091465,-0.0239210084107,-0.0115883221074,0.964943250932,0.0917049534287,0.334903409557,0.0,0.0,0.0
1609055170686368000,54,1609055170686368000,2.00404595617,-0.699903559577,1.73676641317,0.998899546125,0.0323299979084,-0.0321782386382,-0.0109100387389,0.97247536675,0.0793485743469,0.31753230783,0.0,0.0,0.0
1609055170786361000,55,1609055170786361000,2.10021555966,-0.691619994178,1.76062391313,0.998812983719,0.0318962901407,-0.035227481566,-0.0106899378494,0.999295325206,0.0782688753218,0.311456063242,0.0,0.0,0.0
1609055170886264000,56,1609055170886264000,2.19641943764,-0.683926244493,1.7903442272,0.998916550526,0.031239317951,-0.0313011430054,-0.0144937416002,1.02587174299,0.0733146071775,0.380806545748,0.0,0.0,0.0
1609055170986355000,57,1609055170986355000,2.29873470698,-0.678062947593,1.82580200606,0.998918492014,0.0309875543329,-0.029456855112,-0.018273244832,1.03577756589,0.0641402896943,0.355602640204,0.0,0.0,0.0
1609055171086382000,58,1609055171086382000,2.39936728448,-0.673895898716,1.85875295503,0.998909090138,0.0309731138133,-0.0273770221394,-0.0217208314717,1.05200314506,0.0375988046919,0.352699479261,0.0,0.0,0.0
1609055171186395000,59,1609055171186395000,2.49850919545,-0.666661991817,1.88688358469,0.99906015327,0.0312846733159,-0.0228000590439,-0.0194996582218,1.05631871058,0.0150160718258,0.34983914391,0.0,0.0,0.0
1609055171286661000,60,1609055171286661000,2.59386821712,-0.659837486636,1.91462828717,0.999224966977,0.0313789534031,-0.0197990733006,-0.0131462294983,1.05010262157,-4.49180050097e-06,0.35183287608,0.0,0.0,0.0
1609055171386528000,61,1609055171386528000,2.7001689379,-0.660571131153,1.9541711318,0.999292258634,0.0316153983857,-0.0193502111949,-0.00640450981477,1.04854568972,0.00656932741751,0.384905740995,0.0,0.0,0.0
1609055171486494000,62,1609055171486494000,2.79379874255,-0.659888704805,1.98110503235,0.999424160824,0.0318443064255,-0.0114166369527,-0.0026357752068,1.03869843483,0.0162956117449,0.388759689489,0.0,0.0,0.0
1609055171586523000,63,1609055171586523000,2.89388001101,-0.655184644384,2.01594728681,0.999519436608,0.0309473998325,-0.00162558747514,-0.000715368219513,1.00397938637,0.0372322934927,0.415800110079,0.0,0.0,0.0
1609055171686580000,64,1609055171686580000,2.99352046824,-0.656247192361,2.05268335234,0.999547263923,0.0300536096366,0.000306407793361,-0.00139780025076,0.956165091577,0.0543793013868,0.289094419326,0.0,0.0,0.0
1609055171786688000,65,1609055171786688000,3.08674425211,-0.662798101096,2.09150408861,0.999553846199,0.0295509247436,-0.000373660043728,-0.00432571087701,0.919852680251,0.0652565287446,0.248852663825,0.0,0.0,0.0
1609055171886716000,66,1609055171886716000,3.17651627142,-0.65856982192,2.11540944908,0.999526065255,0.0292986740383,-0.00301122559917,-0.00895349634543,0.889487783668,0.0792646806411,0.246469057019,0.0,0.0,0.0
1609055171986663000,67,1609055171986663000,3.26546340274,-0.651572538382,2.14267749536,0.999435146167,0.0299557316124,-0.00791269168895,-0.0130166070732,0.870923298263,0.0800860426208,0.247290786562,0.0,0.0,0.0
1609055172086638000,68,1609055172086638000,3.3521657979,-0.645823236358,2.16670261704,0.999302284226,0.0304579626667,-0.0127041730738,-0.0174888889553,0.859010875252,0.0726893126016,0.1770142377,0.0,0.0,0.0
1609055172186704000,69,1609055172186704000,3.43885376279,-0.641457720069,2.18395138848,0.999197519282,0.0308824934212,-0.0170615783659,-0.0189602638512,0.862521610681,0.0571627347235,0.132973871519,0.0,0.0,0.0
1609055172286689000,70,1609055172286689000,3.49627755414,-0.648997745892,2.21111658361,0.999220787308,0.0310720367075,-0.0171504580109,-0.017268715561,0.861501121646,0.0297334963768,0.212517478337,0.0,0.0,0.0
1609055172386771000,71,1609055172386771000,3.5771585247,-0.645235962682,2.22542674389,0.999274690739,0.0313467236254,-0.0133695407068,-0.0169920789874,0.869267891836,0.0370483815402,0.255379423324,0.0,0.0,0.0
1609055172486777000,72,1609055172486777000,3.65836245483,-0.644074032599,2.24601926663,0.999304479487,0.0316900535039,-0.0079983185537,-0.0179534032004,0.860634319031,0.0266646776648,0.283431124837,0.0,0.0,0.0
1609055172586821000,73,1609055172586821000,3.74024789947,-0.642722778424,2.27286035236,0.999259182496,0.0320425889156,-0.0024814396109,-0.021170761708,0.838150606576,0.0158739195418,0.330541925046,0.0,0.0,0.0
1609055172686912000,74,1609055172686912000,3.82083845294,-0.64386664677,2.30493658431,0.999233824573,0.0318408158319,0.00358893030915,-0.0224732252842,0.8041396321,-0.0118821662294,0.387491821603,0.0,0.0,0.0
1609055172786933000,75,1609055172786933000,3.87966626686,-0.649211869367,2.33998284637,0.999274698444,0.031082609589,0.00498333159155,-0.0214269651814,0.749576130459,-0.0315366558959,0.373119816004,0.0,0.0,0.0
1609055172886943000,76,1609055172886943000,3.9619988765,-0.654238732547,2.3893419338,0.999296847493,0.0304574868813,0.00557635197529,-0.0211437078637,0.706549926336,-0.0415938212697,0.368161233993,0.0,0.0,0.0
1609055172986963000,77,1609055172986963000,4.01369081971,-0.653239157193,2.41836368381,0.999334213984,0.0298764049003,4.51565181785e-05,-0.020941039911,0.66448752532,-0.0446925299454,0.303737869308,0.0,0.0,0.0
1609055173086973000,78,1609055173086973000,4.08767275374,-0.657982890859,2.44885428232,0.999268258177,0.0293818850949,-0.00344641514038,-0.0242440766071,0.657132752193,-0.0552915711193,0.343256648541,0.0,0.0,0.0
1609055173186997000,79,1609055173186997000,4.16107084508,-0.664618496391,2.48364456827,0.999202427453,0.0296400202665,-0.00423582184203,-0.0264203706191,0.650018898191,-0.0680991941635,0.375726280135,0.0,0.0,0.0
1609055173287034000,80,1609055173287034000,4.23013501586,-0.673903926145,2.51886730146,0.99917865902,0.0304822326847,-0.00390189836284,-0.0264124220606,0.638720062028,-0.0950043776815,0.367722797628,0.0,0.0,0.0
1609055173387060000,81,1609055173387060000,4.3022357252,-0.683997614548,2.55614681672,0.999233832436,0.031118728373,-0.00437665040125,-0.023328475987,0.623521593948,-0.110970607567,0.297470567084,0.0,0.0,0.0
1609055173487106000,82,1609055173487106000,4.37406955321,-0.696421249339,2.5885003339,0.999268351383,0.0316964580849,-0.00593239416663,-0.0205646096218,0.610751718603,-0.110891321765,0.229585412449,0.0,0.0,0.0
1609055173587191000,83,1609055173587191000,4.44893617067,-0.708583296946,2.62010080718,0.999295136437,0.0324584765247,-0.00548123642131,-0.0180453218922,0.606466131259,-0.108507581272,0.299531390505,0.0,0.0,0.0
1609055173687149000,84,1609055173687149000,4.55982367642,-0.717112357134,2.66523317348,0.999267006713,0.0324093127405,-0.00580351418336,-0.0195295920357,0.622445168613,-0.110560587931,0.271782187064,0.0,0.0,0.0
1609055173787216000,85,1609055173787216000,4.61862154102,-0.726828115298,2.68975948471,0.999268241754,0.0324546294774,-0.00537958726003,-0.0195125110477,0.602763702594,-0.110005792736,0.243400886845,0.0,0.0,0.0
1609055173887258000,86,1609055173887258000,4.67655299149,-0.736963546209,2.71266279542,0.999271177082,0.0325142734719,-0.0052904978361,-0.019285935442,0.583607441116,-0.110212199246,0.263802030827,0.0,0.0,0.0
1609055173987266000,87,1609055173987266000,4.74390787213,-0.750303546769,2.75035371654,0.999293330479,0.0324479387718,-0.00683127209759,-0.0177004138896,0.564305827302,-0.119786648709,0.267684021411,0.0,0.0,0.0
1609055174087318000,88,1609055174087318000,4.81258120877,-0.761778323692,2.78888290352,0.999316930394,0.0319398160287,-0.00964891260739,-0.0158877079747,0.56395301869,-0.109498533146,0.306740935142,0.0,0.0,0.0
1609055174187328000,89,1609055174187328000,4.87205360658,-0.771218021739,2.81234435543,0.999334693188,0.0313109009371,-0.0100044032887,-0.0158022273167,0.564826734399,-0.104735373805,0.336227341474,0.0,0.0,0.0
1609055174287338000,90,1609055174287338000,4.93703772757,-0.779450616281,2.84486296875,0.999345246991,0.0307774781309,-0.00949239000243,-0.0164838918094,0.556366905534,-0.102700750745,0.282384775086,0.0,0.0,0.0
1609055174387406000,91,1609055174387406000,5.00014010292,-0.793003947883,2.86835163541,0.99935857049,0.0300889432391,-0.00749539168517,-0.017914301192,0.547734002984,-0.0984656763684,0.244581266351,0.0,0.0,0.0
1609055174487425000,92,1609055174487425000,5.06169910833,-0.81530438812,2.90155123457,0.99939643993,0.0299657752858,-0.00799887403867,-0.0156469224114,0.524037410767,-0.100526853515,0.245117867685,0.0,0.0,0.0
1609055174587400000,93,1609055174587400000,5.10297234789,-0.828032472221,2.93346735516,0.999389677633,0.0298530565142,-0.0129699774357,-0.0126825448048,0.504561026186,-0.0937501686878,0.274463737874,0.0,0.0,0.0
1609055174687455000,94,1609055174687455000,5.15713492537,-0.839042336424,2.961394343,0.999380220196,0.0297511476315,-0.0155885858255,-0.0105375845094,0.50395389457,-0.0745133716508,0.274294641767,0.0,0.0,0.0
1609055174787476000,95,1609055174787476000,5.21139669425,-0.849275589572,2.98641221642,0.999359098406,0.0297681379496,-0.0175856733068,-0.00927332144889,0.509145170188,-0.0545688401062,0.257661461877,0.0,0.0,0.0
1609055174887565000,96,1609055174887565000,5.26410030028,-0.855510988112,3.00620528594,0.99935653452,0.0301524051805,-0.0176368049597,-0.00814201967627,0.521634887284,-0.0343186029256,0.309612035714,0.0,0.0,0.0
1609055174987585000,97,1609055174987585000,5.31972438131,-0.860290355392,3.0331877836,0.999382231157,0.030427747363,-0.0159454755447,-0.00741957196541,0.524385137651,-0.00235475524504,0.29868496793,0.0,0.0,0.0
1609055175087563000,98,1609055175087563000,5.37571312213,-0.861495567739,3.06024366556,0.999396179701,0.030555555308,-0.0127454692291,-0.010544527191,0.523648261177,0.0188878365011,0.306426809555,0.0,0.0,0.0
1609055175187714000,99,1609055175187714000,5.4538320885,-0.861627506382,3.09879141092,0.999398905414,0.0304318459178,-0.00884002953204,-0.0140564750121,0.522970100202,0.0396810245513,0.315462358418,0.0,0.0,0.0
1609055175287702000,100,1609055175287702000,5.51530827179,-0.858941997488,3.13351745492,0.999372259038,0.0305067547297,-0.00647390175859,-0.0168081640136,0.506521881907,0.0421509436881,0.333200521803,0.0,0.0,0.0
1609055175387665000,101,1609055175387665000,5.56662748618,-0.854039083155,3.16854894843,0.999412116645,0.0302943750542,-0.00608248800285,-0.0148551433344,0.481737921816,0.0497054944838,0.312239843899,0.0,0.0,0.0
1609055175487688000,102,1609055175487688000,5.60598498074,-0.851146490856,3.19641945769,0.999396615228,0.0301218462731,-0.0068922072263,-0.0158611893415,0.452690725357,0.0569321531202,0.277105287718,0.0,0.0,0.0
1609055175587737000,103,1609055175587737000,5.64578814336,-0.845433235208,3.21805063866,0.999410368497,0.0296610054274,-0.00803145337424,-0.0153178279936,0.430459222425,0.0718963893041,0.186949413047,0.0,0.0,0.0
1609055175687733000,104,1609055175687733000,5.69267493175,-0.839040756092,3.23634708009,0.999367924351,0.0291735580416,-0.0089641794412,-0.018229064033,0.414005804076,0.0798772036891,0.119771892563,0.0,0.0,0.0
1609055175787787000,105,1609055175787787000,5.73798135071,-0.831760025244,3.25121108638,0.999358735438,0.0289437889872,-0.0103225356888,-0.0183798868523,0.397547988533,0.0803988814677,0.0617116110068,0.0,0.0,0.0
1609055175887804000,106,1609055175887804000,5.78090851487,-0.825063737801,3.25738095388,0.999419153787,0.0289844353274,-0.0117036500789,-0.0135750553359,0.388334608899,0.0846653203746,0.038720791,0.0,0.0,0.0
1609055175987893000,107,1609055175987893000,5.83124177891,-0.818858046359,3.26625738519,0.999436810554,0.0291361024866,-0.0129832316045,-0.0104204097198,0.381811910684,0.106122108514,0.00796150991491,0.0,0.0,0.0
1609055176087902000,108,1609055176087902000,5.88122950359,-0.811143814475,3.27580830723,0.999421250282,0.0290483345684,-0.0145156285303,-0.0101318937765,0.381615739189,0.132799234982,-0.00803317848003,0.0,0.0,0.0
1609055176187893000,109,1609055176187893000,5.92590021995,-0.800874793121,3.27951439359,0.999401400195,0.0292499471142,-0.0148587995502,-0.0109771562284,0.387968761716,0.152052376595,0.0614178789955,0.0,0.0,0.0
1609055176287952000,110,1609055176287952000,5.97644972705,-0.787790349179,3.29356959473,0.99928093827,0.0298629151941,-0.0177825310299,-0.0151523693517,0.387758242905,0.168457145971,0.0412721906353,0.0,0.0,0.0
1609055176387944000,111,1609055176387944000,6.01536119613,-0.772034098565,3.30073081156,0.999168743048,0.0299217381272,-0.0201602308973,-0.0189757105944,0.402760390418,0.170343840638,0.0662687002476,0.0,0.0,0.0
1609055176487968000,112,1609055176487968000,6.06310851289,-0.754240292609,3.31054082773,0.999097080049,0.0295486448189,-0.019909679951,-0.023141021388,0.417825264891,0.165250680914,0.0790970449589,0.0,0.0,0.0
1609055176588026000,113,1609055176588026000,6.11121065474,-0.739044024248,3.32312052498,0.998989382885,0.0292794723498,-0.020605154542,-0.0271726514593,0.430108654537,0.165101988115,0.103066818754,0.0,0.0,0.0
1609055176688051000,114,1609055176688051000,6.15649533007,-0.727250039048,3.33426113974,0.998816372248,0.029661348061,-0.0205891152031,-0.0325906013342,0.443247434554,0.160658454922,0.0795301501625,0.0,0.0,0.0
1609055176788103000,115,1609055176788103000,6.19881565853,-0.715424052875,3.33453913121,0.998592127518,0.0315324995568,-0.0213815236126,-0.0369092776665,0.453417682221,0.14130068217,0.0446861023476,0.0,0.0,0.0
1609055176888081000,116,1609055176888081000,6.24744837218,-0.694790053647,3.33339234621,0.998307845742,0.0353824406895,-0.021722481467,-0.0407143932763,0.477153109676,0.120060591246,0.0412092796262,0.0,0.0,0.0
1609055176988155000,117,1609055176988155000,6.29660350682,-0.686611852185,3.32890563361,0.998108159567,0.0403797729032,-0.0194211214055,-0.042099831225,0.491886741646,0.0748514983244,0.0274642394459,0.0,0.0,0.0
1609055177088174000,118,1609055177088174000,6.34356150685,-0.679261950189,3.32881259176,0.99809261301,0.0443960843184,-0.0161473971626,-0.0397414785533,0.495274530079,0.0311778444126,-0.00422444697323,0.0,0.0,0.0
1609055177188171000,119,1609055177188171000,6.36979799042,-0.673231942831,3.32724468924,0.998185058776,0.0476110393067,-0.0152714431884,-0.0335642726049,0.48184836341,0.00220975299007,-0.0421446031839,0.0,0.0,0.0
1609055177288273000,120,1609055177288273000,6.4189404779,-0.675246416439,3.32398780842,0.99823177707,0.0519752485298,-0.0135846686445,-0.0254430651619,0.474716960208,0.00559784632632,-0.0598945953,0.0,0.0,0.0
1609055177388278000,121,1609055177388278000,6.48487177927,-0.668993321994,3.32487154867,0.998073477727,0.0579623487251,-0.0114245642462,-0.0189520056724,0.474025950348,0.0258068390128,-0.071024929445,0.0,0.0,0.0
1609055177488379000,122,1609055177488379000,6.54014396954,-0.669475472939,3.31873403485,0.99769980807,0.066047216386,-0.00837854475397,-0.0127537513032,0.464352094815,0.0433286299606,-0.0836336076987,0.0,0.0,0.0
1609055177588308000,123,1609055177588308000,6.59452380438,-0.657557622183,3.31769003182,0.997267910485,0.0732637327683,-0.00470131539559,-0.00818766219137,0.452324464349,0.0627102209943,-0.0825621918812,0.0,0.0,0.0
1609055177688338000,124,1609055177688338000,6.64337883352,-0.647068298832,3.31525147655,0.996848560794,0.0788779821808,-5.62457523546e-05,-0.00843845999174,0.426774789187,0.102687633316,-0.043012110282,0.0,0.0,0.0
1609055177788329000,125,1609055177788329000,6.68487732317,-0.634011231316,3.3145187647,0.996414175041,0.0833932436688,0.00333423662062,-0.0139011349575,0.395518456842,0.109886154788,-0.0411953177146,0.0,0.0,0.0
1609055177888363000,126,1609055177888363000,6.7221109783,-0.621282043432,3.31161523079,0.99608338023,0.0864081475164,0.00603148902871,-0.0177525438551,0.357449315618,0.110536967686,-0.0471892167978,0.0,0.0,0.0
1609055177988407000,127,1609055177988407000,6.76696052177,-0.606101153269,3.31521339832,0.995817275787,0.0888241523971,0.00727881366575,-0.0201306250846,0.322139505648,0.109315357324,-0.0503879659514,0.0,0.0,0.0
1609055178088495000,128,1609055178088495000,6.79683060684,-0.595311859804,3.31102982053,0.995731183002,0.090119848237,0.00661944661474,-0.0188150757925,0.283357299553,0.103112546729,-0.0588905757751,0.0,0.0,0.0
1609055178188492000,129,1609055178188492000,6.82420107684,-0.583125832483,3.3082360868,0.995678019421,0.0907800863299,0.00527434796026,-0.0188795874061,0.249602689108,0.100360072053,-0.0483217450817,0.0,0.0,0.0
1609055178288522000,130,1609055178288522000,6.84919955055,-0.565260634285,3.30817044142,0.995686292689,0.0911603106196,0.00421498433793,-0.0167582286272,0.218538576365,0.104470247348,-0.0419048776538,0.0,0.0,0.0
1609055178388652000,131,1609055178388652000,6.86950606297,-0.554636210463,3.30317388107,0.995683175382,0.0913668062356,0.00252967644854,-0.0161468794603,0.188806217869,0.111997979788,-0.0417803956791,0.0,0.0,0.0
1609055178488627000,132,1609055178488627000,6.89048483435,-0.54360019831,3.30039083671,0.995571979475,0.0930166639998,0.000490108727193,-0.0135681131719,0.162958300456,0.136429553839,-0.0469239707332,0.0,0.0,0.0
1609055178588734000,133,1609055178588734000,6.91003393369,-0.530541034663,3.29821795762,0.995333299445,0.0959034112798,-0.0020128508062,-0.0104931954938,0.144838470747,0.149418558669,-0.0495348202193,0.0,0.0,0.0
1609055178688628000,134,1609055178688628000,6.92640780322,-0.516483300457,3.29350760042,0.994820838814,0.101348431479,-0.00260192355304,-0.00729548435748,0.124879939082,0.186077575934,-0.0407761659169,0.0,0.0,0.0
1609055178788656000,135,1609055178788656000,6.94703231206,-0.495574560517,3.30148909686,0.994120194019,0.108011085303,-0.00221777715382,-0.00732985400211,0.110962007312,0.214383741703,-0.0290795470597,0.0,0.0,0.0
1609055178888686000,136,1609055178888686000,6.95918442447,-0.474762038369,3.30137744687,0.993277776458,0.115448247634,-0.00235725691495,-0.00808728961466,0.0913446988426,0.235607379695,-0.0204565562882,0.0,0.0,0.0
1609055178988738000,137,1609055178988738000,6.97736734637,-0.452798123882,3.30709461839,0.992360306364,0.122988368549,-0.00330045051216,-0.00916463750302,0.0799132983879,0.252342669939,0.00965226475477,0.0,0.0,0.0
1609055179088805000,138,1609055179088805000,6.98526587661,-0.42579285641,3.30827147468,0.991441359372,0.129904771478,-0.00230646058447,-0.0127852067962,0.0650556456149,0.259197978745,0.0331535712035,0.0,0.0,0.0
1609055179188798000,139,1609055179188798000,6.99713917877,-0.397917276877,3.31243585619,0.990598494523,0.135856918474,-0.00212506902802,-0.0159061130892,0.0478541076559,0.280746999845,0.0460478699661,0.0,0.0,0.0
1609055179288789000,140,1609055179288789000,7.00337589867,-0.370870323806,3.3158515159,0.989530612754,0.142834881956,-0.00135998119671,-0.0206279754432,0.029180210214,0.277352840882,0.0564673640889,0.0,0.0,0.0
1609055179388835000,141,1609055179388835000,7.00405619688,-0.340115190023,3.32340710072,0.988405231249,0.149362617603,-0.00048134099827,-0.0273070616089,0.0117985058944,0.262563729481,0.0708235938723,0.0,0.0,0.0
1609055179488950000,142,1609055179488950000,7.00542219864,-0.314536507249,3.32984066861,0.98728942541,0.155941356745,0.000498947423619,-0.0306860682082,-0.00751957575967,0.235956754276,0.0806889241164,0.0,0.0,0.0
1609055179588961000,143,1609055179588961000,7.00839146585,-0.288081150546,3.33805617552,0.986082783456,0.163334828493,0.00154398464385,-0.0309853850255,-0.0252913818875,0.209845831847,0.0802120120892,0.0,0.0,0.0
1609055179689094000,144,1609055179689094000,7.00633707972,-0.267675636189,3.34610816575,0.984770039586,0.171175020295,0.00147020315609,-0.0304124984751,-0.0450290645983,0.176113782969,0.0694064069666,0.0,0.0,0.0
1609055179788983000,145,1609055179788983000,7.00902710403,-0.245036681268,3.35055222119,0.98342927162,0.179112870221,-0.000605596017435,-0.0280192914782,-0.0560963010965,0.143194002504,0.0565289572907,0.0,0.0,0.0
1609055179889054000,146,1609055179889054000,7.00687192481,-0.230995666448,3.35743120741,0.981940215262,0.187380139913,-0.00222715409496,-0.0260218485722,-0.0668240455674,0.124408473961,0.069660775802,0.0,0.0,0.0
1609055179989100000,147,1609055179989100000,7.00525738838,-0.214179858954,3.36189973421,0.980442884578,0.195434218801,-0.00225246651706,-0.0230682161659,-0.0672262556619,0.0921145398171,0.0614447468897,0.0,0.0,0.0
1609055180089117000,148,1609055180089117000,7.00944015329,-0.194183209607,3.3650860999,0.979060361513,0.202273562921,-0.00215152678059,-0.0228382396432,-0.0591303181003,0.077371613505,0.0593736706531,0.0,0.0,0.0
1609055180189143000,149,1609055180189143000,7.0093923691,-0.176687331733,3.37053734693,0.977890650499,0.207882322258,-0.000710112839728,-0.0226784368883,-0.0534961010724,0.0539991289071,0.0626851814318,0.0,0.0,0.0
1609055180289163000,150,1609055180289163000,7.00686529724,-0.166853025114,3.3758894586,0.976841029687,0.212875176132,-0.000397948019834,-0.0215778530855,-0.0537728234501,0.0346920541709,0.0510627000852,0.0,0.0,0.0
1609055180389218000,151,1609055180389218000,7.00682777699,-0.147274232705,3.37851532841,0.975665693171,0.218294354097,-0.000469560526697,-0.0205866377148,-0.0552922528665,0.0425850867143,0.0347185429348,0.0,0.0,0.0
1609055180489257000,152,1609055180489257000,7.00419629171,-0.141993031975,3.38190039438,0.974109456583,0.224968981879,-0.000407203016926,-0.0223507935956,-0.0483669536973,0.0185757075912,0.0339102221199,0.0,0.0,0.0
1609055180589256000,153,1609055180589256000,7.00544092182,-0.12439900488,3.38272425486,0.972561202327,0.231776325298,0.00160184173086,-0.0200468666307,-0.0445224124569,0.0176597502405,0.019653797471,0.0,0.0,0.0
1609055180689362000,154,1609055180689362000,7.00291201435,-0.125090161006,3.38358977927,0.970101116124,0.242019304736,0.00336741432595,-0.0178645221298,-0.0543459561111,0.0130543151526,0.00953275323868,0.0,0.0,0.0
1609055180789310000,155,1609055180789310000,7.00209212283,-0.111270581086,3.37922643547,0.967451022914,0.25247421441,0.00613935553908,-0.0160498484172,-0.0616061696377,0.00556852777126,-0.0202597850828,0.0,0.0,0.0
1609055180889323000,156,1609055180889323000,7.00854339091,-0.10400788207,3.37351093292,0.964930831087,0.262157076571,0.00876257229616,-0.0102652690265,-0.0604779145895,-0.00741710687825,-0.0507480269664,0.0,0.0,0.0
1609055180989332000,157,1609055180989332000,7.00303926027,-0.0977535907928,3.36697647946,0.962326169239,0.271597627639,0.0111636677548,-0.00620041773396,-0.0835623306251,-0.00288613939347,-0.0885903973031,0.0,0.0,0.0
1609055181089349000,158,1609055181089349000,6.98992647586,-0.0872213596481,3.35917823115,0.959775889639,0.28046436257,0.0126462207787,-0.00317113490555,-0.118952265015,0.0128105760744,-0.120441197266,0.0,0.0,0.0
1609055181189443000,159,1609055181189443000,6.97785495845,-0.0775840111253,3.34807815229,0.957178706835,0.289159357344,0.0138537674201,-0.00196529144703,-0.152689536181,0.0344593717584,-0.125350862074,0.0,0.0,0.0
1609055181289447000,160,1609055181289447000,6.96124429708,-0.0646987936642,3.33896965949,0.954546427776,0.297692858221,0.0144917773079,-0.00317297561741,-0.186261042399,0.0500706174905,-0.117262919313,0.0,0.0,0.0
1609055181389499000,161,1609055181389499000,6.94203915499,-0.0505451449001,3.331266179,0.951907360177,0.306057553824,0.0133334038606,-0.00483443156336,-0.216407340911,0.060699578993,-0.0890520913663,0.0,0.0,0.0
1609055181489489000,162,1609055181489489000,6.91867137658,-0.0345640460204,3.32812575735,0.949315318622,0.314055980091,0.012816998272,-0.00223422325063,-0.241129972595,0.0796119626266,-0.0561821874023,0.0,0.0,0.0
1609055181589553000,163,1609055181589553000,6.89401192106,-0.0192336529143,3.32387646192,0.946495962066,0.322493804283,0.0116896567444,-0.00254792426028,-0.268834367281,0.100294422893,-0.0532348074424,0.0,0.0,0.0
1609055181689548000,164,1609055181689548000,6.86523863074,-0.00304112604444,3.3199202281,0.943459019218,0.331285282165,0.0114014718189,-0.00226876993728,-0.294867428774,0.118077055775,-0.0450092049201,0.0,0.0,0.0
1609055181789640000,165,1609055181789640000,6.83476231908,0.0122879105169,3.31592024319,0.940203575177,0.340390838789,0.0122117857538,-0.00147864180197,-0.318357841329,0.133100328206,-0.0343161382282,0.0,0.0,0.0
1609055181889735000,166,1609055181889735000,6.80334390287,0.0283857300722,3.31319216322,0.936870844952,0.349430010831,0.0130903553484,-0.000574461874711,-0.337954546795,0.145396740536,-0.00994869367966,0.0,0.0,0.0
1609055181989630000,167,1609055181989630000,6.76748732981,0.0437569010075,3.31236291733,0.933414995656,0.358519624222,0.0141233962057,0.000809081538911,-0.367856891033,0.159829663996,0.00627182193057,0.0,0.0,0.0
1609055182089659000,168,1609055182089659000,6.72737156793,0.0595792935315,3.31308398656,0.929880299921,0.367602499308,0.013820094014,-0.000187945073778,-0.401464472997,0.174147401038,0.00749740119771,0.0,0.0,0.0
1609055182189660000,169,1609055182189660000,6.68405215409,0.0762685925954,3.3130524339,0.926369414575,0.376400797755,0.0119400517091,-0.00442519546651,-0.429446639188,0.181375513466,-0.00146138169314,0.0,0.0,0.0
1609055182289774000,170,1609055182289774000,6.63829041356,0.0928313230644,3.31262227206,0.922818405641,0.384985585847,0.0102911045534,-0.0092941953929,-0.452208605364,0.174256229588,0.0134344478952,0.0,0.0,0.0
1609055182389751000,171,1609055182389751000,6.59074240456,0.108877329902,3.31467992914,0.919261124992,0.393333578536,0.0087628639532,-0.0130725777469,-0.468564781914,0.163446422773,0.0325971051764,0.0,0.0,0.0
1609055182489769000,172,1609055182489769000,6.54198126881,0.124595719585,3.31784160652,0.915579642351,0.401751991628,0.00881375767618,-0.0152175362655,-0.4816057612,0.149814766385,0.0536472168932,0.0,0.0,0.0
1609055182589851000,173,1609055182589851000,6.49171146095,0.137426146183,3.32375409626,0.911896150398,0.410001759939,0.0087816485144,-0.016335555869,-0.492008973615,0.127541739057,0.0737283957057,0.0,0.0,0.0
1609055182689860000,174,1609055182689860000,6.44146948623,0.149223749116,3.33154661535,0.908184969216,0.418105765105,0.00891227818234,-0.0175556877601,-0.505199184355,0.104981110583,0.0710584525572,0.0,0.0,0.0
1609055182789898000,175,1609055182789898000,6.390387723,0.159375467271,3.33872102996,0.904509458599,0.425957144197,0.00846568233043,-0.0187478754967,-0.515767282463,0.086111591152,0.072694258091,0.0,0.0,0.0
1609055182889943000,176,1609055182889943000,6.33811606019,0.168313442483,3.3446461034,0.900973914401,0.433454470829,0.0086510148485,-0.0169819677821,-0.520051838984,0.0648824783743,0.0610996909571,0.0,0.0,0.0
1609055182989966000,177,1609055182989966000,6.28644672372,0.176327658909,3.34994323937,0.897581802757,0.44057591517,0.00808539070893,-0.0132059376543,-0.527992973888,0.0465702088189,0.0508898983656,0.0,0.0,0.0
1609055183089978000,178,1609055183089978000,6.2359603662,0.182162978016,3.35532836485,0.894325765984,0.447268938703,0.00645753284691,-0.00949847556838,-0.539364619329,0.0452776448855,0.0547475554899,0.0,0.0,0.0
1609055183190010000,179,1609055183190010000,6.18356072065,0.186768305766,3.36059502913,0.891125867986,0.453644872939,0.00548165471119,-0.00842425811213,-0.543452510366,0.0418783978031,0.0794921249106,0.0,0.0,0.0
1609055183290021000,180,1609055183290021000,6.13160727222,0.190948021304,3.36829789668,0.887926034328,0.45988389471,0.00628726908684,-0.00739129195164,-0.54860742957,0.0419350866272,0.0829406967403,0.0,0.0,0.0
1609055183390043000,181,1609055183390043000,6.07802061161,0.193422607472,3.37776323636,0.884654593515,0.466158998212,0.00586395122091,-0.00690308879218,-0.56495795454,0.0388650279503,0.0990852057263,0.0,0.0,0.0
1609055183490055000,182,1609055183490055000,6.02117180802,0.197533790881,3.38692719762,0.881429788689,0.472238055879,0.00476768531921,-0.00707215445809,-0.575930258332,0.0405921073053,0.119397413323,0.0,0.0,0.0
1609055183590143000,183,1609055183590143000,5.96221503756,0.202183474609,3.39805659067,0.878207771841,0.478194264322,0.00348223966217,-0.00832039984947,-0.588580744729,0.042204956367,0.126707361566,0.0,0.0,0.0
1609055183690144000,184,1609055183690144000,5.90509681955,0.205160494112,3.41030309677,0.87474055414,0.484472919322,0.00207220778963,-0.0105194743306,-0.589453263018,0.037555686125,0.136504810136,0.0,0.0,0.0
1609055183790205000,185,1609055183790205000,5.84073307286,0.209648897956,3.42242382747,0.871235262658,0.490705882736,0.00337507802776,-0.0120607876302,-0.596199885944,0.0326747095976,0.145794682154,0.0,0.0,0.0
1609055183890283000,186,1609055183890283000,5.7760426262,0.215258286646,3.43448623772,0.867485660071,0.497251430652,0.00417897872381,-0.0138629153965,-0.607264256347,0.0268095581178,0.126512857837,0.0,0.0,0.0
1609055183990263000,187,1609055183990263000,5.71912905216,0.21589334843,3.44844760831,0.863770581015,0.503628888703,0.00343629417548,-0.0157008827441,-0.60763550433,0.01412008881,0.125423214975,0.0,0.0,0.0
1609055184090326000,188,1609055184090326000,5.65895773404,0.219565411622,3.45909625522,0.859994468469,0.510047918825,0.000954100891526,-0.0161159671207,-0.605165099959,0.00353840974006,0.109552572317,0.0,0.0,0.0
1609055184190360000,189,1609055184190360000,5.60270556485,0.220614619,3.47077112671,0.856502344559,0.515916373163,-0.00235756582722,-0.015115275381,-0.586892748206,-0.0088048980601,0.107348191662,0.0,0.0,0.0
1609055184290316000,190,1609055184290316000,5.54736649641,0.22413414541,3.48222707376,0.853126845166,0.521504599321,-0.00502399796885,-0.0135017920064,-0.570279680814,-0.00559558171513,0.118437993872,0.0,0.0,0.0
1609055184390347000,191,1609055184390347000,5.48694211713,0.227477824224,3.4927159248,0.849876372929,0.526814789606,-0.0061116073228,-0.0117888271039,-0.555477120029,-0.000519011149856,0.113204495363,0.0,0.0,0.0
1609055184490361000,192,1609055184490361000,5.43042912264,0.226406584587,3.50394630385,0.846570377039,0.532151778345,-0.00599620594454,-0.00985530512031,-0.539418796528,0.0032444722044,0.111433492076,0.0,0.0,0.0
1609055184590432000,193,1609055184590432000,5.36354575064,0.230511631734,3.5123723587,0.843122516626,0.537610629738,-0.00618376647828,-0.00899965461322,-0.544404526026,0.0146751449103,0.0941708312736,0.0,0.0,0.0
1609055184690503000,194,1609055184690503000,5.30769443151,0.23155997832,3.52025492191,0.839555910352,0.543143878237,-0.00656756332547,-0.00987259022896,-0.531095651077,0.0241237023688,0.0915158124903,0.0,0.0,0.0
1609055184790541000,195,1609055184790541000,5.25172731124,0.234732362428,3.52627700279,0.835408955306,0.549536752786,-0.00488365082061,-0.008796856615,-0.533160403003,0.0369610324825,0.0894510566019,0.0,0.0,0.0
1609055184890591000,196,1609055184890591000,5.20261708974,0.236742187801,3.53544193095,0.830792580679,0.55653364279,-0.00258424046757,-0.00687851965555,-0.514948055383,0.0415433188536,0.08910041654,0.0,0.0,0.0
1609055184990556000,197,1609055184990556000,5.14906941051,0.244588752168,3.53993818272,0.827158008641,0.561948240313,-6.96117085666e-05,-0.00487843260358,-0.513937777969,0.0510065204823,0.0709953385291,0.0,0.0,0.0
1609055185090631000,198,1609055185090631000,5.09423819016,0.253988664371,3.54372472053,0.823661490597,0.567060591879,0.00155119099052,-0.00465057539384,-0.518264289229,0.0657841046909,0.0699238062816,0.0,0.0,0.0
1609055185190665000,199,1609055185190665000,5.04122275474,0.259714247897,3.55081745717,0.820290058196,0.571899668165,0.00442486984574,-0.00595067265538,-0.525707358619,0.0725356504247,0.08648038436,0.0,0.0,0.0
1609055185290642000,200,1609055185290642000,4.98900678296,0.275066996936,3.55581028457,0.817045345738,0.576477946197,0.00750669599639,-0.0073300798851,-0.533767051415,0.0781674285495,0.0825193844631,0.0,0.0,0.0
1609055185390628000,201,1609055185390628000,4.93902435919,0.281852164552,3.56479799847,0.813934314032,0.580818481539,0.00878415512052,-0.00914672412491,-0.542607741012,0.0718771169965,0.0830609062567,0.0,0.0,0.0
1609055185490665000,202,1609055185490665000,4.89183136978,0.294131587232,3.57031991079,0.8107143589,0.585289070512,0.00951742680953,-0.00939951056875,-0.548277129781,0.0683828804255,0.0863637570604,0.0,0.0,0.0
1609055185590693000,203,1609055185590693000,4.84007342179,0.29823554168,3.57987431675,0.807413073144,0.589826789611,0.0101536670273,-0.00924070446047,-0.556524187159,0.054213511052,0.0767462110703,0.0,0.0,0.0
1609055185690782000,204,1609055185690782000,4.79417609879,0.309584399285,3.58533141342,0.803800214878,0.594757805602,0.0103723739059,-0.00779622332155,-0.570313282575,0.0530531631526,0.0903566793776,0.0,0.0,0.0
1609055185790772000,205,1609055185790772000,4.73977662325,0.314762918245,3.59469392746,0.799840005539,0.600085049454,0.0101737040792,-0.0070989229279,-0.58032932263,0.045553132522,0.110199480818,0.0,0.0,0.0
1609055185890819000,206,1609055185890819000,4.68601110299,0.328394833988,3.60468194898,0.796230517871,0.604883479585,0.0108688650604,-0.00384789662378,-0.593774372782,0.0461953725527,0.114922447769,0.0,0.0,0.0
1609055185990875000,207,1609055185990875000,4.62998135042,0.334671523886,3.61752777675,0.792833590901,0.609358021939,0.00934916690146,-0.00320800806454,-0.608597062448,0.0468374875235,0.118000458731,0.0,0.0,0.0
1609055186090939000,208,1609055186090939000,4.57552696297,0.349294323515,3.62876801679,0.789426184635,0.613794889566,0.00750276588243,-0.00241682836304,-0.631026557653,0.0588043509735,0.127465788075,0.0,0.0,0.0
1609055186191012000,209,1609055186191012000,4.51141217689,0.354045745427,3.64075251226,0.785996054839,0.618202437697,0.00435520557673,-0.00412067790112,-0.648535148324,0.064248348015,0.136182735751,0.0,0.0,0.0
1609055186291012000,210,1609055186291012000,4.45046055688,0.36434345357,3.65254080451,0.782343176294,0.622815462762,0.00342375816965,-0.00532275595219,-0.653155891776,0.0711112231937,0.131077337788,0.0,0.0,0.0
1609055186390922000,211,1609055186390922000,4.38595695526,0.373849766602,3.66487952584,0.778680578777,0.627384410042,0.00326902018968,-0.00588827466818,-0.656725957849,0.0731789566893,0.115658469728,0.0,0.0,0.0
1609055186490987000,212,1609055186490987000,4.33388144432,0.386319139451,3.67129355522,0.77476401952,0.632222692984,0.00243015733128,-0.00541062558013,-0.66247542955,0.0803458351528,0.0978331519148,0.0,0.0,0.0
1609055186590979000,213,1609055186590979000,4.26919416956,0.394585560644,3.68051138096,0.770604639371,0.637293425885,0.00197126830015,-0.00465759647332,-0.655403716589,0.0845598943044,0.0982655419808,0.0,0.0,0.0
1609055186691044000,214,1609055186691044000,4.21029725416,0.408283978735,3.68590893377,0.766714476728,0.641970798855,0.00224043554949,-0.00416953730445,-0.666667879027,0.0945298976021,0.0898781691035,0.0,0.0,0.0
1609055186791191000,215,1609055186791191000,4.14715432123,0.415405322369,3.69517071204,0.761872731824,0.647689378254,0.000490023962791,-0.00694043776626,-0.678198354056,0.0982696908107,0.0994062384146,0.0,0.0,0.0
1609055186891139000,216,1609055186891139000,4.08550940154,0.428102566223,3.70103916517,0.756291447177,0.654173532343,-4.17445530945e-05,-0.00895738609555,-0.682478672595,0.100790464043,0.0906732473415,0.0,0.0,0.0
1609055186991195000,217,1609055186991195000,4.02469379322,0.442158006334,3.70518991622,0.749671765341,0.661730731556,0.000348894876731,-0.0102255286696,-0.68673433914,0.10036142339,0.0805189243042,0.0,0.0,0.0
1609055187091266000,218,1609055187091266000,3.96392382202,0.45362456432,3.70890244754,0.742828841954,0.669382042276,0.000107408751221,-0.0115317606299,-0.673258478922,0.0980356365964,0.0757868181992,0.0,0.0,0.0
1609055187191243000,219,1609055187191243000,3.90003468005,0.467152269166,3.712801771,0.736329001954,0.676529127027,0.00133037193646,-0.0112325988131,-0.663677289126,0.0960979220543,0.0747768289114,0.0,0.0,0.0
1609055187291239000,220,1609055187291239000,3.83305771814,0.483176024464,3.71627389162,0.729802516273,0.683570058291,0.00332718915695,-0.0104495197296,-0.669883325357,0.0950474751374,0.0590788802227,0.0,0.0,0.0
1609055187391387000,221,1609055187391387000,3.76976307512,0.495678846944,3.72015930667,0.721265487692,0.692568221782,0.00480017257364,-0.0101149782509,-0.70372582566,0.090021039302,0.0535922410096,0.0,0.0,0.0
1609055187491326000,222,1609055187491326000,3.70074548602,0.507219103606,3.72410942739,0.710563801175,0.703519029031,0.00327035026742,-0.0122214998904,-0.710019596477,0.0805308631205,0.0310610253385,0.0,0.0,0.0
1609055187591350000,223,1609055187591350000,3.63838120138,0.515405981568,3.72449664453,0.700688929651,0.713290203098,-0.000120257119976,-0.0158775176997,-0.68371027162,0.0729136477037,0.0145114268897,0.0,0.0,0.0
1609055187691391000,224,1609055187691391000,3.57145878236,0.523958334947,3.72396814446,0.69189195064,0.721731253917,-0.00227828803642,-0.0196044679387,-0.657113452838,0.0634474582958,-0.00176647258201,0.0,0.0,0.0
1609055187791410000,225,1609055187791410000,3.50610361176,0.530182962144,3.72337545699,0.683365781583,0.729824799815,-0.000360018970488,-0.019153081276,-0.64283330921,0.0504884842633,-0.0059011886285,0.0,0.0,0.0
1609055187891385000,226,1609055187891385000,3.437436069,0.536303079943,3.72292731083,0.675210178519,0.737413185567,0.00135392895216,-0.0176401658834,-0.63189432628,0.0387925257321,-0.0088741976445,0.0,0.0,0.0
1609055187991450000,227,1609055187991450000,3.36454127727,0.54218622155,3.72247465743,0.66768446105,0.744286466042,0.0049691967401,-0.0145059995469,-0.629750938236,0.0272057351182,-0.0106884966828,0.0,0.0,0.0
1609055188091454000,228,1609055188091454000,3.28359186031,0.548408110964,3.72207515353,0.661736122419,0.749590754025,0.00953229322707,-0.0113199448709,-0.650743891222,0.017472449629,-0.0303643301093,0.0,0.0,0.0
1609055188191649000,229,1609055188191649000,3.20584988838,0.55347736467,3.71868082232,0.656266761774,0.754352037994,0.00946253431188,-0.013319182039,-0.683294068922,0.00860042502373,-0.0279568228608,0.0,0.0,0.0
1609055188291588000,230,1609055188291588000,3.14162060931,0.554410358501,3.71397604461,0.650827489367,0.758880197411,0.0093681839416,-0.0208964636017,-0.687113774349,-0.011220031022,-0.0140397066271,0.0,0.0,0.0
1609055188391561000,231,1609055188391561000,3.09524473027,0.550646015295,3.7072355282,0.645427071971,0.763235501524,0.00848094663986,-0.0286973435097,-0.655775219398,-0.0422023008732,-0.038519542189,0.0,0.0,0.0
1609055188491685000,232,1609055188491685000,3.05160221768,0.544835984071,3.7006497578,0.639628684841,0.767832628405,0.0105672702171,-0.0345909393381,-0.617542683595,-0.084450751258,-0.0442339685095,0.0,0.0,0.0
1609055188591716000,233,1609055188591716000,2.97972397644,0.537446927079,3.69591553691,0.633375681543,0.772912379355,0.0123705541053,-0.0358980397857,-0.603865770318,-0.133015851654,-0.0924195299935,0.0,0.0,0.0
1609055188691672000,234,1609055188691672000,2.90796688801,0.525029625613,3.68697079901,0.627230444838,0.778112468475,0.0126872760589,-0.0310159394314,-0.598148043,-0.180048715487,-0.12663753542,0.0,0.0,0.0
1609055188791711000,235,1609055188791711000,2.83079257236,0.508551555458,3.6750699835,0.620870093461,0.783473596854,0.0122392577695,-0.0232303820065,-0.612812555945,-0.213645674394,-0.14326741611,0.0,0.0,0.0
1609055188891811000,236,1609055188891811000,2.74903213094,0.488246227619,3.66366293188,0.614562926078,0.788581857006,0.0126172824379,-0.0170841703149,-0.640440572743,-0.239413890986,-0.130572768219,0.0,0.0,0.0
1609055188991746000,237,1609055188991746000,2.66694072829,0.464694939951,3.65324237298,0.608383594128,0.79342092693,0.0133211196684,-0.013235666779,-0.676100045125,-0.259830997306,-0.118346098596,0.0,0.0,0.0
1609055189091774000,238,1609055189091774000,2.5952936932,0.43743557166,3.64317145096,0.602240044268,0.798110669319,0.0152908041541,-0.00961664739282,-0.69650023209,-0.278281085153,-0.0981248222774,0.0,0.0,0.0
1609055189191867000,239,1609055189191867000,2.51600795145,0.407926391517,3.63684946609,0.596012231247,0.802743400305,0.0181366056165,-0.00659674219558,-0.735778409177,-0.301337327365,-0.0737102286908,0.0,0.0,0.0
1609055189291986000,240,1609055189291986000,2.43104339387,0.376101646431,3.63317286139,0.589721293974,0.807375750688,0.0186132945101,-0.00517087056076,-0.784052695145,-0.325372175789,-0.0652351724596,0.0,0.0,0.0
1609055189391851000,241,1609055189391851000,2.34746298615,0.34169981704,3.63003107578,0.5835017004,0.811924037807,0.0167667829645,-0.0048987193336,-0.819671496695,-0.344224633463,-0.0463203104456,0.0,0.0,0.0
1609055189491952000,242,1609055189491952000,2.26005026241,0.305084643985,3.62815657704,0.577090392135,0.816532538291,0.0143656273097,-0.00590948136952,-0.859180361391,-0.362176755429,-0.0372919999973,0.0,0.0,0.0
1609055189592006000,243,1609055189592006000,2.17604806406,0.268831290575,3.62254304929,0.570573305046,0.821132162415,0.011824924093,-0.0069459762946,-0.882811148506,-0.372391758865,-0.0338158332731,0.0,0.0,0.0
1609055189691989000,244,1609055189691989000,2.09418293786,0.232467107463,3.61597250452,0.563989878915,0.825680371158,0.00940088563488,-0.00888619798733,-0.894228501061,-0.381005880051,-0.029040472116,0.0,0.0,0.0
1609055189791952000,245,1609055189791952000,2.00859427418,0.194598982716,3.61067953702,0.556971124829,0.830421637056,0.0060945721992,-0.0120800250812,-0.908409721646,-0.391866999971,-0.0242598234455,0.0,0.0,0.0
1609055189892002000,246,1609055189892002000,1.91839479132,0.155841452811,3.60500639889,0.549288654148,0.835499287887,0.0021190826613,-0.0147791695473,-0.912497204349,-0.399900651868,-0.0305056502932,0.0,0.0,0.0
1609055189992104000,247,1609055189992104000,1.825960359,0.116023688863,3.5991618109,0.540914608804,0.840903771504,-0.00151114508568,-0.0170279033798,-0.913948468809,-0.403586343031,-0.0313491970007,0.0,0.0,0.0
1609055190092563000,248,1609055190092563000,1.73345457681,0.075469148635,3.59372936069,0.531540015672,0.846830343926,-0.00380586570584,-0.0181409958778,-0.907550360794,-0.407834993535,-0.0334077554849,0.0,0.0,0.0
1609055190192091000,249,1609055190192091000,1.64427887102,0.0354097939465,3.58853757485,0.522233447075,0.852554865545,-0.00666635655895,-0.0194419053045,-0.891288222947,-0.402437096914,-0.0318671876685,0.0,0.0,0.0
1609055190292206000,250,1609055190292206000,1.55567659102,-0.00380484585286,3.58384111577,0.513315978157,0.857849384015,-0.00980964685564,-0.0224702412657,-0.867312460468,-0.392793075041,-0.011096299393,0.0,0.0,0.0
1609055190392216000,251,1609055190392216000,1.46889965688,-0.0422666641545,3.58014823973,0.504481281224,0.862929394439,-0.0118418395601,-0.0266696070986,-0.837996115835,-0.384385913606,-0.0109227540752,0.0,0.0,0.0
1609055190492191000,252,1609055190492191000,1.38782378124,-0.08020782804,3.57671995708,0.496108868748,0.867582277501,-0.0152482453783,-0.0307322815393,-0.794225208086,-0.373251040639,-0.0100352735412,0.0,0.0,0.0
1609055190592265000,253,1609055190592265000,1.30869702198,-0.116584672648,3.57408740629,0.488021528966,0.87203783955,-0.0167297057226,-0.0332432039007,-0.739714071694,-0.358126575743,-0.00982138072412,0.0,0.0,0.0
1609055190692339000,254,1609055190692339000,1.23387961423,-0.152747107478,3.57206329004,0.480255619907,0.876216339517,-0.0162513451693,-0.0365425736827,-0.691171962516,-0.349558457407,-0.00160311357948,0.0,0.0,0.0
1609055190792292000,255,1609055190792292000,1.16159897007,-0.189715490833,3.57091951234,0.472798665912,0.880115216013,-0.015741436453,-0.0401352118748,-0.63799810132,-0.345536524999,-0.0215550822629,0.0,0.0,0.0
1609055190892267000,256,1609055190892267000,1.09722810366,-0.224939856438,3.56659936295,0.465319483568,0.883967290614,-0.0138219991101,-0.0434575618046,-0.585189489941,-0.348354040082,-0.0213547145685,0.0,0.0,0.0
1609055190992348000,257,1609055190992348000,1.04218905428,-0.25770386655,3.56266994323,0.457576658613,0.887806588474,-0.0107647827662,-0.0480331386267,-0.520316619307,-0.354558798945,-0.0573104617892,0.0,0.0,0.0
1609055191092372000,258,1609055191092372000,0.99836240986,-0.289950721502,3.55455509297,0.449444239909,0.892040009851,-0.00796785038052,-0.0469149165873,-0.451714415319,-0.369741161075,-0.115952450036,0.0,0.0,0.0
1609055191192369000,259,1609055191192369000,0.960287602445,-0.324902648684,3.54372793017,0.441169704101,0.896383305231,-0.00596644276426,-0.0427862576993,-0.390709157758,-0.382520906296,-0.129951216937,0.0,0.0,0.0
1609055191292404000,260,1609055191292404000,0.925786052443,-0.362485910304,3.53361118496,0.432638302119,0.900649809074,-0.00464213137331,-0.0404038558802,-0.343986487742,-0.398288072605,-0.14010856133,0.0,0.0,0.0
1609055191392433000,261,1609055191392433000,0.893023060267,-0.403770667837,3.52304998828,0.424137989458,0.9048391083,-0.00287648685134,-0.0369442798399,-0.300783752572,-0.413134055942,-0.143326523304,0.0,0.0,0.0
1609055191492533000,262,1609055191492533000,0.859239270374,-0.447665248027,3.51208261544,0.415287536513,0.909065213738,-0.00225779308897,-0.0336392859409,-0.271376107051,-0.43003100038,-0.120092306136,0.0,0.0,0.0
1609055191592557000,263,1609055191592557000,0.825002265816,-0.493983340751,3.50131575913,0.406673842795,0.913081393327,-0.00135080129013,-0.0299487909855,-0.245442951903,-0.440161390371,-0.124958769241,0.0,0.0,0.0
1609055191692628000,264,1609055191692628000,0.793089344594,-0.54125630075,3.49110155125,0.398775545599,0.916655503816,-0.0017940905787,-0.0267868026097,-0.234404035328,-0.453736042362,-0.118995275505,0.0,0.0,0.0
1609055191792572000,265,1609055191792572000,0.758492428658,-0.588214897929,3.47941058481,0.391287641551,0.919931230004,-0.00314839382492,-0.0247103469912,-0.225280078837,-0.454773219018,-0.120179097255,0.0,0.0,0.0
1609055191892691000,266,1609055191892691000,0.727827885194,-0.635566797792,3.46861783941,0.384279448281,0.922910891517,-0.00401253047724,-0.0234241658801,-0.216023948318,-0.454643090229,-0.107941210279,0.0,0.0,0.0
1609055191992613000,267,1609055191992613000,0.700333556975,-0.681046155927,3.45750516735,0.377452852521,0.925794463799,-0.00225294748675,-0.0207093976286,-0.211837058885,-0.454276554056,-0.0923112897643,0.0,0.0,0.0
1609055192092742000,268,1609055192092742000,0.68345348295,-0.719256380624,3.44557769887,0.370921747492,0.928487224506,0.0010628124448,-0.0180942420718,-0.203407618221,-0.450611694236,-0.0692299263814,0.0,0.0,0.0
1609055192192674000,269,1609055192192674000,0.661527878559,-0.76095751964,3.43698582341,0.364597821113,0.931003852356,0.00386449824391,-0.0168914591071,-0.211186258999,-0.456394294906,-0.0413098661707,0.0,0.0,0.0
1609055192292660000,270,1609055192292660000,0.6376543269,-0.805936152707,3.43088720397,0.358132355087,0.933498697633,0.0045867390379,-0.0173308852065,-0.217558913816,-0.46996694892,-0.0249172232579,0.0,0.0,0.0
1609055192392735000,271,1609055192392735000,0.616082262155,-0.854333718261,3.42806134549,0.352069535264,0.935786211632,0.00431843126124,-0.0182362169684,-0.215648997476,-0.481850038272,-0.00540632423897,0.0,0.0,0.0
1609055192492777000,272,1609055192492777000,0.591734552897,-0.901412679107,3.42474537548,0.346751580754,0.93776619855,0.00387359322303,-0.0185173803984,-0.213019328272,-0.492142179257,0.00443258013945,0.0,0.0,0.0
1609055192592768000,273,1609055192592768000,0.570366241493,-0.952973112558,3.42410057013,0.341044933804,0.939878272345,0.0028809193098,-0.0175751701009,-0.215301135573,-0.511519745816,0.0158915581734,0.0,0.0,0.0
1609055192692780000,274,1609055192692780000,0.544676730816,-1.00360211547,3.42421073943,0.335110427185,0.942030337702,0.00194871026304,-0.0166146612527,-0.216362342765,-0.513892323441,0.0184347764735,0.0,0.0,0.0
1609055192792904000,275,1609055192792904000,0.522439179455,-1.05637488401,3.42700398082,0.329373136575,0.944078821932,0.00242944773843,-0.0149202100151,-0.214533164622,-0.518923003149,0.0286561575646,0.0,0.0,0.0
1609055192892911000,276,1609055192892911000,0.493851122737,-1.10890507802,3.42515610724,0.323906568642,0.94598825252,0.00291237947242,-0.0135010714978,-0.226636533224,-0.52628754387,0.0182983049138,0.0,0.0,0.0
1609055192993096000,277,1609055192993096000,0.471629279508,-1.16184634474,3.42637529745,0.31844210619,0.947839893441,0.0015503484481,-0.0138476650537,-0.232092908034,-0.536042510527,0.0249693856837,0.0,0.0,0.0
1609055193092943000,278,1609055193092943000,0.440415480555,-1.21670543867,3.42535076972,0.313039522984,0.949626409172,-0.000903133278706,-0.0146671198151,-0.239273885829,-0.537979526094,0.00952418346173,0.0,0.0,0.0
1609055193193091000,279,1609055193193091000,0.41811299581,-1.26827626274,3.42634228684,0.307795042399,0.951337762432,-0.00136052741097,-0.0147248976286,-0.23638317083,-0.537154229683,-0.00271762409355,0.0,0.0,0.0
1609055193293027000,280,1609055193293027000,0.390909580929,-1.32157490348,3.42379025202,0.302629639136,0.95301036194,-0.00287149462624,-0.0133531296299,-0.233316966604,-0.532099302028,-0.0101532084387,0.0,0.0,0.0
