%time,field.header.seq,field.header.stamp,field.pose.pose.position.x,field.pose.pose.position.y,field.pose.pose.position.z,field.pose.pose.orientation.x,field.pose.pose.orientation.y,field.pose.pose.orientation.z,field.pose.pose.orientation.w,field.twist.twist.linear.x,field.twist.twist.linear.y,field.twist.twist.linear.z,field.twist.twist.angular.x,field.twist.twist.angular.y,field.twist.twist.angular.z
1609045387495360000,0,1609045387495360000,-0.157717649986,-0.372395026077,0.609843796247,0.9994574851,0.00145366049572,0.0326573893328,0.00401463209202,-0.237484529258,-0.372024165653,0.076720583763,0.0,0.0,0.0
1609045387595426000,1,1609045387595426000,-0.36299191767,-0.581100759239,0.929611473737,0.998695025647,0.00167578638351,0.0509177509246,0.00358052078556,-0.59522271533,-0.521714050333,0.308288415712,0.0,0.0,0.0
1609045387695525000,2,1609045387695525000,-0.433409685789,-0.61776678846,0.910816976578,0.998596884496,0.00192134857894,0.0526878663942,0.00495574702562,-0.725931427941,-0.473311753819,0.140513925682,0.0,0.0,0.0
1609045387795539000,3,1609045387795539000,-0.461445285727,-0.596462444582,0.783553876231,0.999401106356,0.00245134913079,0.0325596550806,-0.0114581133838,-0.740416638223,-0.404002210468,-0.0500776533208,0.0,0.0,0.0
1609045387895523000,4,1609045387895523000,-0.398261536806,-0.564800844959,0.608582991718,0.999617159114,0.00232570330753,0.0114565033951,-0.0250773770542,-0.556424821928,-0.409537555831,-0.122751705559,0.0,0.0,0.0
1609045387995526000,5,1609045387995526000,-0.430771042103,-0.585626159193,0.559833414294,0.999544744666,0.00214948902676,0.00544273283828,-0.0295983068325,-0.514532342678,-0.438679072041,-0.133089879068,0.0,0.0,0.0
1609045388095547000,6,1609045388095547000,-0.43758680846,-0.582419752833,0.476873714576,0.999579249769,0.0019457113505,0.00288868042885,-0.0287957143368,-0.43750337879,-0.442722723762,-0.15054309396,0.0,0.0,0.0
1609045388195611000,7,1609045388195611000,-0.45740353082,-0.606240802598,0.436977508624,0.999611886367,0.00179540710562,0.00217747065466,-0.0277148293986,-0.387879113583,-0.454255888099,-0.172264451799,0.0,0.0,0.0
1609045388295632000,8,1609045388295632000,-0.468795398298,-0.644404831998,0.40646747645,0.999837838771,0.00189725902909,0.00101063618141,-0.0178794626293,-0.327757066741,-0.489325087397,-0.160984025415,0.0,0.0,0.0
1609045388395618000,9,1609045388395618000,-0.48686318841,-0.699304291257,0.39402245269,0.999964303885,0.00266554523914,0.00750994458275,0.00280830141111,-0.292466697404,-0.501708032425,-0.143338322067,0.0,0.0,0.0
1609045388495766000,10,1609045388495766000,-0.53285745158,-0.760524754491,0.385132431273,0.999614722569,0.00327483982512,0.0162615498046,0.022254074794,-0.316833254217,-0.476691105055,-0.12387497771,0.0,0.0,0.0
1609045388595797000,11,1609045388595797000,-0.55456621956,-0.778094886638,0.380448144599,0.9991285662,0.00350366761241,0.0196064365359,0.0366799695144,-0.327105396253,-0.377561201924,-0.00510960530847,0.0,0.0,0.0
1609045388695822000,12,1609045388695822000,-0.540995385444,-0.73835429514,0.400562186857,0.998788057362,0.00363399375085,0.0189689799883,0.0452701707374,-0.302514737515,-0.1986012569,0.140572252603,0.0,0.0,0.0
1609045388795843000,13,1609045388795843000,-0.48610712884,-0.660792022315,0.463938612701,0.998900366246,0.00363322324538,0.0166610469149,0.0436722740102,-0.235267593958,0.00813077072671,0.3192655465,0.0,0.0,0.0
1609045388895904000,14,1609045388895904000,-0.445635683267,-0.600082660835,0.541380990387,0.999444950524,0.00336853835571,0.0132297820203,0.0303877720192,-0.195815257446,0.15232383253,0.431281795344,0.0,0.0,0.0
1609045388996365000,15,1609045388996365000,-0.474343119255,-0.584491477848,0.60266256037,0.999888680116,0.00284645821922,0.00970130702324,0.0109731351099,-0.20843739192,0.206639421558,0.479678775612,0.0,0.0,0.0
1609045389096148000,16,1609045389096148000,-0.498761621034,-0.562529159726,0.650387869872,0.999969569073,0.00265587736395,0.00495318617559,-0.00541047034977,-0.202255876581,0.22136788207,0.461050047101,0.0,0.0,0.0
1609045389196393000,17,1609045389196393000,-0.527424892217,-0.542200891031,0.70262528777,0.999840328701,0.00257401755674,0.00202233374176,-0.0175670630233,-0.192698547357,0.200798960598,0.475281306,0.0,0.0,0.0
1609045389295966000,18,1609045389295966000,-0.540483569974,-0.516850312023,0.744194946022,0.999750168964,0.00257350155002,0.0013034123528,-0.0221647888159,-0.160534034481,0.179953974798,0.467214033297,0.0,0.0,0.0
1609045389396023000,19,1609045389396023000,-0.546821684861,-0.4971825508,0.785294669515,0.999756424229,0.00255623225191,0.00384490916657,-0.0215818109516,-0.123147605529,0.14723775918,0.457857410565,0.0,0.0,0.0
1609045389496002000,20,1609045389496002000,-0.569119208024,-0.480294111845,0.830326396523,0.999793129953,0.00228491912698,0.00733534973964,-0.0188326601305,-0.109550482922,0.122104480016,0.414479390578,0.0,0.0,0.0
1609045389596025000,21,1609045389596025000,-0.5765723779,-0.467861780525,0.867574705867,0.999781211247,0.00214157352633,0.0115695729441,-0.0172941690122,-0.099690578519,0.108646236125,0.318645267324,0.0,0.0,0.0
1609045389696071000,22,1609045389696071000,-0.581523211768,-0.448124644896,0.89060766968,0.999756931611,0.00206023619181,0.0156671556699,-0.0153744383871,-0.0921507763867,0.101978077583,0.214979864164,0.0,0.0,0.0
1609045389796620000,23,1609045389796620000,-0.585148519901,-0.438197696033,0.908123812902,0.999639211194,0.00224146491421,0.0225566812191,-0.0144090044911,-0.0978557233134,0.0934936298236,0.163697877354,0.0,0.0,0.0
1609045389896535000,24,1609045389896535000,-0.584518583733,-0.420949579991,0.918924475279,0.999552844813,0.00240627832433,0.0259573336848,-0.0146470842942,-0.114036949099,0.0966313937379,0.131639408019,0.0,0.0,0.0
1609045389996134000,25,1609045389996134000,-0.599359220168,-0.414662745975,0.940371769993,0.999496793819,0.00253964568522,0.0261809417113,-0.0177275953266,-0.147493192488,0.0893790703765,0.165028808025,0.0,0.0,0.0
1609045390096399000,26,1609045390096399000,-0.615143302467,-0.408357598264,0.967591313357,0.999504782017,0.00281186992508,0.0204556168965,-0.023745564832,-0.165141937503,0.0704449646316,0.195283997032,0.0,0.0,0.0
1609045390196212000,27,1609045390196212000,-0.632407575445,-0.402613372762,0.988955761966,0.999490073054,0.00296089118076,0.0132241054196,-0.0289128003843,-0.178025221231,0.0381117659555,0.201315600593,0.0,0.0,0.0
1609045390296261000,28,1609045390296261000,-0.648288212022,-0.397059550227,1.00798312607,0.999526893897,0.00313628547015,0.00394812348307,-0.0303408043765,-0.161660762118,0.00196206236083,0.215907089492,0.0,0.0,0.0
1609045390396236000,29,1609045390396236000,-0.669652068145,-0.39003288025,1.03839504324,0.999523448319,0.0033385765788,0.000311100209741,-0.0306860454061,-0.140709005794,-0.0217531493728,0.19671545865,0.0,0.0,0.0
1609045390496291000,30,1609045390496291000,-0.680395483175,-0.391874876318,1.05299233233,0.999562018729,0.00347778358145,-0.00107367173757,-0.0293687412717,-0.106737870234,-0.0564085068409,0.205078056475,0.0,0.0,0.0
1609045390596347000,31,1609045390596347000,-0.698726751561,-0.39078749862,1.08021246453,0.999759291621,0.00342271037729,-0.000861444138345,-0.0216541401519,-0.0835966483399,-0.0890628370112,0.244371740598,0.0,0.0,0.0
1609045390696380000,32,1609045390696380000,-0.701842420584,-0.402562758378,1.1046302682,0.999944422581,0.00361899691614,-0.00059023897453,-0.00988464610238,-0.051767823363,-0.102755825001,0.250772912131,0.0,0.0,0.0
1609045390796373000,33,1609045390796373000,-0.70520268843,-0.410544316918,1.13101873743,0.999988786711,0.0039891470146,0.00138749734529,0.00214196370335,-0.0218778283238,-0.072458467133,0.270637219255,0.0,0.0,0.0
1609045390896441000,34,1609045390896441000,-0.714571202753,-0.40920594931,1.15426506129,0.999944058883,0.00375730480527,0.00397305553645,0.00905409270152,-0.0150135386242,-0.0277174201125,0.271194358087,0.0,0.0,0.0
1609045390996495000,35,1609045390996495000,-0.712500010191,-0.409748160499,1.18338713255,0.999918935681,0.00387605482149,0.00475161967319,0.0111588698131,0.00442081083813,0.0225458877877,0.25886046924,0.0,0.0,0.0
1609045391096514000,36,1609045391096514000,-0.718828185689,-0.398093354412,1.20968198595,0.999928931221,0.00392851371568,0.0056475162355,0.00973677804219,0.0133404517432,0.0801651714435,0.249205950372,0.0,0.0,0.0
1609045391196530000,37,1609045391196530000,-0.714468279416,-0.39132496263,1.23534051886,0.999944626591,0.00401254405642,0.00680610426327,0.00695127225172,0.0319283322,0.124323331125,0.247298612173,0.0,0.0,0.0
1609045391296847000,38,1609045391296847000,-0.711316398043,-0.3782579936,1.26116014854,0.999953718434,0.00407327672896,0.00807958399493,0.00326951508624,0.0428540845023,0.160175982643,0.242734892381,0.0,0.0,0.0
1609045391396597000,39,1609045391396597000,-0.70846291309,-0.361641116428,1.28893930773,0.999953746617,0.00406207761054,0.00831878100291,-0.00260807114667,0.0492482951874,0.198650298245,0.222360421218,0.0,0.0,0.0
1609045391496630000,40,1609045391496630000,-0.706342168673,-0.342008231483,1.31569554908,0.999910577973,0.00405398633302,0.00606520046871,-0.0112077917724,0.055469403616,0.216555389069,0.201746393202,0.0,0.0,0.0
1609045391596631000,41,1609045391596631000,-0.70237833583,-0.320239067272,1.33842460517,0.999836176941,0.00388224938711,0.00374816663272,-0.0172771139358,0.0715602855668,0.21585028623,0.205017401946,0.0,0.0,0.0
1609045391696601000,42,1609045391696601000,-0.692839369393,-0.297966750029,1.35993249936,0.999731016772,0.00374178011129,0.00361666357807,-0.0226011709704,0.0939791197167,0.209877581863,0.224699036997,0.0,0.0,0.0
1609045391796658000,43,1609045391796658000,-0.683968942467,-0.275720632321,1.39199423377,0.999665491972,0.00374343362973,0.00534365281951,-0.0250267105124,0.113429624957,0.200455518815,0.248154099279,0.0,0.0,0.0
1609045391896710000,44,1609045391896710000,-0.66627759917,-0.259400960509,1.41330877956,0.999603199554,0.0038992770997,0.00839934939991,-0.0266024436763,0.129082060749,0.184914940191,0.248807791636,0.0,0.0,0.0
1609045391996735000,45,1609045391996735000,-0.650406717744,-0.242532221647,1.4403010653,0.999528346022,0.00379992365988,0.0116265998884,-0.0281685685317,0.13504406017,0.166458704657,0.257539880501,0.0,0.0,0.0
1609045392096783000,46,1609045392096783000,-0.635156399414,-0.227013127231,1.46988163642,0.999485013375,0.00384910917647,0.0128664570407,-0.0291435529812,0.133940062688,0.15087183751,0.255025406638,0.0,0.0,0.0
1609045392196824000,47,1609045392196824000,-0.617250806858,-0.212703331249,1.49322401442,0.999446213691,0.00391830250093,0.0134058640309,-0.030202576948,0.141250763847,0.130350810619,0.257481699567,0.0,0.0,0.0
1609045392296941000,48,1609045392296941000,-0.601490604359,-0.201422237029,1.51434461495,0.999391528962,0.00405052142995,0.0173257025115,-0.0299997524538,0.14375776288,0.113051836336,0.273066855815,0.0,0.0,0.0
1609045392396914000,49,1609045392396914000,-0.584279454783,-0.191160127807,1.53123164281,0.99923915592,0.00383577542321,0.0257749710207,-0.0290180456249,0.131546769842,0.106373594076,0.158335237548,0.0,0.0,0.0
1609045392496863000,50,1609045392496863000,-0.569447751167,-0.181481532723,1.54120725925,0.999036933302,0.00368004969523,0.0338740521278,-0.0276443796205,0.10062717388,0.101121318784,0.0463587865831,0.0,0.0,0.0
1609045392596892000,51,1609045392596892000,-0.563298399929,-0.171146653834,1.55027019909,0.998866957034,0.00363290274224,0.0389339520504,-0.0271247403748,0.0599498160939,0.097284544929,-0.00097228687342,0.0,0.0,0.0
1609045392696967000,52,1609045392696967000,-0.561883586679,-0.161925521351,1.5527041804,0.998578108948,0.00344051026596,0.0449810765945,-0.0284011613798,0.00642802671124,0.0896153062587,-0.0316389782536,0.0,0.0,0.0
1609045392797036000,53,1609045392797036000,-0.562254078292,-0.14636391927,1.568849778,0.998370620303,0.0033033290991,0.0489870337982,-0.029076847364,-0.0544235808673,0.0861221122342,-0.081096555772,0.0,0.0,0.0
1609045392897022000,54,1609045392897022000,-0.573136623366,-0.135340100989,1.57265572483,0.998486758685,0.00339514740941,0.0463321000089,-0.0294279155433,-0.12450878028,0.0793907312584,-0.134192326896,0.0,0.0,0.0
1609045392997072000,55,1609045392997072000,-0.581571484786,-0.116653643837,1.59321382108,0.998679523386,0.00375229647599,0.0415694586718,-0.0299517937098,-0.175077230333,0.0748319569563,-0.00319247855875,0.0,0.0,0.0
1609045393097180000,56,1609045393097180000,-0.603222488829,-0.10979272366,1.59723481684,0.998654245462,0.00366315688938,0.0397969357879,-0.0330527336726,-0.228705203957,0.0681419625164,0.055369334648,0.0,0.0,0.0
1609045393197182000,57,1609045393197182000,-0.63254058015,-0.104247643998,1.61112493488,0.998782025816,0.00391592905733,0.0347113900048,-0.0348460874391,-0.278723683258,0.0498551347205,0.0731220881689,0.0,0.0,0.0
1609045393297192000,58,1609045393297192000,-0.661754438547,-0.100534331992,1.62421575484,0.998968730917,0.00431214201312,0.0276715507926,-0.0357374503617,-0.304579835306,0.0356852090831,0.0958635645263,0.0,0.0,0.0
1609045393397297000,59,1609045393397297000,-0.69725044022,-0.0906383728825,1.64797353708,0.999060545434,0.00433213494772,0.0229929800763,-0.0364771439435,-0.320340527358,0.026373753347,0.137360711593,0.0,0.0,0.0
1609045393497226000,60,1609045393497226000,-0.728674329734,-0.0897478820108,1.65749758044,0.999131223763,0.00454882816629,0.0191525773049,-0.036732610125,-0.322124622869,0.018589729059,0.158532222157,0.0,0.0,0.0
1609045393597262000,61,1609045393597262000,-0.771233493044,-0.0846813496481,1.67751579097,0.99909000917,0.00487841118795,0.0171124085512,-0.0387623548757,-0.324407998079,0.0151674380203,0.199917634073,0.0,0.0,0.0
1609045393697302000,62,1609045393697302000,-0.804245350755,-0.0845148777426,1.69701888623,0.998993485665,0.00473988146531,0.0149715187441,-0.0420166960763,-0.316094805341,0.00771524230501,0.209887300316,0.0,0.0,0.0
1609045393797300000,63,1609045393797300000,-0.836417299448,-0.0867140532491,1.71566122262,0.998794169049,0.00463824185997,0.0159016458921,-0.0462150651305,-0.301954990965,-0.0207551652494,0.207013319179,0.0,0.0,0.0
1609045393897314000,64,1609045393897314000,-0.867064396599,-0.0968306721354,1.72787561707,0.998924390131,0.00465995072362,0.0158425152708,-0.043328539919,-0.293960146792,-0.056097973648,0.176821269813,0.0,0.0,0.0
1609045393997443000,65,1609045393997443000,-0.894616008244,-0.107041083642,1.74369171198,0.999117978505,0.0048906743439,0.0182216147793,-0.037514251784,-0.278370798982,-0.0705603102226,0.223877787685,0.0,0.0,0.0
1609045394097431000,66,1609045394097431000,-0.920217522525,-0.11477943908,1.75978054839,0.999020879062,0.00477190404518,0.0262571061965,-0.0352856416181,-0.273308701577,-0.0714378599044,0.246260714653,0.0,0.0,0.0
1609045394197454000,67,1609045394197454000,-0.947293391711,-0.124450492586,1.77709038089,0.999063083339,0.00455896099159,0.0329681942708,-0.0276635057658,-0.293598171576,-0.0662654312637,0.183173196159,0.0,0.0,0.0
1609045394297519000,68,1609045394297519000,-0.978333454315,-0.128837356922,1.79100468575,0.998987377661,0.00443256238477,0.0392496542383,-0.021541501959,-0.320725220939,-0.0320578712724,0.0861486943125,0.0,0.0,0.0
1609045394397501000,69,1609045394397501000,-1.01445224239,-0.124016632054,1.79118506002,0.999035505709,0.00437183067081,0.0401503817251,-0.0172305623072,-0.362688688013,0.00557846927383,-0.015246112212,0.0,0.0,0.0
1609045394497642000,70,1609045394497642000,-1.05543618415,-0.117067149729,1.8006667024,0.999145858755,0.0044284205072,0.0378923338135,-0.0158780685967,-0.399668004023,0.0500118020037,-0.0572760363209,0.0,0.0,0.0
1609045394597592000,71,1609045394597592000,-1.09896797665,-0.10577204226,1.78740883036,0.999227249774,0.00461314760368,0.0360678303794,-0.0149242685053,-0.430486576012,0.0888900560629,-0.0710688614259,0.0,0.0,0.0
1609045394697624000,72,1609045394697624000,-1.14255228869,-0.0958122089754,1.77902356175,0.99927421816,0.0047427786221,0.0343647196277,-0.0157355970941,-0.45562960531,0.12410328409,-0.0941892999109,0.0,0.0,0.0
1609045394797633000,73,1609045394797633000,-1.19166458939,-0.0815867733268,1.77130670769,0.999451895246,0.0047926846079,0.0296656999409,-0.0138883227919,-0.478419710414,0.160220936984,-0.106894804522,0.0,0.0,0.0
1609045394897642000,74,1609045394897642000,-1.2423321328,-0.0631446095933,1.76235180341,0.999595274151,0.00512640679444,0.0248111607429,-0.0129388620544,-0.487706161592,0.205714866887,-0.0831616130328,0.0,0.0,0.0
1609045394997684000,75,1609045394997684000,-1.29750570543,-0.0350065238267,1.75740908063,0.999624524961,0.00522424687879,0.0223725821195,-0.0149326457875,-0.49535838247,0.252196904702,-0.00768033195688,0.0,0.0,0.0
1609045395097699000,76,1609045395097699000,-1.3414430097,-0.00689224105162,1.7605982539,0.999530044372,0.00540120308909,0.0196178493179,-0.0229272194518,-0.486223405822,0.285707544177,0.0731343821572,0.0,0.0,0.0
1609045395197747000,77,1609045395197747000,-1.38815639611,0.0236095777663,1.76992669905,0.999303834394,0.00535706918734,0.0178476422648,-0.0323204276152,-0.47406059238,0.296295847663,0.140509279718,0.0,0.0,0.0
1609045395297777000,78,1609045395297777000,-1.44552249062,0.0592203734602,1.78615888134,0.999013999774,0.00501354715058,0.0169858171905,-0.0407108660598,-0.473393489422,0.29259175817,0.176134875826,0.0,0.0,0.0
1609045395397771000,79,1609045395397771000,-1.4894480529,0.0872761911768,1.80432483195,0.998839054826,0.00497461358464,0.0149120232939,-0.0455349023859,-0.457683461912,0.266587353608,0.182293122436,0.0,0.0,0.0
1609045395497760000,80,1609045395497760000,-1.53542636691,0.119080340099,1.81818206377,0.998629944672,0.00503523038387,0.010860471637,-0.0509404575559,-0.44360939735,0.247952958969,0.179862996009,0.0,0.0,0.0
1609045395597875000,81,1609045395597875000,-1.58070512559,0.142257411498,1.83700497798,0.99853306424,0.00515017867649,0.00722936170204,-0.0534128412319,-0.415497350725,0.206315858298,0.193915807379,0.0,0.0,0.0
1609045395697930000,82,1609045395697930000,-1.61980819191,0.160695413641,1.85366665267,0.998528271878,0.0051838700053,0.00557400504781,-0.0536968175979,-0.381699452349,0.163732066569,0.174101212223,0.0,0.0,0.0
1609045395797921000,83,1609045395797921000,-1.65826788993,0.179675288188,1.86735472814,0.998566973742,0.00523123599259,0.0048275476425,-0.0530408135889,-0.349035304954,0.133015533204,0.164294481795,0.0,0.0,0.0
1609045395897916000,84,1609045395897916000,-1.68962300895,0.191203278291,1.88188936313,0.998649258238,0.00532737887949,0.00441577098612,-0.0514954271892,-0.315185438824,0.0992642404934,0.131596984088,0.0,0.0,0.0
1609045395997981000,85,1609045395997981000,-1.71688478792,0.199113929315,1.89410012148,0.998674497575,0.00535217261733,0.00446453971098,-0.0509967648689,-0.2826009145,0.063392180406,0.110112225654,0.0,0.0,0.0
1609045396097954000,86,1609045396097954000,-1.73906719102,0.203910250316,1.9046577751,0.998734899744,0.00535482310763,0.00436499926094,-0.0498083595775,-0.24866872345,0.0350407615472,0.0977092583182,0.0,0.0,0.0
1609045396197965000,87,1609045396197965000,-1.75719530909,0.205926738654,1.9131579734,0.998758937924,0.00537572520296,0.00461665328065,-0.04929880331,-0.21555775645,0.00758577732211,0.0883508467542,0.0,0.0,0.0
1609045396298008000,88,1609045396298008000,-1.77218987395,0.204608648702,1.92218416665,0.998758751352,0.00538674457266,0.00403001201466,-0.0493527971222,-0.183009312468,-0.0244099723864,0.106415696476,0.0,0.0,0.0
1609045396398048000,89,1609045396398048000,-1.78236944589,0.199435737219,1.93434435969,0.998752846751,0.00555155772591,0.00326714662133,-0.0495101713525,-0.146093590442,-0.0581634190634,0.131726295687,0.0,0.0,0.0
1609045396498076000,90,1609045396498076000,-1.78819999439,0.190801733289,1.95062909268,0.998750087451,0.0054282352854,0.00268181006601,-0.0496145641168,-0.111716760388,-0.0889164905086,0.170726915807,0.0,0.0,0.0
1609045396598152000,91,1609045396598152000,-1.79270415266,0.178627933441,1.9680333568,0.998719214909,0.00549833770905,0.00251456082098,-0.0502332065356,-0.0714196675303,-0.127722604988,0.213780758686,0.0,0.0,0.0
1609045396698183000,92,1609045396698183000,-1.79469581523,0.160300022448,1.9861027348,0.99874629608,0.00548594574258,0.00310804411735,-0.0496596468715,-0.0349931760484,-0.168346276945,0.223181886492,0.0,0.0,0.0
1609045396798192000,93,1609045396798192000,-1.79004878586,0.136554364127,2.00196592339,0.998951069718,0.00540026768864,0.00514544584518,-0.0451787760497,-0.00246563076127,-0.199042284343,0.163327337976,0.0,0.0,0.0
1609045396898191000,94,1609045396898191000,-1.77946249457,0.11033660786,2.00938678973,0.999214328904,0.00533718557223,0.00899095040301,-0.0382282902272,0.0259902397508,-0.217208276447,0.121654267333,0.0,0.0,0.0
1609045396998219000,95,1609045396998219000,-1.76434516277,0.0823212399102,2.01945898521,0.999437974922,0.00538625964927,0.0124166605257,-0.0306683718416,0.0420805573114,-0.22307352792,0.0869750822321,0.0,0.0,0.0
1609045397098222000,96,1609045397098222000,-1.74331921909,0.0612735463776,2.02415103784,0.999672806084,0.00537822151455,0.0137911434358,-0.020860485924,0.0621538670121,-0.207339849511,0.0598508242627,0.0,0.0,0.0
1609045397198294000,97,1609045397198294000,-1.7440052203,0.0416556281723,2.03364417699,0.999830611879,0.00582899223199,0.0152628980036,-0.00847433445491,0.0640617335618,-0.179738150613,0.0410635308772,0.0,0.0,0.0
1609045397298303000,98,1609045397298303000,-1.72158370485,0.0288915240423,2.04476206595,0.999809883371,0.00587611646739,0.0169961963431,0.00753642344165,0.0751544232008,-0.114016025725,0.0408547985917,0.0,0.0,0.0
1609045397398341000,99,1609045397398341000,-1.71076493293,0.0188729045614,2.04959794881,0.999631223189,0.00624042484084,0.019350979733,0.0180003974061,0.0768763649427,-0.0235607314217,0.0280938680996,0.0,0.0,0.0
1609045397498376000,100,1609045397498376000,-1.68334744002,0.0173304347412,2.05778200933,0.999514955368,0.00636659170987,0.0208824992872,0.0222090461027,0.078901858731,0.0838736816252,-0.000246092962954,0.0,0.0,0.0
1609045397598398000,101,1609045397598398000,-1.67651667096,0.0329401068652,2.0606947888,0.999558678358,0.00648735867665,0.0205973060114,0.0203988646987,0.067120364218,0.194968730578,-0.00011238298665,0.0,0.0,0.0
1609045397698456000,102,1609045397698456000,-1.66197037193,0.0551973337645,2.06713789243,0.999661341878,0.00636378400091,0.0195259971662,0.0159824667022,0.0648940274967,0.291084219283,0.0122813658615,0.0,0.0,0.0
1609045397798470000,103,1609045397798470000,-1.65726616893,0.0873196869881,2.06956106105,0.999769440197,0.00603939625425,0.0186147803893,0.00883640715864,0.0586082081893,0.372049160347,0.0203304117899,0.0,0.0,0.0
1609045397898399000,104,1609045397898399000,-1.64660361149,0.126107575442,2.0712594364,0.999797687836,0.00572669374497,0.0192623979188,0.000865103047953,0.0577838359118,0.432584534156,0.0475767600077,0.0,0.0,0.0
1609045397998507000,105,1609045397998507000,-1.6354212653,0.172963377923,2.07309038762,0.999650403486,0.00537646812642,0.0240846653834,-0.00949174872014,0.0515507298078,0.484431292465,0.0759057337834,0.0,0.0,0.0
1609045398098518000,106,1609045398098518000,-1.62133783971,0.22005598321,2.08255896266,0.99933473987,0.00484962419273,0.0301123623742,-0.0199951110561,0.0320981822159,0.514177971706,0.0806618927873,0.0,0.0,0.0
1609045398198596000,107,1609045398198596000,-1.62086355505,0.273633606167,2.09230539771,0.999009983791,0.00444317778739,0.0345129374533,-0.0277158367297,-0.00761041227009,0.514108164157,0.0970030099263,0.0,0.0,0.0
1609045398298582000,108,1609045398298582000,-1.6131275651,0.319247731948,2.1044665121,0.99873468252,0.00433835821801,0.0371269121151,-0.0336423093121,-0.0452775010799,0.507512857789,0.102260723297,0.0,0.0,0.0
1609045398398585000,109,1609045398398585000,-1.62114662798,0.368511321247,2.11627544675,0.998530334957,0.00442952347993,0.0382019199382,-0.0381858979972,-0.0940152934353,0.488793249233,0.0995869894189,0.0,0.0,0.0
1609045398498676000,110,1609045398498676000,-1.62477991251,0.41021324305,2.13052621352,0.9984690297,0.00417766684581,0.0377837585508,-0.04018123218,-0.14065825036,0.466902477881,0.0925966971246,0.0,0.0,0.0
1609045398598720000,111,1609045398598720000,-1.64310448873,0.455692390509,2.14471967016,0.99863410998,0.00426595375152,0.0331148294371,-0.0401886065311,-0.188532025606,0.443664989251,0.0730121296978,0.0,0.0,0.0
1609045398698744000,112,1609045398698744000,-1.6649229488,0.498271020129,2.15442975492,0.998877111151,0.0044536278605,0.0267280652517,-0.0388624824887,-0.219936595871,0.421990278969,0.0593730997141,0.0,0.0,0.0
1609045398798774000,113,1609045398798774000,-1.68947024139,0.539412219368,2.16223265658,0.999099386698,0.00474101253654,0.0195959948284,-0.0373354427619,-0.244508322616,0.409228328679,0.0162999400415,0.0,0.0,0.0
1609045398898814000,114,1609045398898814000,-1.71584540229,0.579980174531,2.16997857198,0.999216327644,0.00497922956787,0.0111497886204,-0.0376512955486,-0.250609330819,0.395393005746,0.0123530979775,0.0,0.0,0.0
1609045398998826000,115,1609045398998826000,-1.73996923689,0.616498779891,2.1801248067,0.999205702837,0.00518356058948,0.0037848494883,-0.0393289846238,-0.24194073985,0.383278552363,0.0097978995302,0.0,0.0,0.0
1609045399098836000,116,1609045399098836000,-1.76271415824,0.654760957399,2.17700908544,0.999121868995,0.00521648855642,-0.00187030229555,-0.0415304841252,-0.217401888015,0.365360995803,0.00200518573825,0.0,0.0,0.0
1609045399198834000,117,1609045399198834000,-1.78955335478,0.69265792958,2.18149151992,0.99910580918,0.00507515693382,-0.0042160737701,-0.0417618194975,-0.195315008169,0.344709193639,0.0331634951395,0.0,0.0,0.0
1609045399298891000,118,1609045399298891000,-1.8070172651,0.721799294272,2.17730181901,0.999255323854,0.00515115920976,-0.00333827316376,-0.0380935590427,-0.163282798707,0.314163582968,0.0243596465867,0.0,0.0,0.0
1609045399398921000,119,1609045399398921000,-1.82196647473,0.749472175292,2.17069883246,0.999513128198,0.00523661437669,-8.51061175504e-05,-0.0307583677382,-0.140451695316,0.295281665939,0.0212603982322,0.0,0.0,0.0
1609045399498905000,120,1609045399498905000,-1.83577178245,0.777689697049,2.16964740402,0.999750709701,0.0053135750771,0.00380798629543,-0.0213490892678,-0.129781425949,0.305961889495,0.0033164196268,0.0,0.0,0.0
1609045399598968000,121,1609045399598968000,-1.84940024593,0.80963677022,2.17165571126,0.999857768575,0.00556821329077,0.00645374950932,-0.0145528944761,-0.127748508722,0.333263030435,-0.00599305476359,0.0,0.0,0.0
1609045399698991000,122,1609045399698991000,-1.86608426662,0.843310396567,2.15898098003,0.99989204155,0.00556732577924,0.00839776402033,-0.0106952179629,-0.130503250815,0.369645118972,-0.0128233442967,0.0,0.0,0.0
1609045399798997000,123,1609045399798997000,-1.87758860459,0.885056497922,2.16269915843,0.999890165078,0.00571017814391,0.00969554606701,-0.00964614076406,-0.132984075168,0.418601777908,0.0049800428817,0.0,0.0,0.0
1609045399899083000,124,1609045399899083000,-1.8918694998,0.929594711754,2.16551944632,0.999862291597,0.00570543008933,0.0104514601781,-0.0115591042032,-0.140988732641,0.460231347125,0.00591058142695,0.0,0.0,0.0
1609045399999143000,125,1609045399999143000,-1.90792840504,0.983219423544,2.16478299763,0.999748600954,0.00525564359459,0.0123623781159,-0.0179522897991,-0.147779449861,0.502468637755,0.0336116973438,0.0,0.0,0.0
1609045400099162000,126,1609045400099162000,-1.92183599921,1.03425476428,2.16827280495,0.999471442973,0.00472756795309,0.0141602723954,-0.028878564171,-0.160312406977,0.51511788465,0.0381863059137,0.0,0.0,0.0
1609045400199161000,127,1609045400199161000,-1.93769945625,1.08406349406,2.17172541341,0.999135396067,0.00424696153895,0.0152777930113,-0.0384319227376,-0.171920108903,0.497254729163,0.0485666039729,0.0,0.0,0.0
1609045400299159000,128,1609045400299159000,-1.95369825337,1.12994041465,2.17205160582,0.998774767162,0.00389972299444,0.0189150563662,-0.0455628937131,-0.187551156408,0.466491134917,0.0704065897795,0.0,0.0,0.0
1609045400399199000,129,1609045400399199000,-1.97273659872,1.17057160829,2.17415159072,0.998502453708,0.00357254970264,0.0263384983113,-0.0478160050125,-0.217433578615,0.424583809643,0.067936401939,0.0,0.0,0.0
1609045400499244000,130,1609045400499244000,-1.99156087292,1.20617137671,2.17811544306,0.99827206708,0.00336718450124,0.0327423482887,-0.0486773128322,-0.260915261098,0.377819408501,0.0580861616649,0.0,0.0,0.0
1609045400599236000,131,1609045400599236000,-2.02123824153,1.24137634501,2.18725763939,0.998133416784,0.00338231596839,0.037019700301,-0.0484539371671,-0.323093966358,0.339674785388,0.0481955051255,0.0,0.0,0.0
1609045400699269000,132,1609045400699269000,-2.05173659506,1.26455881047,2.19728141076,0.998191699062,0.00339846618004,0.0362265922855,-0.0478478459478,-0.38666600701,0.292657738097,0.026627476882,0.0,0.0,0.0
1609045400799349000,133,1609045400799349000,-2.09803554042,1.29295118125,2.20296081045,0.998409805965,0.00362350052026,0.0290429209623,-0.0481792314084,-0.449361227034,0.264784127674,-0.010016405616,0.0,0.0,0.0
1609045400899367000,134,1609045400899367000,-2.14883679769,1.31538431943,2.20247381674,0.99841403087,0.00392612667557,0.0164393487718,-0.053700617339,-0.486350009579,0.233295123137,-0.0371811562395,0.0,0.0,0.0
1609045400999382000,135,1609045400999382000,-2.19914778363,1.33309371804,2.20025106611,0.99815492674,0.00398673142602,0.00631694535931,-0.0602573182133,-0.493224532404,0.176834439247,-0.0325926141236,0.0,0.0,0.0
1609045401099434000,136,1609045401099434000,-2.25052113746,1.33292542994,2.20813649838,0.997691094189,0.00394044698614,-0.00197392445111,-0.0677720965842,-0.484507587978,0.105123116005,-0.0160416964067,0.0,0.0,0.0
1609045401199502000,137,1609045401199502000,-2.29763722948,1.34108527482,2.2065538589,0.997222142555,0.00360852938042,-0.006060529048,-0.0741501645416,-0.458608428974,0.0246893569123,-0.00638188151421,0.0,0.0,0.0
1609045401299451000,138,1609045401299451000,-2.33948538793,1.33559186311,2.19881526341,0.996814519636,0.00349318481172,-0.00778451233216,-0.0792969890397,-0.428822167677,-0.0701141998561,-0.00797236969477,0.0,0.0,0.0
1609045401399476000,139,1609045401399476000,-2.36879728007,1.31486678293,2.19690307985,0.996495913812,0.00329388026136,-0.00791758024359,-0.0832006973095,-0.3930709196,-0.172776263042,-0.00525155254841,0.0,0.0,0.0
1609045401499490000,140,1609045401499490000,-2.40605132281,1.29367053118,2.19395168624,0.996226760129,0.00318460737804,-0.00609267930281,-0.0865157785453,-0.368403708556,-0.282375594155,-0.00272313169496,0.0,0.0,0.0
1609045401599517000,141,1609045401599517000,-2.44328226526,1.26285690492,2.19217684008,0.996263542577,0.00304757458132,-0.00344067527267,-0.0862428418772,-0.347187697606,-0.398950451336,0.00114371090302,0.0,0.0,0.0
1609045401699588000,142,1609045401699588000,-2.47769635248,1.21723129155,2.19304686776,0.996656692584,0.0030358882001,0.00105300268726,-0.081640135329,-0.335553805391,-0.504634047008,0.0024931381158,0.0,0.0,0.0
1609045401799585000,143,1609045401799585000,-2.49601594185,1.15089927798,2.18577639326,0.997223748635,0.0031361339658,0.00468949584584,-0.0742493666681,-0.322182350025,-0.598883177613,-0.0159195013017,0.0,0.0,0.0
1609045401899617000,144,1609045401899617000,-2.52738927525,1.08533099814,2.18508218919,0.997667636579,0.00329740218964,0.00713451686547,-0.0678049609526,-0.326852445191,-0.67158788914,-0.020611121773,0.0,0.0,0.0
1609045401999651000,145,1609045401999651000,-2.54720927532,1.00142774041,2.17398595802,0.997970224062,0.00344559788954,0.00821788444839,-0.0630557381679,-0.326268199591,-0.739705583205,-0.0526471759718,0.0,0.0,0.0
1609045402099736000,146,1609045402099736000,-2.58023408043,0.920599522356,2.16677975281,0.998263833313,0.00352426495145,0.00687434450791,-0.0583921402578,-0.339344980914,-0.793393098626,-0.115050345892,0.0,0.0,0.0
1609045402199738000,147,1609045402199738000,-2.61318591901,0.833930107478,2.15786045541,0.998546939802,0.00399721859939,-0.00140251087191,-0.0537221017645,-0.34126264642,-0.83246811164,-0.168464029781,0.0,0.0,0.0
1609045402299785000,148,1609045402299785000,-2.64433109627,0.741075241973,2.13975975785,0.998574326117,0.00438171887535,-0.00710359561557,-0.0527224305988,-0.318222069267,-0.881388816216,-0.170856714661,0.0,0.0,0.0
1609045402399790000,149,1609045402399790000,-2.6730082823,0.653933584495,2.11697817234,0.998443833121,0.00438839758857,-0.0095597030618,-0.0547655562047,-0.288915355468,-0.917600780438,-0.191877291452,0.0,0.0,0.0
1609045402499867000,150,1609045402499867000,-2.70186388535,0.558078097297,2.09509660471,0.998353305448,0.00434019192744,-0.0102369517989,-0.0562765053414,-0.263539604815,-0.966801815339,-0.203667671874,0.0,0.0,0.0
1609045402599830000,151,1609045402599830000,-2.72779902003,0.459677841912,2.07286523783,0.998481498235,0.00461671946854,-0.0115593407382,-0.0536634440345,-0.240838894185,-1.01436451748,-0.23826507683,0.0,0.0,0.0
1609045402699886000,152,1609045402699886000,-2.75905548899,0.358540995592,2.04751359213,0.998423280808,0.00501561425007,-0.0206829476766,-0.0519423875972,-0.230056948057,-1.04488081451,-0.297967122364,0.0,0.0,0.0
1609045402800230000,153,1609045402800230000,-2.77925843384,0.251025851687,2.02346568624,0.997713638977,0.0059708372613,-0.0424673727732,-0.0522337625654,-0.172776322332,-1.07946176881,-0.325888801536,0.0,0.0,0.0
1609045402899941000,154,1609045402899941000,-2.79333233127,0.14034334332,1.99004991509,0.996613099249,0.00716344965096,-0.0638003771958,-0.051386060997,-0.055968126974,-1.12840941284,-0.284823027291,0.0,0.0,0.0
1609045402999876000,155,1609045402999876000,-2.79385885347,0.0227452053632,1.9612937003,0.995990577654,0.00856532037026,-0.0764059606413,-0.0457332886357,0.0974190241175,-1.17782587768,-0.249978998068,0.0,0.0,0.0
1609045403100054000,156,1609045403100054000,-2.77918190082,-0.0987202834086,1.93637749775,0.995753140003,0.00953118852436,-0.0829283455372,-0.0388295007178,0.273867195904,-1.2037493227,-0.195402014424,0.0,0.0,0.0
1609045403200016000,157,1609045403200016000,-2.74487060643,-0.221269262841,1.91985209586,0.996364304478,0.0101415740578,-0.0797949179715,-0.0280729817487,0.460388846845,-1.23052150811,-0.124349041921,0.0,0.0,0.0
1609045403300088000,158,1609045403300088000,-2.68902790053,-0.344713684739,1.91618008771,0.998174511383,0.0106005328772,-0.0594580212743,-0.000131276640717,0.638273506406,-1.22543698116,0.00343399941459,0.0,0.0,0.0
1609045403400138000,159,1609045403400138000,-2.62193545922,-0.462999028769,1.91848001643,0.99873282783,0.011096478455,-0.0300582179339,0.0388086371228,0.71174229867,-1.10356813062,0.0362056801802,0.0,0.0,0.0
1609045403500090000,160,1609045403500090000,-2.55096365089,-0.564647709043,1.9162395068,0.997856033668,0.0113279985974,-0.0108126037018,0.0635460472447,0.717583168971,-0.905739251049,-0.0160145982534,0.0,0.0,0.0
1609045403600149000,161,1609045403600149000,-2.47943586502,-0.645605448807,1.90928287738,0.997222891719,0.0117117310547,-0.00244544973652,0.0735075462967,0.714162160337,-0.702545763274,-0.0541163868643,0.0,0.0,0.0
1609045403700172000,162,1609045403700172000,-2.40903508478,-0.705116735039,1.89956389124,0.996931541454,0.01193608258,-0.000975438531084,0.077356836203,0.704906434813,-0.48387049537,-0.0601711146508,0.0,0.0,0.0
1609045403800214000,163,1609045403800214000,-2.33662736513,-0.740048910088,1.88928486781,0.996995620126,0.0124143415734,-0.00194960495673,0.0764317775051,0.705733175158,-0.267652179284,-0.0531244068393,0.0,0.0,0.0
1609045403900202000,164,1609045403900202000,-2.2661449183,-0.757581783885,1.8838792032,0.997254865784,0.012504724654,-0.00315967430958,0.0729135171899,0.70802095192,-0.0631923566641,-0.0404511810595,0.0,0.0,0.0
1609045404000232000,165,1609045404000232000,-2.19744543819,-0.757702643422,1.8793679333,0.997845439792,0.0122246235724,-0.00395853980397,0.0643379112833,0.711696330997,0.12757589713,-0.00755772725802,0.0,0.0,0.0
1609045404100249000,166,1609045404100249000,-2.12817779645,-0.740657852287,1.87720891297,0.998505707252,0.0114646991746,-0.0041703791281,0.0532683883294,0.716583770841,0.287105000834,0.0224476098054,0.0,0.0,0.0
1609045404200349000,167,1609045404200349000,-2.05413227033,-0.704039164782,1.87907068902,0.998919429921,0.0107778579965,-0.00442179698951,0.0449917549622,0.728146029567,0.430402954895,0.0369899133192,0.0,0.0,0.0
1609045404300420000,168,1609045404300420000,-1.97560068651,-0.655377190369,1.87363485719,0.999266519241,0.0102943788681,-0.00206035659121,0.0368266780788,0.752172503177,0.557968502397,0.074149748202,0.0,0.0,0.0
1609045404400413000,169,1609045404400413000,-1.90091349398,-0.592049176521,1.88457823602,0.999682296593,0.0093660583195,0.00564741192823,0.0227087993778,0.758784852002,0.663087223602,0.119734505602,0.0,0.0,0.0
1609045404500425000,170,1609045404500425000,-1.81796962257,-0.517110595034,1.87488755004,0.999817898773,0.00823048992571,0.0153215106276,0.00785363874396,0.75096416887,0.735567669002,0.115192351778,0.0,0.0,0.0
1609045404600433000,171,1609045404600433000,-1.74507773105,-0.441588581915,1.88857737408,0.999694978804,0.00727911246721,0.023201503447,-0.00431904086429,0.71848737673,0.768224324669,0.111085989311,0.0,0.0,0.0
1609045404700442000,172,1609045404700442000,-1.66932206089,-0.368720848933,1.89712366385,0.999588205999,0.00656028032908,0.0266211247264,-0.00846740027888,0.686192438662,0.784812219029,0.0973192895129,0.0,0.0,0.0
1609045404800491000,173,1609045404800491000,-1.60003397143,-0.294845438571,1.91008064425,0.999548536826,0.00622992420495,0.0280453447525,-0.0087959769376,0.647513949845,0.795093834221,0.0782954510614,0.0,0.0,0.0
1609045404900535000,174,1609045404900535000,-1.53064718952,-0.221965362625,1.92727069002,0.999599119571,0.00641408544416,0.02667632144,-0.00698809956705,0.616897226914,0.813783203031,0.0648864747711,0.0,0.0,0.0
1609045405000525000,175,1609045405000525000,-1.47286243317,-0.137962806814,1.93774912523,0.999647562477,0.00673916268312,0.0255280873029,-0.00276609465653,0.581425481124,0.835112712246,0.0770347483353,0.0,0.0,0.0
1609045405100533000,176,1609045405100533000,-1.41552357567,-0.0516421744633,1.94837147056,0.999682205267,0.00701354167232,0.0242136011696,-1.49431301351e-05,0.552709067751,0.870197020203,0.0981159555207,0.0,0.0,0.0
1609045405200566000,177,1609045405200566000,-1.35828333162,0.0290500328774,1.97090784379,0.999661662169,0.00685011327751,0.0244701823218,-0.0055540359073,0.531742882061,0.901439078128,0.117580842364,0.0,0.0,0.0
1609045405300650000,178,1609045405300650000,-1.3044370483,0.124949712544,1.98148528307,0.999455321231,0.00664251271633,0.0281105011915,-0.0159605015546,0.508581966517,0.928189173236,0.132095951776,0.0,0.0,0.0
1609045405400678000,179,1609045405400678000,-1.25135386564,0.218294288766,1.99202450938,0.998808349077,0.00608242353003,0.0348889525684,-0.0335804545364,0.477924934976,0.909835786131,0.158224583492,0.0,0.0,0.0
1609045405500713000,180,1609045405500713000,-1.198079663,0.298672598248,2.00819627297,0.997918980043,0.00527927998912,0.0474365707149,-0.043354471884,0.426813768363,0.847887651161,0.182954841712,0.0,0.0,0.0
1609045405600760000,181,1609045405600760000,-1.14159081197,0.368381541722,2.02937282279,0.996965184488,0.00467520857056,0.0619958797313,-0.0468516193876,0.352115583033,0.783872335587,0.20151431828,0.0,0.0,0.0
1609045405700776000,182,1609045405700776000,-1.09124535754,0.432598981108,2.04328979114,0.996184753662,0.00459010363803,0.0730305783792,-0.0475542021364,0.254318546569,0.725852952023,0.149667486323,0.0,0.0,0.0
1609045405800781000,183,1609045405800781000,-1.06460922434,0.497423315297,2.05206646346,0.995826864328,0.00480534145425,0.0783297239772,-0.0465856127749,0.137386017749,0.665520229252,0.105153339641,0.0,0.0,0.0
1609045405900813000,184,1609045405900813000,-1.06085110728,0.554393239097,2.06267278966,0.995828792145,0.00485878549562,0.0788434749604,-0.0456630637987,0.00505557685187,0.606931414488,0.0742069449843,0.0,0.0,0.0
1609045406000840000,185,1609045406000840000,-1.07161295594,0.612022749384,2.07091435242,0.996045096723,0.00504249419144,0.0763524492811,-0.0451557530677,-0.123956642974,0.554860805334,0.0514339181,0.0,0.0,0.0
1609045406100855000,186,1609045406100855000,-1.1052502603,0.655997113708,2.08388617583,0.996331082143,0.00511813541396,0.0724879668638,-0.0452070138876,-0.258637474996,0.492928655329,0.0487620144439,0.0,0.0,0.0
1609045406200955000,187,1609045406200955000,-1.13554692056,0.704062502135,2.08780857222,0.997000306283,0.00520007986112,0.0622876260039,-0.045646468506,-0.37087664185,0.445570438573,0.00167799794149,0.0,0.0,0.0
1609045406300943000,188,1609045406300943000,-1.17315880816,0.74790690301,2.08440511598,0.998178794122,0.00584206799622,0.0389988283986,-0.0456514686619,-0.450721127166,0.403634048216,-0.0351983541246,0.0,0.0,0.0
1609045406400979000,189,1609045406400979000,-1.23744052112,0.770718307981,2.09829569708,0.998837031014,0.00654050618547,0.0149300708022,-0.0453751059561,-0.487651940397,0.332664265179,0.0173835415433,0.0,0.0,0.0
1609045406501000000,190,1609045406501000000,-1.30180208397,0.786005857692,2.11741103527,0.998965661351,0.00678908714734,0.000651315212463,-0.0449565515246,-0.471022488422,0.262112209802,0.0957895763037,0.0,0.0,0.0
1609045406601037000,191,1609045406601037000,-1.35503988515,0.802760868957,2.13291548146,0.998954426918,0.00678967902177,-0.00317861551707,-0.0450982217393,-0.434128866726,0.199761068492,0.127297565175,0.0,0.0,0.0
1609045406700983000,192,1609045406700983000,-1.39958658708,0.817800007509,2.14811964923,0.998990221753,0.00683220991421,-0.00190321571025,-0.0443648004532,-0.397100009171,0.147443951671,0.131297290979,0.0,0.0,0.0
1609045406801298000,193,1609045406801298000,-1.43561770274,0.833897317117,2.16159385544,0.999011206185,0.00684293321819,0.00144271083788,-0.0439056120151,-0.36004723955,0.103690932516,0.131083101763,0.0,0.0,0.0
1609045406901085000,194,1609045406901085000,-1.46661387275,0.846905084382,2.17329223586,0.999021824285,0.0068009982853,0.00459850176814,-0.0434510621928,-0.329917480629,0.0573444749581,0.103861769173,0.0,0.0,0.0
1609045407001135000,195,1609045407001135000,-1.4959707973,0.854819599522,2.1831544456,0.999022630783,0.00690246434649,0.00687257363916,-0.0431150426233,-0.306818329859,0.0117075515583,0.0822704635123,0.0,0.0,0.0
1609045407101171000,196,1609045407101171000,-1.52571664365,0.854943186653,2.19000728829,0.999010291899,0.0068825713123,0.00874859764326,-0.0430642419188,-0.288846481456,-0.0349555820323,0.0776410208579,0.0,0.0,0.0
1609045407201189000,197,1609045407201189000,-1.55574902908,0.847777465158,2.19611722831,0.99900922952,0.00712665046146,0.00951823666007,-0.0428855845119,-0.275004505749,-0.0842388021055,0.0687910137638,0.0,0.0,0.0
1609045407301221000,198,1609045407301221000,-1.58425067559,0.837076875979,2.20223798476,0.999028500734,0.00712235913546,0.00972601217063,-0.0423878686577,-0.2630832092,-0.132079867838,0.0618389750651,0.0,0.0,0.0
1609045407401279000,199,1609045407401279000,-1.61213647784,0.816756249443,2.20646635285,0.999017100997,0.00725946899377,0.00939988379907,-0.0427056695335,-0.249046394533,-0.180576770458,0.0522925077505,0.0,0.0,0.0
1609045407501278000,200,1609045407501278000,-1.63609345154,0.797306787727,2.20950128442,0.999023087594,0.00734538784293,0.00921428004996,-0.042591228847,-0.232479809534,-0.227077318699,0.0429619130051,0.0,0.0,0.0
1609045407601320000,201,1609045407601320000,-1.65999681261,0.776059852886,2.20916972883,0.999034986636,0.00743939400867,0.00853413275115,-0.0424372415659,-0.216985937834,-0.274195147777,0.0247438707759,0.0,0.0,0.0
1609045407701403000,202,1609045407701403000,-1.68150709901,0.751333886612,2.20908330506,0.999037686774,0.0073841158563,0.00808322678501,-0.0424715985346,-0.203232700002,-0.31769198561,0.00742664793992,0.0,0.0,0.0
1609045407801404000,203,1609045407801404000,-1.69837887637,0.718348367683,2.21118111814,0.999114262142,0.00745589482647,0.00813071355763,-0.040607786358,-0.181772142271,-0.362779124978,-0.00275333761135,0.0,0.0,0.0
1609045407901373000,204,1609045407901373000,-1.72552340577,0.691108059609,2.19959022465,0.999250483013,0.00741501389297,0.00806988725323,-0.037126361084,-0.175559057356,-0.400754808524,-0.0174982760141,0.0,0.0,0.0
1609045408001422000,205,1609045408001422000,-1.74064334535,0.643903622756,2.20026621112,0.99953989695,0.00771303453247,0.00783456632164,-0.0282687649999,-0.155185963583,-0.432850688736,-0.0135775010666,0.0,0.0,0.0
1609045408101439000,206,1609045408101439000,-1.74995647705,0.59196270102,2.19850080922,0.99977131766,0.00784284705834,0.0072738628884,-0.0185173716793,-0.134298416126,-0.453695435503,-0.0168127486354,0.0,0.0,0.0
1609045408201456000,207,1609045408201456000,-1.75993181597,0.542405446972,2.19594865868,0.999921932027,0.00807503330617,0.00690617773531,-0.00657483066535,-0.114978384701,-0.442184048475,-0.0114233542168,0.0,0.0,0.0
1609045408301503000,208,1609045408301503000,-1.77608003191,0.511296054647,2.18117030347,0.99994114822,0.00821833957755,0.00650685844647,0.0027963876684,-0.106385090033,-0.400384757127,-0.030702380312,0.0,0.0,0.0
1609045408401604000,209,1609045408401604000,-1.78936501405,0.482022283699,2.180950251,0.999910570675,0.00834336668201,0.00632280203345,0.00832232300471,-0.0915828722758,-0.344049095368,-0.0411109492388,0.0,0.0,0.0
1609045408501583000,210,1609045408501583000,-1.80288501327,0.462087199613,2.16256494411,0.999868869976,0.00845271759839,0.00571159374084,0.0125766495709,-0.0767961577668,-0.282247064781,-0.0351702528429,0.0,0.0,0.0
1609045408601585000,211,1609045408601585000,-1.81365955345,0.436468224948,2.1557677771,0.999834047462,0.00847417975628,0.00480964339297,0.0153926327497,-0.0590498033859,-0.226091463276,-0.0208871042109,0.0,0.0,0.0
1609045408701653000,212,1609045408701653000,-1.82040062468,0.415787665215,2.15278062344,0.999774712117,0.00838414190421,0.00456245283852,0.0189582488742,-0.0427280454182,-0.16041390807,-0.0137445089172,0.0,0.0,0.0
1609045408801658000,213,1609045408801658000,-1.82455882706,0.405056412678,2.15416558494,0.999779087804,0.00856775692462,0.00396148502852,0.0187796636499,-0.0259086340754,-0.0776710280695,-0.00730304481854,0.0,0.0,0.0
1609045408901718000,214,1609045408901718000,-1.8235954416,0.406041256019,2.15153145038,0.999862359422,0.00834860004965,0.00555309416552,0.0132184051117,-0.000214295880948,-0.0113972647744,0.0247027522155,0.0,0.0,0.0
1609045409001778000,215,1609045409001778000,-1.82805305709,0.412136014651,2.13937263043,0.999859561473,0.00842512875216,0.00785282702577,0.012174056225,0.00838676967634,0.048908816985,-0.00700861217645,0.0,0.0,0.0
1609045409101743000,216,1609045409101743000,-1.83199825847,0.416514749841,2.14291571313,0.999901068651,0.00844262063166,0.00823133647289,0.00766943070958,0.0122467892852,0.0953788992554,0.00299243493654,0.0,0.0,0.0
1609045409201816000,217,1609045409201816000,-1.83534910649,0.430920722506,2.14620742806,0.999934751068,0.00825600629946,0.00783281377438,0.000989442051162,0.0176769249632,0.134572874029,0.00998769141585,0.0,0.0,0.0
1609045409301807000,218,1609045409301807000,-1.83589746229,0.446283342754,2.14965376621,0.999908181335,0.00803056044761,0.00767965167753,-0.00775641333502,0.0234144826415,0.163819463026,0.02399311022,0.0,0.0,0.0
1609045409401824000,219,1609045409401824000,-1.83196290504,0.453055737248,2.13874870416,0.999736583108,0.00788181687054,0.00968654315148,-0.019256485685,0.0392359108687,0.158685936576,0.0328705400278,0.0,0.0,0.0
1609045409501843000,220,1609045409501843000,-1.82195370629,0.463369097496,2.13400910286,0.999569778893,0.00766593008711,0.0129143323561,-0.0251934646321,0.0443927512806,0.128563445544,0.0282797290916,0.0,0.0,0.0
1609045409601887000,221,1609045409601887000,-1.82247601886,0.4697300184,2.12988352171,0.999537668266,0.00764339232649,0.0155394754288,-0.0249910578743,0.0418251202176,0.0938168808932,0.0148031585949,0.0,0.0,0.0
1609045409701933000,222,1609045409701933000,-1.82138145778,0.479017844276,2.12879334966,0.999659698271,0.00795538526737,0.016151224298,-0.0188769026107,0.0269291742512,0.0722221499542,0.00683380443667,0.0,0.0,0.0
1609045409801950000,223,1609045409801950000,-1.82336300475,0.486467760933,2.13113969541,0.99984248262,0.00819536775807,0.0139178321367,-0.00735797828651,0.011373909936,0.068332983946,-0.00376647997617,0.0,0.0,0.0
1609045409901977000,224,1609045409901977000,-1.82684109834,0.495004044761,2.13242588746,0.999893000885,0.00867316799781,0.0107857560694,0.00473607485691,0.00984041019587,0.0954584533068,0.00893615025647,0.0,0.0,0.0
1609045410002026000,225,1609045410002026000,-1.82842759621,0.506944342274,2.13304813044,0.999831395029,0.00900985939515,0.0096474032201,0.0127644647024,0.0115921380565,0.14125742043,0.0146560044538,0.0,0.0,0.0
1609045410102106000,226,1609045410102106000,-1.84302255236,0.53224376002,2.11601415408,0.999688544223,0.00913434869696,0.00806164574444,0.0217804520223,0.0113368670194,0.208371034364,0.0170528519913,0.0,0.0,0.0
1609045410202045000,227,1609045410202045000,-1.84026076954,0.560343759299,2.12212923622,0.99963929373,0.00926117633225,0.0095811230608,0.0233176998153,0.0143768872936,0.291137254438,0.0237434508095,0.0,0.0,0.0
1609045410302086000,228,1609045410302086000,-1.84088257284,0.59724433389,2.13248847259,0.999701311648,0.00909022450463,0.0109864500133,0.0198482549147,0.0125508784461,0.371950722217,0.0260845312854,0.0,0.0,0.0
1609045410402347000,229,1609045410402347000,-1.83963225783,0.637528750256,2.13759407797,0.999799070592,0.00884342462027,0.0120267371614,0.0133779624073,0.0138763913371,0.42669462336,0.0284191501283,0.0,0.0,0.0
1609045410502175000,230,1609045410502175000,-1.83955558932,0.682826238663,2.1398586708,0.999849212007,0.00851958524473,0.0140430091236,0.00563593928719,0.0105447559039,0.468959228965,0.0327494256081,0.0,0.0,0.0
1609045410602164000,231,1609045410602164000,-1.8374252629,0.731862053373,2.14233764605,0.99979850104,0.00834437419843,0.0175853170467,-0.00490768398182,0.00411895587367,0.498639296512,0.0462383543321,0.0,0.0,0.0
1609045410702184000,232,1609045410702184000,-1.83376162802,0.782730100748,2.13872036163,0.999527920824,0.00805687887427,0.0264180418524,-0.0134576840676,-0.0117578209054,0.493950499876,0.0486507098514,0.0,0.0,0.0
1609045410802268000,233,1609045410802268000,-1.83617265356,0.831320703502,2.14489719258,0.999158413195,0.00783769339501,0.0366758189685,-0.016610846056,-0.049104937756,0.490071495512,0.0219689792576,0.0,0.0,0.0
1609045410902292000,234,1609045410902292000,-1.84353249307,0.878666753796,2.1517288113,0.998604184825,0.00754329212265,0.0469674006441,-0.0229530841421,-0.115397028033,0.475433564862,-0.0134555590245,0.0,0.0,0.0
1609045411002336000,235,1609045411002336000,-1.85977192283,0.926942205434,2.15667526785,0.998195001386,0.0074859404357,0.0519737871907,-0.0291449026239,-0.194373515761,0.452270981323,-0.0226909327428,0.0,0.0,0.0
1609045411102358000,236,1609045411102358000,-1.88685494348,0.970827046267,2.15545240813,0.997942977642,0.0075474883896,0.0552937330936,-0.0315507824746,-0.282152356411,0.413442670789,-0.0511935261555,0.0,0.0,0.0
1609045411202522000,237,1609045411202522000,-1.91740168671,1.01244148987,2.1567894796,0.997950663167,0.00750428323409,0.0550732105753,-0.031703329387,-0.365973727583,0.380410727155,-0.059022558685,0.0,0.0,0.0
1609045411302413000,238,1609045411302413000,-1.95877800919,1.04786928209,2.1495164594,0.998195458112,0.00755964132716,0.0508372484624,-0.0310524298005,-0.451498396403,0.338167788504,-0.0891409023959,0.0,0.0,0.0
1609045411402397000,239,1609045411402397000,-2.0099234879,1.07956186933,2.14256933517,0.998596828948,0.00775754455912,0.0427743982425,-0.0302414380009,-0.525859379742,0.296354245267,-0.102686766425,0.0,0.0,0.0
1609045411502439000,240,1609045411502439000,-2.0679667549,1.10727574261,2.13146719909,0.999011514712,0.00795724901689,0.0312301055069,-0.0306162729611,-0.579775884484,0.259966862477,-0.122453616586,0.0,0.0,0.0
1609045411602456000,241,1609045411602456000,-2.12932151756,1.13026866949,2.11641653421,0.99931500775,0.00809536537567,0.0175699833459,-0.0315479956579,-0.60092923117,0.219135324248,-0.132128963158,0.0,0.0,0.0
1609045411702556000,242,1609045411702556000,-2.1963319491,1.14185946704,2.11122389211,0.999392127553,0.0080845445563,0.0115308700552,-0.0318912928643,-0.599457331398,0.171728314825,-0.0856490981553,0.0,0.0,0.0
1609045411802545000,243,1609045411802545000,-2.25592322237,1.1561286714,2.10285324913,0.999381903351,0.00783469701411,0.0123088621122,-0.0319831313337,-0.588513014301,0.124311583364,-0.0495999864363,0.0,0.0,0.0
1609045411902975000,244,1609045411902975000,-2.30960148964,1.17046391593,2.09750177807,0.99933967062,0.00774569318878,0.016422001582,-0.0314729221105,-0.583173379012,0.0854779451495,-0.0362309621064,0.0,0.0,0.0
1609045412002610000,245,1609045412002610000,-2.36682120869,1.17802442104,2.09386042453,0.999271633417,0.00772204649414,0.0201594310722,-0.0314669665823,-0.591370531077,0.0448016720294,-0.0249872199926,0.0,0.0,0.0
1609045412102684000,246,1609045412102684000,-2.42861769101,1.17977110764,2.09222791125,0.999200122735,0.00774855514483,0.0225516651089,-0.0321013554388,-0.611772846886,0.00260791085538,-0.0304692782282,0.0,0.0,0.0
1609045412202656000,247,1609045412202656000,-2.49610983651,1.17978415729,2.09320444958,0.999155420565,0.00776482211346,0.0205358781197,-0.0347337127621,-0.638117931271,-0.0293808498761,-0.0554265819086,0.0,0.0,0.0
1609045412302703000,248,1609045412302703000,-2.56633075792,1.17646952117,2.09266149293,0.998895929284,0.0076646203124,0.0132073187007,-0.044426825086,-0.657224132137,-0.0771413544592,-0.0836144220301,0.0,0.0,0.0
1609045412402725000,249,1609045412402725000,-2.63185316365,1.16435404488,2.08577481716,0.998582926922,0.00758173507444,0.00410820048279,-0.0525145507646,-0.639967762455,-0.156523494664,-0.0327950626088,0.0,0.0,0.0
1609045412502729000,250,1609045412502729000,-2.70093920139,1.14696917331,2.0836331361,0.998338080623,0.00731178044014,0.00106975321477,-0.0571530425526,-0.618186714566,-0.239142201614,0.00032769305821,0.0,0.0,0.0
1609045412602790000,251,1609045412602790000,-2.76192748144,1.12690983666,2.08161152721,0.99833508439,0.00734494130299,-0.00392725320856,-0.0570761578631,-0.596092394351,-0.318046829735,-0.0220996583042,0.0,0.0,0.0
1609045412702815000,252,1609045412702815000,-2.82063724633,1.08845305363,2.08148932234,0.998441688839,0.00783890118464,-0.0135014479255,-0.0535766415577,-0.555674247809,-0.407233148838,-0.0147813292254,0.0,0.0,0.0
1609045412802851000,253,1609045412802851000,-2.87593807088,1.04683451664,2.07842252017,0.99839851043,0.0082199180274,-0.021597815795,-0.0516370184218,-0.48634182815,-0.484873739858,0.03080275284,0.0,0.0,0.0
1609045412902791000,254,1609045412902791000,-2.92624858012,1.00115340521,2.07427564428,0.998327196892,0.00833353548906,-0.0263428006261,-0.050787961042,-0.418244126386,-0.54911236939,0.0136487191089,0.0,0.0,0.0
1609045413002895000,255,1609045413002895000,-2.96678286209,0.94173536825,2.07591661491,0.998223267044,0.00873287492862,-0.0342666302347,-0.0479566896271,-0.337620250697,-0.626608440875,-0.00187082563651,0.0,0.0,0.0
1609045413102885000,256,1609045413102885000,-3.0052748642,0.873541572553,2.06717947153,0.998409092602,0.00939865825824,-0.0415505134399,-0.036939191446,-0.24569342329,-0.690256346568,-0.00705770361234,0.0,0.0,0.0
1609045413202954000,257,1609045413202954000,-3.02517887889,0.803052109504,2.06448176085,0.998061499077,0.00996950905985,-0.0521468299655,-0.0324740061233,-0.145728429864,-0.711974629088,-0.0640808022768,0.0,0.0,0.0
1609045413303072000,258,1609045413303072000,-3.03920650584,0.727184692512,2.05648373039,0.997486246559,0.0103364469207,-0.0635039887537,-0.029691567863,-0.0130129743056,-0.753722989906,-0.0714085509601,0.0,0.0,0.0
1609045413403060000,259,1609045413403060000,-3.03082042402,0.64900046827,2.04710041311,0.997471860968,0.0108380400764,-0.0670045162994,-0.021043247355,0.1545686671,-0.772995647935,-0.04397585799,0.0,0.0,0.0
1609045413503089000,260,1609045413503089000,-3.01631290571,0.567392805126,2.03133316845,0.997791004422,0.0110618181348,-0.0634623495284,-0.0162258394788,0.309641331554,-0.774270181785,-0.00920445065372,0.0,0.0,0.0
1609045413603064000,261,1609045413603064000,-2.97413412398,0.490610719887,2.03454668427,0.998458684653,0.0109752843494,-0.0530935323188,-0.0118690774975,0.468914559168,-0.774149717729,0.064551537401,0.0,0.0,0.0
1609045413703152000,262,1609045413703152000,-2.92781127613,0.412582861843,2.02613332396,0.999458428286,0.0105969361585,-0.030791533142,-0.00473672448033,0.574842207843,-0.76621023831,0.111333004009,0.0,0.0,0.0
1609045413803171000,263,1609045413803171000,-2.86986221164,0.336952357241,2.03635156959,0.99986618468,0.0103103634974,-0.00923876128179,0.00871518379995,0.606718881166,-0.728084365766,0.0512741773131,0.0,0.0,0.0
1609045413903136000,264,1609045413903136000,-2.80737764152,0.264770710603,2.02544042457,0.999689583111,0.0103138113121,0.00171827792983,0.0226143811953,0.617523668494,-0.669365898097,-0.0130786749067,0.0,0.0,0.0
1609045414003189000,265,1609045414003189000,-2.74130826316,0.202023003422,2.01672459127,0.999230011566,0.0109253877427,0.00515542939257,0.0373288284864,0.621340695605,-0.584088073358,-0.040598823752,0.0,0.0,0.0
1609045414103229000,266,1609045414103229000,-2.68040786321,0.150359777212,2.0104336011,0.998874567929,0.0117064101968,0.00401750167964,0.0457866485406,0.621717520499,-0.460861776811,-0.0574051624492,0.0,0.0,0.0
1609045414203316000,267,1609045414203316000,-2.62476833649,0.111360454979,2.00897320281,0.998998346702,0.0118912402917,0.00118572307743,0.0431218709196,0.623996176021,-0.341094796847,-0.0532087587802,0.0,0.0,0.0
1609045414303303000,268,1609045414303303000,-2.5676426453,0.0833157872838,2.00414277228,0.999227373236,0.0118595635657,-0.00249829823562,0.0373867066442,0.633217683176,-0.232573459215,-0.0657651499284,0.0,0.0,0.0
1609045414403378000,269,1609045414403378000,-2.50102101791,0.0639882201512,1.99761686474,0.999435140669,0.01169443957,-0.00653175282643,0.0308216787854,0.660348016492,-0.146123472221,-0.0510370525166,0.0,0.0,0.0
1609045414503416000,270,1609045414503416000,-2.42935676796,0.052387223602,1.99341704749,0.999377159956,0.0116796545701,-0.00745658881106,0.0324542310138,0.697402351478,-0.0764131460801,-0.0215427966227,0.0,0.0,0.0
1609045414603479000,271,1609045414603479000,-2.36104817608,0.0447229667718,1.99387832128,0.999066632385,0.0120635635114,-0.00701564942522,0.0408792753514,0.721093530527,0.0113813102092,-0.0298501125376,0.0,0.0,0.0
1609045414703315000,272,1609045414703315000,-2.29090787993,0.0514032008753,1.99465009324,0.9989846424,0.0121490404245,-0.00724892414678,0.0427731009364,0.744473843882,0.120285167294,-0.0250214852665,0.0,0.0,0.0
1609045414803459000,273,1609045414803459000,-2.21552412533,0.0698686211857,1.99512497141,0.998992190348,0.0120189412364,-0.00792319575141,0.042513193777,0.770392604854,0.229230548844,-0.00518352341381,0.0,0.0,0.0
1609045414903446000,274,1609045414903446000,-2.13533117687,0.0985436473287,1.99744094605,0.999183610017,0.0118108902018,-0.00872368436733,0.0376366002302,0.800574568918,0.338569079038,0.0161904134791,0.0,0.0,0.0
1609045415003492000,275,1609045415003492000,-2.05003014836,0.138497753524,1.99605941699,0.999350996126,0.0115457816261,-0.00906392123811,0.0328956957777,0.835320950163,0.410053562127,0.0498617124678,0.0,0.0,0.0
1609045415103528000,276,1609045415103528000,-1.96146063188,0.183191565082,1.99933702485,0.999241029125,0.0115504959943,-0.00351821710287,0.0370347661439,0.866732220657,0.493378419135,0.065672879195,0.0,0.0,0.0
1609045415203569000,277,1609045415203569000,-1.87354653732,0.233909570047,2.00337276705,0.999103651882,0.0116397710904,0.00841509434581,0.039819526759,0.884371726136,0.586346939857,0.139034773739,0.0,0.0,0.0
1609045415303567000,278,1609045415303567000,-1.78713108639,0.296457243917,2.01559259709,0.998727106171,0.0118862977788,0.0242328330392,0.0426104814299,0.852948054226,0.683801759625,0.110674870598,0.0,0.0,0.0
1609045415403625000,279,1609045415403625000,-1.69768720486,0.367683370597,2.02493798681,0.998739283964,0.0118581493837,0.0325236781229,0.0363515793613,0.809175914228,0.776969422662,0.0712555840906,0.0,0.0,0.0
