%time,field.header.seq,field.header.stamp,field.pose.pose.position.x,field.pose.pose.position.y,field.pose.pose.position.z,field.pose.pose.orientation.x,field.pose.pose.orientation.y,field.pose.pose.orientation.z,field.pose.pose.orientation.w,field.twist.twist.linear.x,field.twist.twist.linear.y,field.twist.twist.linear.z,field.twist.twist.angular.x,field.twist.twist.angular.y,field.twist.twist.angular.z
1609054447571499000,0,1609054447571499000,0.44751818396,-0.0256242103726,2.04813022455,0.999952418402,0.00542426482254,0.00793914651444,0.00164567155694,0.268061603935,0.315728914055,0.702390216048,0.0,0.0,0.0
1609054447671799000,1,1609054447671799000,0.362904580996,0.0387909311792,1.60430293401,0.999951389252,0.00586193014109,0.0077995852097,0.00142245480839,0.222531509822,0.271919913789,0.583382406954,0.0,0.0,0.0
1609054447771600000,2,1609054447771600000,0.368692842142,0.0717555921678,1.59797782199,0.999953181749,0.00632652231851,0.00731086809279,0.000400789631985,0.218226817187,0.284653165617,0.56557935171,0.0,0.0,0.0
1609054447871566000,3,1609054447871566000,0.399008942949,0.103031575092,1.68580223178,0.999952513115,0.00640472578249,0.006143901214,-0.00402535474668,0.232417715276,0.298199592458,0.572080767194,0.0,0.0,0.0
1609054447971634000,4,1609054447971634000,0.402293513549,0.139168550604,1.64487625122,0.999915263579,0.00614504267881,0.00752151747587,-0.00866780752423,0.235411565187,0.2880578151,0.55555218852,0.0,0.0,0.0
1609054448072261000,5,1609054448072261000,0.449665480811,0.168119199002,1.78748825815,0.999858850771,0.00575429147859,0.0101482572973,-0.0120904730372,0.249632542808,0.281978644805,0.554236544075,0.0,0.0,0.0
1609054448172265000,6,1609054448172265000,0.442365369578,0.203309818365,1.72846251709,0.999773615378,0.00566823920489,0.0143167523141,-0.014683993346,0.234833732325,0.254570579231,0.554066235901,0.0,0.0,0.0
1609054448271764000,7,1609054448271764000,0.477543395441,0.230354665425,1.83715191491,0.999676671107,0.0055875260104,0.0173552537991,-0.0177236554675,0.222868431708,0.247994516416,0.539228880332,0.0,0.0,0.0
1609054448372549000,8,1609054448372549000,0.506580271284,0.266217424796,1.94085544243,0.999584017989,0.00549173814008,0.0180310736268,-0.0218291588701,0.212294723572,0.232818299591,0.540152619582,0.0,0.0,0.0
1609054448471819000,9,1609054448471819000,0.540160361744,0.295620701865,2.04516895467,0.999442814884,0.00548761096428,0.0173936938399,-0.027953627976,0.195024543637,0.205652314353,0.551410054449,0.0,0.0,0.0
1609054448572330000,10,1609054448572330000,0.562908426054,0.319195086384,2.1108850222,0.999368787037,0.00567472440003,0.0171768692,-0.030574174795,0.182423902608,0.153781542824,0.549138661237,0.0,0.0,0.0
1609054448672061000,11,1609054448672061000,0.577044712021,0.339425861744,2.17784253594,0.999395657092,0.00545635686962,0.01713661269,-0.029747021051,0.161964205506,0.11633399675,0.531102467048,0.0,0.0,0.0
1609054448771898000,12,1609054448771898000,0.591445218543,0.349931976809,2.23493890889,0.999395057508,0.0053223725275,0.0169665170231,-0.0298886045048,0.141804262202,0.0651407442634,0.5585719659,0.0,0.0,0.0
1609054448871987000,13,1609054448871987000,0.603967985429,0.355255562421,2.29398870895,0.999408654766,0.0051655477067,0.0175109821352,-0.0291380061261,0.124662830538,0.0183098700193,0.590753141526,0.0,0.0,0.0
1609054448972004000,14,1609054448972004000,0.612656427957,0.355561195536,2.35647844534,0.999476216917,0.00533184491161,0.0175094270303,-0.0266886345221,0.102653068878,-0.0253487284991,0.611526748645,0.0,0.0,0.0
1609054449072163000,15,1609054449072163000,0.610225115566,0.346098992452,2.41143728443,0.999558053363,0.00494122853169,0.0145725394252,-0.0254346871959,0.0795650624372,-0.0704018398929,0.591134887243,0.0,0.0,0.0
1609054449172083000,16,1609054449172083000,0.609916060293,0.341645379881,2.47337891606,0.999643606093,0.00495946130986,0.0104173725286,-0.0240736970868,0.0674748138361,-0.103763381979,0.589517297157,0.0,0.0,0.0
1609054449272137000,17,1609054449272137000,0.612460482314,0.33805887759,2.53401528793,0.999687980665,0.00477420157282,0.00662020385264,-0.0236076516187,0.0635200253568,-0.133324439609,0.578467610296,0.0,0.0,0.0
1609054449372132000,18,1609054449372132000,0.619453910389,0.329476966155,2.59489151314,0.999770013606,0.00459480689946,0.00359318152362,-0.0206372646026,0.0661081697556,-0.156267200113,0.582969235408,0.0,0.0,0.0
1609054449472376000,19,1609054449472376000,0.627389913043,0.315911273727,2.65286871097,0.999831004714,0.00414061175164,0.00082706582821,-0.0178922695424,0.0823229275377,-0.184027762891,0.583010407055,0.0,0.0,0.0
1609054449572235000,20,1609054449572235000,0.642428653196,0.304309845278,2.71866218637,0.999881056004,0.00349947850868,-4.67263295816e-05,-0.015020829229,0.102662591628,-0.200265482095,0.57081342646,0.0,0.0,0.0
1609054449672243000,21,1609054449672243000,0.658555515496,0.284891020042,2.77745078857,0.999919332089,0.00276934605168,0.000265570346147,-0.0123931234894,0.123911368008,-0.205122478555,0.577380421294,0.0,0.0,0.0
1609054449772275000,22,1609054449772275000,0.67412697644,0.261457816891,2.83435893289,0.999950719051,0.00168768254301,0.00170347025416,-0.00963376287386,0.140059496194,-0.21573061923,0.580079702836,0.0,0.0,0.0
1609054449872284000,23,1609054449872284000,0.684263884225,0.244555400461,2.89669283431,0.999981772993,0.0016308957109,0.00329304641624,-0.00479058522024,0.15450582583,-0.216198017285,0.593899467927,0.0,0.0,0.0
1609054449972308000,24,1609054449972308000,0.703270279354,0.219147500251,2.94911595747,0.999980896012,0.00172030958148,0.00588595212238,0.000776989827801,0.16316515982,-0.213030959437,0.558739234462,0.0,0.0,0.0
1609054450072254000,25,1609054450072254000,0.717077315961,0.194301357828,2.99656540723,0.999969232282,0.00142518994466,0.00730919457483,0.00246556235629,0.166717896266,-0.19793611019,0.537291286769,0.0,0.0,0.0
1609054450172270000,26,1609054450172270000,0.721254545167,0.174387470577,3.01588199479,0.999940455489,0.00172708989317,0.0097468764912,0.00459358642213,0.164039281782,-0.172590201919,0.496554924272,0.0,0.0,0.0
1609054450272383000,27,1609054450272383000,0.734388751376,0.152310934115,3.05545518431,0.99990502431,0.00184332896051,0.0121751525123,0.00618952014495,0.157870420556,-0.151949622829,0.453715322202,0.0,0.0,0.0
1609054450372411000,28,1609054450372411000,0.746429817646,0.130281607835,3.09555761658,0.999904622146,0.00211787302839,0.0121099856238,0.00629360571824,0.144482430929,-0.122932153907,0.404715744855,0.0,0.0,0.0
1609054450472420000,29,1609054450472420000,0.756207913067,0.115557550547,3.13249678673,0.999956060697,0.00212954210416,0.00911946179798,-0.000420883136582,0.136633340289,-0.101412303316,0.30648001969,0.0,0.0,0.0
1609054450572454000,30,1609054450572454000,0.773303017149,0.104114659137,3.17275001751,0.999926917761,0.00214896153314,0.00507888744719,-0.0107585316695,0.138523498854,-0.0952063874336,0.189621877819,0.0,0.0,0.0
1609054450672473000,31,1609054450672473000,0.786742693341,0.0935284656078,3.18861020513,0.999867076323,0.00246545059403,0.00318121414201,-0.0157997188385,0.152001158898,-0.109458718065,0.166788453268,0.0,0.0,0.0
1609054450772521000,32,1609054450772521000,0.802015181081,0.0825777439486,3.19895631093,0.999797295512,0.00276294905377,0.00313791624328,-0.0196948592735,0.167269439146,-0.136728928392,0.137361468592,0.0,0.0,0.0
1609054450872494000,33,1609054450872494000,0.816318509588,0.0680703255823,3.21444768175,0.999772115022,0.00288929981838,0.00390239577282,-0.0207880080302,0.174055710948,-0.163568440177,0.119572646545,0.0,0.0,0.0
1609054450972483000,34,1609054450972483000,0.830514680975,0.0506318839792,3.21541777251,0.999772863835,0.00291163769064,0.00650717492958,-0.0200848146716,0.18015069259,-0.185781160986,0.102783590501,0.0,0.0,0.0
1609054451072562000,35,1609054451072562000,0.846409981118,0.0296504669984,3.22146557271,0.999826415284,0.00283107472841,0.00943991245078,-0.0158117794629,0.175672505959,-0.201407485739,0.0723310232825,0.0,0.0,0.0
1609054451173094000,36,1609054451173094000,0.861904131739,0.00782575375942,3.22245941593,0.999851863787,0.0023038516457,0.0109712551758,-0.0130604100244,0.171959226544,-0.209008387384,0.0732328717721,0.0,0.0,0.0
1609054451272574000,37,1609054451272574000,0.878058875783,-0.0139491383454,3.22498741357,0.999833654832,0.00225983168563,0.0132687610683,-0.0123083632421,0.162725757624,-0.216775302092,0.0735115692293,0.0,0.0,0.0
1609054451372630000,38,1609054451372630000,0.896412651055,-0.0380180597342,3.2507937881,0.999860553456,0.00190789604124,0.0150035804855,-0.00707998213173,0.142104535179,-0.219015153309,0.054146346618,0.0,0.0,0.0
1609054451472642000,39,1609054451472642000,0.908738000653,-0.0611375304599,3.26832568204,0.999870964542,0.00126437033216,0.00962831330551,-0.0127965314087,0.122223315032,-0.208354024013,0.0213906928106,0.0,0.0,0.0
1609054451572665000,40,1609054451572665000,0.926218793014,-0.0775941174383,3.28296584359,0.999856113945,0.000843738025177,0.00414678146031,-0.0164269204675,0.131588009176,-0.219301105849,0.0501432724538,0.0,0.0,0.0
1609054451672716000,41,1609054451672716000,0.938371372637,-0.0974988267961,3.27592196374,0.999741319008,5.51171717042e-05,0.00132082313874,-0.0227056701364,0.150667883645,-0.213344225773,0.0510643942465,0.0,0.0,0.0
1609054451772713000,42,1609054451772713000,0.95051242256,-0.125626301563,3.27522677971,0.999661263186,0.000116502973621,-0.00034361404663,-0.0260235900955,0.17341033834,-0.236010452101,0.0375150417284,0.0,0.0,0.0
1609054451872753000,43,1609054451872753000,0.968421315801,-0.153863748362,3.28449253735,0.999650520899,0.00109475246852,-0.00292435580283,-0.0262504423938,0.201921125852,-0.254727929666,0.0138315732553,0.0,0.0,0.0
1609054451972874000,44,1609054451972874000,0.989730330601,-0.179798889481,3.2880356755,0.999638674912,0.00178514902476,-0.00450248553625,-0.0264397520383,0.236909364618,-0.276088408913,-0.005358364322,0.0,0.0,0.0
1609054452072829000,45,1609054452072829000,1.01263522488,-0.204724476538,3.28021650051,0.999558343935,0.00224622333843,-0.00603902674705,-0.0290103723824,0.276806156666,-0.303019103026,-0.0175692508417,0.0,0.0,0.0
1609054452172868000,46,1609054452172868000,1.03855478157,-0.233681280135,3.26915443359,0.999453343572,0.00223111675329,-0.00621297190861,-0.0323949860434,0.318518058782,-0.321943618601,-0.0308856570511,0.0,0.0,0.0
1609054452272978000,47,1609054452272978000,1.06962338161,-0.267898919658,3.26261182381,0.999368013007,0.00239013922902,-0.00700805320106,-0.0347670678091,0.362011220748,-0.355848378857,-0.0562140723618,0.0,0.0,0.0
1609054452373012000,48,1609054452373012000,1.10449593573,-0.303212642908,3.24879364442,0.999321007895,0.00229324444914,-0.00515095850227,-0.036410600591,0.406246919746,-0.391987614745,-0.0681708051059,0.0,0.0,0.0
1609054452472990000,49,1609054452472990000,1.14200859021,-0.343684983221,3.23020185863,0.999277863877,0.0019960312399,-0.00160740006169,-0.037910195066,0.442197221629,-0.429162661813,-0.0735648190285,0.0,0.0,0.0
1609054452573004000,50,1609054452573004000,1.18306568876,-0.392962279767,3.22266853413,0.99929934962,0.00185398420738,0.00152311598984,-0.0373504044111,0.467780454437,-0.476608028387,-0.0815718466894,0.0,0.0,0.0
1609054452673058000,51,1609054452673058000,1.22579216661,-0.444351574873,3.21113520043,0.999368920735,0.00194623646653,0.00489171377849,-0.0351289562871,0.488337176135,-0.508506609363,-0.0541787255944,0.0,0.0,0.0
1609054452773034000,52,1609054452773034000,1.2668852687,-0.495817527692,3.19898730095,0.999424384344,0.00250412954561,0.00826756082751,-0.0328066571179,0.498646002955,-0.546878650929,-0.0569688395432,0.0,0.0,0.0
1609054452873109000,53,1609054452873109000,1.31518287061,-0.550870735952,3.19205621358,0.999402542086,0.0023292279727,0.0139077314507,-0.0315548502527,0.507426809037,-0.576720791821,-0.0554965692221,0.0,0.0,0.0
1609054452973065000,54,1609054452973065000,1.36303244572,-0.607157509837,3.18024386849,0.999378444913,0.00207633636062,0.020954094575,-0.0282725766663,0.503637099782,-0.601169921202,-0.0398979266862,0.0,0.0,0.0
1609054453073099000,55,1609054453073099000,1.41539248994,-0.676651381272,3.18208910827,0.999244459616,0.00203726026422,0.0291317479248,-0.0256456772402,0.484288351237,-0.635246517061,-0.0370320114392,0.0,0.0,0.0
1609054453173219000,56,1609054453173219000,1.46289426172,-0.740324747419,3.18027633553,0.999010902202,0.00155895878096,0.0386400191083,-0.0219484817799,0.446111124634,-0.648132364179,-0.0129264392977,0.0,0.0,0.0
1609054453273175000,57,1609054453273175000,1.4967539704,-0.812217374385,3.17999824073,0.998670897416,0.00091797911387,0.0467329297001,-0.0217170267215,0.381956371345,-0.657585426469,-0.017855680218,0.0,0.0,0.0
1609054453373247000,58,1609054453373247000,1.5288885841,-0.881749720747,3.18076410933,0.998441544809,0.000887670325804,0.0525774849297,-0.0186896152678,0.309717519455,-0.66003142339,-0.0190016573976,0.0,0.0,0.0
1609054453473269000,59,1609054453473269000,1.5535355377,-0.940974341577,3.1792082867,0.998424345894,0.00106539113516,0.0536212280323,-0.016506191964,0.229110629817,-0.652251190768,-0.0382405674325,0.0,0.0,0.0
1609054453573262000,60,1609054453573262000,1.57301958328,-1.00426112134,3.17974921152,0.998698573532,0.000737354600522,0.0493302270491,-0.0129284273036,0.154475359643,-0.646587914002,-0.0262634536147,0.0,0.0,0.0
1609054453673281000,61,1609054453673281000,1.58435395209,-1.06612403439,3.18207778907,0.998897844824,0.000935119914836,0.0452543098159,-0.0124204911082,0.0939226242706,-0.62263715311,0.00422136883556,0.0,0.0,0.0
1609054453773372000,62,1609054453773372000,1.58956898411,-1.12474741471,3.18273883593,0.998989632877,0.000842354344257,0.0434983479335,-0.0112648822029,0.039084685697,-0.60501286536,0.0362197223338,0.0,0.0,0.0
1609054453873335000,63,1609054453873335000,1.58921478454,-1.18318119919,3.1851655429,0.998963994726,0.000521508942324,0.0443392234488,-0.0102322301088,-0.0132653247043,-0.58046618553,0.0391679311321,0.0,0.0,0.0
1609054453973375000,64,1609054453973375000,1.57452738323,-1.25183664392,3.19480271341,0.998984295363,0.000681075128322,0.044250707923,-0.00847281553864,-0.0772971746351,-0.570880957498,0.0361504105859,0.0,0.0,0.0
1609054454073446000,65,1609054454073446000,1.56054121765,-1.30507177116,3.20278218882,0.999070850415,0.000407084369699,0.0424258482695,-0.0075708342913,-0.132421804987,-0.539473099996,0.0449954859228,0.0,0.0,0.0
1609054454173509000,66,1609054454173509000,1.5433048305,-1.35575907174,3.20644725954,0.999186268451,0.000394281572683,0.0396080117996,-0.00760597676315,-0.181213621326,-0.502354908012,0.0568539165748,0.0,0.0,0.0
1609054454273504000,67,1609054454273504000,1.52186234351,-1.40244190993,3.21145164202,0.999290004511,0.000370989067012,0.0366721602777,-0.00863144899852,-0.221965387433,-0.476771610817,0.067277420195,0.0,0.0,0.0
1609054454373512000,68,1609054454373512000,1.49852416263,-1.44852321319,3.21312266352,0.999351864563,2.12014707978e-05,0.0342426802269,-0.0111035668083,-0.254623910951,-0.442871847476,0.0695643195582,0.0,0.0,0.0
1609054454473592000,69,1609054454473592000,1.45605629707,-1.50212574705,3.2108656114,0.99943742888,-0.000296963269416,0.0288739997726,-0.017059592707,-0.294692929556,-0.429625007291,0.0389185303395,0.0,0.0,0.0
1609054454573562000,70,1609054454573562000,1.42546620413,-1.54366540526,3.21807998473,0.99949374807,-0.000786261725614,0.0223100277712,-0.0226691866148,-0.305397425606,-0.420646337013,0.0308171754834,0.0,0.0,0.0
1609054454673634000,71,1609054454673634000,1.39429094473,-1.58700490253,3.21602879259,0.999484383094,-0.0012926071669,0.017309145296,-0.0270127859834,-0.30378354516,-0.44064358426,0.0353802791891,0.0,0.0,0.0
1609054454773623000,72,1609054454773623000,1.34807930407,-1.63815825822,3.21060727326,0.999486600264,-0.00149879223796,0.015272670414,-0.0281253453747,-0.306986199826,-0.44131639649,0.0228390846771,0.0,0.0,0.0
1609054454873702000,73,1609054454873702000,1.31950912348,-1.68188060769,3.21097608031,0.99956373946,-0.00150733063327,0.0135643903801,-0.0261928621037,-0.292129342559,-0.451827416266,-0.00821086059756,0.0,0.0,0.0
1609054454973728000,74,1609054454973728000,1.29043986881,-1.7265205213,3.20627689625,0.999669048007,-0.00143503882683,0.0118443921455,-0.0227913469217,-0.278690535156,-0.460450097548,-0.0287742547898,0.0,0.0,0.0
1609054455073682000,75,1609054455073682000,1.25680744586,-1.78556506598,3.18822381767,0.999721863256,-0.00109315311098,0.0101252808192,-0.0212715733355,-0.263681330683,-0.469430696675,-0.038052661084,0.0,0.0,0.0
1609054455173771000,76,1609054455173771000,1.23241436622,-1.83747603694,3.18377021491,0.999709791744,-0.00110700956346,0.00761214664601,-0.0228289737847,-0.242779502951,-0.466286462381,-0.0476797549432,0.0,0.0,0.0
1609054455273795000,77,1609054455273795000,1.20747692762,-1.88066194323,3.17719331136,0.999606878549,-0.0016328288721,0.00487342430007,-0.0275621472781,-0.21645580034,-0.472809993404,-0.0476021933168,0.0,0.0,0.0
1609054455373788000,78,1609054455373788000,1.18588614088,-1.92398847922,3.16918603415,0.999481306272,-0.00167658437529,0.00347031281571,-0.0319728698603,-0.186916587883,-0.475956799976,-0.0462709823893,0.0,0.0,0.0
1609054455473854000,79,1609054455473854000,1.16836368723,-1.97416984792,3.16134887961,0.999215635675,-0.00214311788379,0.00332337585206,-0.0394014675135,-0.156535834778,-0.50528535496,-0.0418349568782,0.0,0.0,0.0
1609054455573922000,80,1609054455573922000,1.14629741601,-2.03436322877,3.1460967525,0.999092441898,-0.00174034213418,0.00416297336736,-0.0423548510118,-0.136499575009,-0.547222655283,-0.0460986728667,0.0,0.0,0.0
1609054455673908000,81,1609054455673908000,1.13293463406,-2.09155231065,3.14429781738,0.999094554802,-0.00166680677812,0.00405893695503,-0.0423180499472,-0.115954955957,-0.591193053253,-0.0425324492711,0.0,0.0,0.0
1609054455773894000,82,1609054455773894000,1.12111595306,-2.15274271319,3.14020256908,0.999175619271,-0.00124896402202,0.00409609964309,-0.0403700868262,-0.0946881391092,-0.632894129737,-0.0355239335026,0.0,0.0,0.0
1609054455873995000,83,1609054455873995000,1.11286251011,-2.22022834175,3.1358421322,0.999292232952,-0.000967072891096,0.00502553451724,-0.0372671696605,-0.0776975363338,-0.667550238957,-0.0249818076737,0.0,0.0,0.0
1609054455973989000,84,1609054455973989000,1.10511154842,-2.29002376458,3.13426101288,0.99940310894,-0.000642256669329,0.00579347933394,-0.0340506820049,-0.0684883340181,-0.699959757578,-0.0262325892671,0.0,0.0,0.0
1609054456073996000,85,1609054456073996000,1.09792005505,-2.3586013093,3.13176061326,0.999559058124,-0.000336688566959,0.00489681954905,-0.0292847592075,-0.0570862377863,-0.714069536414,-0.00842725389852,0.0,0.0,0.0
1609054456174111000,86,1609054456174111000,1.08138541994,-2.43954188556,3.12688370354,0.999695628777,0.000397568132224,0.00487744996466,-0.0241806167456,-0.0544015270437,-0.719069363848,0.00548475254623,0.0,0.0,0.0
1609054456274132000,87,1609054456274132000,1.0763658417,-2.51606231355,3.12896357681,0.999800766532,0.000897057797953,0.00393680532815,-0.0195479945887,-0.0428998792938,-0.721215803797,0.00944677755283,0.0,0.0,0.0
1609054456374107000,88,1609054456374107000,1.07218494978,-2.58424139208,3.12903794522,0.99982915121,0.000716820513319,0.00311448100475,-0.0182058937444,-0.0311957888691,-0.706323045515,0.00337493919049,0.0,0.0,0.0
1609054456474122000,89,1609054456474122000,1.0685039871,-2.65061466262,3.12817657562,0.999795555131,0.000602399517729,0.000966363069306,-0.0201878972908,-0.0174248255616,-0.689310211637,0.00280380474515,0.0,0.0,0.0
1609054456574181000,90,1609054456574181000,1.06202381401,-2.72236339867,3.12520860909,0.999797403655,0.000615453077702,0.000617558652222,-0.0201094874014,-0.00364793388494,-0.692364531328,0.00356577075054,0.0,0.0,0.0
1609054456674185000,91,1609054456674185000,1.06297622331,-2.7935615256,3.12869936933,0.999845690168,0.000540952407225,-0.00128559757316,-0.0175114380576,0.0098461930487,-0.688637703709,-0.0074519958866,0.0,0.0,0.0
1609054456774249000,92,1609054456774249000,1.06182243523,-2.8622262879,3.13141027456,0.999904884949,0.000569904330854,-0.00550289227944,-0.0126338608766,0.0270795571916,-0.672519687431,-0.0381619555678,0.0,0.0,0.0
1609054456874281000,93,1609054456874281000,1.0638588741,-2.93037094925,3.12794831746,0.99988892511,0.000688651116697,-0.010275816514,-0.010773615744,0.0551854919994,-0.64701048011,-0.020876858591,0.0,0.0,0.0
1609054456974285000,94,1609054456974285000,1.0596611718,-2.9998579741,3.12287177811,0.9998451986,0.000249930933311,-0.0155252802393,-0.00827538791206,0.0838834824205,-0.625890860042,-0.0243069787588,0.0,0.0,0.0
1609054457074352000,95,1609054457074352000,1.07164478112,-3.05973297121,3.12144997491,0.999789620692,1.0812243634e-05,-0.0194972150084,-0.00636968183872,0.132769125943,-0.591325084212,-0.0124950286264,0.0,0.0,0.0
1609054457174316000,96,1609054457174316000,1.09185553855,-3.12049665293,3.11572697375,0.999776561346,-0.000331139223522,-0.0207498402636,-0.0040201815881,0.187579675967,-0.560303382587,-0.0129524362163,0.0,0.0,0.0
1609054457274378000,97,1609054457274378000,1.11144514486,-3.17966013467,3.10587548221,0.999790685257,-0.0005459716324,-0.0203832259911,-0.00167680832435,0.233640699594,-0.518343246995,-0.0171241787047,0.0,0.0,0.0
1609054457374456000,98,1609054457374456000,1.13862130858,-3.22881522447,3.1021682207,0.999802562247,-0.000885566501473,-0.0197899915921,-0.00155194378393,0.27702983453,-0.477048183239,-0.035631880093,0.0,0.0,0.0
1609054457474450000,99,1609054457474450000,1.16988353215,-3.2750739567,3.09579505457,0.999849391393,-0.00137811581852,-0.0171840466878,-0.00200096669548,0.326520838782,-0.441794971351,-0.00943431451864,0.0,0.0,0.0
1609054457574461000,100,1609054457574461000,1.20598503532,-3.31941709536,3.09066033085,0.999929751537,-0.00163279213737,-0.0115535810736,-0.00208344569094,0.35998439671,-0.401692795859,-0.00606311874117,0.0,0.0,0.0
1609054457674535000,101,1609054457674535000,1.24336114864,-3.36208379309,3.08691310097,0.999975100224,-0.00200668926367,-0.0061046081692,-0.00291648565793,0.386401188766,-0.362596845588,-0.00620227435448,0.0,0.0,0.0
1609054457774549000,102,1609054457774549000,1.28044847746,-3.41041591321,3.07122824686,0.999956088252,-0.00273318788428,0.00543162804518,-0.00713082525147,0.396497453471,-0.355018703701,0.0291893742789,0.0,0.0,0.0
1609054457874548000,103,1609054457874548000,1.31808925864,-3.44274793024,3.08213254122,0.999855869012,-0.00286970311349,0.0142461454516,-0.0087780034789,0.368235169686,-0.324862184763,-0.037241177626,0.0,0.0,0.0
1609054457974583000,104,1609054457974583000,1.35921342972,-3.48236254122,3.08269563555,0.999849669651,-0.00270927449365,0.0157409548055,-0.0067468713464,0.342803674319,-0.309510569869,-0.0523821619285,0.0,0.0,0.0
1609054458074608000,105,1609054458074608000,1.39161123978,-3.51473533367,3.08816579899,0.999882186908,-0.00260466132435,0.0141525400071,-0.00534169021253,0.317310630428,-0.289814805397,-0.0978587767274,0.0,0.0,0.0
1609054458174660000,106,1609054458174660000,1.41999691977,-3.54352938667,3.07681445573,0.999944662255,-0.00259956570162,0.00977769477712,-0.00288294497466,0.297901996031,-0.258966422375,-0.140045158727,0.0,0.0,0.0
1609054458274713000,107,1609054458274713000,1.44816087574,-3.57328438491,3.06556526037,0.999976682079,-0.00222368572777,0.00588855693963,-0.00264866338351,0.293405678019,-0.22790961397,-0.139207487013,0.0,0.0,0.0
1609054458374726000,108,1609054458374726000,1.47573846085,-3.59831742141,3.05300053703,0.999995442569,-0.00106671755463,0.00251904272789,0.001277254569,0.289429062977,-0.205852265643,-0.171349081057,0.0,0.0,0.0
1609054458474744000,109,1609054458474744000,1.50126618911,-3.62261216677,3.03988499652,0.99999296962,-7.68796035409e-05,0.000197935949978,0.00374374434666,0.286270028591,-0.172687860287,-0.176164523202,0.0,0.0,0.0
1609054458574753000,110,1609054458574753000,1.5256555403,-3.65170054479,3.03668098527,0.999996519349,0.000455355091878,-0.00242986090232,-0.000921801362303,0.295695542706,-0.13938562341,-0.145161973957,0.0,0.0,0.0
1609054458674815000,111,1609054458674815000,1.55889024582,-3.66444869678,3.01850767129,0.999986027497,0.00066359147978,-0.00100580463446,-0.0051471170523,0.30706019171,-0.122680729265,-0.110254807881,0.0,0.0,0.0
1609054458774904000,112,1609054458774904000,1.59249597406,-3.67780068433,3.00561452848,0.999940200488,0.000473999932814,0.00443913663106,-0.00998322782421,0.306367809643,-0.101968586106,-0.0710148021866,0.0,0.0,0.0
1609054458874855000,113,1609054458874855000,1.62382146055,-3.6895807496,2.99815146629,0.999842145903,0.000643646735563,0.00843599441829,-0.0156237957282,0.291651312587,-0.095866285215,-0.0676954399937,0.0,0.0,0.0
1609054458974963000,114,1609054458974963000,1.65044011467,-3.69975352774,2.9972808124,0.999789197603,0.00076796314875,0.0113570586827,-0.0170876506883,0.268766489888,-0.114479823545,-0.0378876193492,0.0,0.0,0.0
1609054459074922000,115,1609054459074922000,1.67350550209,-3.71221243257,3.00192454488,0.999733217693,0.00084516797422,0.0131094597142,-0.0189979261488,0.239456760344,-0.124424221157,-0.0125988660602,0.0,0.0,0.0
1609054459174952000,116,1609054459174952000,1.69500541779,-3.72665895331,3.00990492888,0.999765925798,0.0013676684379,0.0113177270363,-0.018388370016,0.201669833461,-0.131266377243,-0.0348711836081,0.0,0.0,0.0
1609054459274968000,117,1609054459274968000,1.71198759893,-3.73824966068,3.01318148334,0.999760325999,0.00133164022774,0.00572060774414,-0.0210900910286,0.179748190859,-0.148123303394,-0.0161248771633,0.0,0.0,0.0
1609054459375005000,118,1609054459375005000,1.7282758868,-3.75766344146,3.01284925185,0.999755244915,0.00126380455657,0.00293722738417,-0.0218912256231,0.168047416571,-0.167287341554,0.0163563637661,0.0,0.0,0.0
1609054459475181000,119,1609054459475181000,1.74286193062,-3.77255529606,3.01545624149,0.999841805807,0.00145178881861,8.5458286561e-05,-0.0177270518422,0.161480538083,-0.18358552219,0.0464912034783,0.0,0.0,0.0
1609054459575089000,120,1609054459575089000,1.75865610931,-3.78862614859,3.01672636776,0.999867094209,0.0012423218841,-0.00101165288618,-0.0162242754279,0.159269954338,-0.184080755761,0.0876493191128,0.0,0.0,0.0
1609054459675084000,121,1609054459675084000,1.77473772827,-3.80609675079,3.02057296006,0.999899889733,0.00156446130607,0.000973692878724,-0.0140290732276,0.155045514762,-0.182376436179,0.113660026483,0.0,0.0,0.0
1609054459775192000,122,1609054459775192000,1.78696770056,-3.82163940925,3.03528366395,0.999945436175,0.00157417511663,0.00363005154898,-0.00966795588046,0.138662069815,-0.191182140551,0.108948143762,0.0,0.0,0.0
1609054459875179000,123,1609054459875179000,1.79722641121,-3.83986394603,3.05356637861,0.99995782155,0.00175637578595,0.00322919689503,-0.00841680181277,0.115397903153,-0.166495864253,0.0744258995928,0.0,0.0,0.0
1609054459975212000,124,1609054459975212000,1.80414640075,-3.85523304479,3.06781867256,0.999977726883,0.00189649593922,-0.000723488595915,-0.00635811333436,0.100107430233,-0.163246526851,0.0809554898182,0.0,0.0,0.0
1609054460075278000,125,1609054460075278000,1.81087899192,-3.87075708881,3.0750549807,0.999969207766,0.00201855549095,-0.00423786319449,-0.00628883693961,0.0959738489257,-0.142161554978,0.0675148250884,0.0,0.0,0.0
1609054460175270000,126,1609054460175270000,1.81711572041,-3.88489629037,3.08455485778,0.999931705343,0.00228447806911,-0.00903236398231,-0.00705565096088,0.0939588841961,-0.138418335089,0.058103344881,0.0,0.0,0.0
1609054460275293000,127,1609054460275293000,1.82495284068,-3.89365980367,3.08901244276,0.999897003908,0.0023302191029,-0.0129732463502,-0.00567860314428,0.10777268336,-0.121722748338,0.0735222502826,0.0,0.0,0.0
1609054460375311000,128,1609054460375311000,1.82890721739,-3.89819750225,3.09385026396,0.999831513592,0.00249743848973,-0.0177725537682,-0.00385273433221,0.117316713868,-0.103915015715,0.0551274863319,0.0,0.0,0.0
1609054460475335000,129,1609054460475335000,1.84168832793,-3.91128310494,3.1023018481,0.999721615826,0.00209914000541,-0.023254537724,-0.00339277712235,0.147266835792,-0.0921697189254,0.0715551975466,0.0,0.0,0.0
1609054460575348000,130,1609054460575348000,1.86122977453,-3.91962061589,3.10508808513,0.999625391691,0.00179776107366,-0.0272674445929,-0.0015266984121,0.19279251951,-0.0778041487732,0.0862330939429,0.0,0.0,0.0
1609054460675454000,131,1609054460675454000,1.88518247409,-3.9169175966,3.10115959465,0.99955660308,0.00172329468024,-0.0295684024335,-0.00305566229479,0.241831213731,-0.0395224991759,0.0913007499358,0.0,0.0,0.0
1609054460775427000,132,1609054460775427000,1.91293572211,-3.92326255009,3.10643277328,0.999488211156,0.00165992111897,-0.0312959248349,-0.00641291749355,0.292409985694,-0.0148914077057,0.0847807794196,0.0,0.0,0.0
1609054460875449000,133,1609054460875449000,1.94419771122,-3.92632785869,3.11256918115,0.999444792685,0.0014733540526,-0.0318592623744,-0.00963965782978,0.340799143176,-0.0075318340433,0.0689458093383,0.0,0.0,0.0
1609054460975433000,134,1609054460975433000,1.98086757781,-3.92653627151,3.11847917558,0.999365866015,0.00139213655756,-0.0327178698294,-0.0139810154433,0.39174286761,-0.00821990298594,0.0558825326552,0.0,0.0,0.0
1609054461075514000,135,1609054461075514000,2.02330551674,-3.92785665171,3.1202886802,0.999308668452,0.00135761211611,-0.03266533927,-0.0177007812527,0.450291281773,-0.0186030936736,0.0452982666644,0.0,0.0,0.0
1609054461175526000,136,1609054461175526000,2.06803611981,-3.93680413411,3.12161259096,0.999267705127,0.0016696630263,-0.0310343398192,-0.0223189486152,0.502871729698,-0.0248922428676,0.0431427326006,0.0,0.0,0.0
1609054461275602000,137,1609054461275602000,2.12112190092,-3.94234515142,3.12740861538,0.999299842872,0.00180908771956,-0.0269480558481,-0.0258911861984,0.553244607054,-0.0520473155824,0.0556594633609,0.0,0.0,0.0
1609054461375567000,138,1609054461375567000,2.17861183977,-3.94999775038,3.13062936861,0.999287078159,0.00160457728983,-0.0224419219607,-0.030317006704,0.588856618162,-0.0800329298836,0.0367440119777,0.0,0.0,0.0
1609054461475632000,139,1609054461475632000,2.23863916709,-3.9611955963,3.13420388077,0.999344657196,0.00168303506619,-0.0190532889202,-0.0307310219223,0.617043481284,-0.122330727042,0.0224312832082,0.0,0.0,0.0
1609054461575790000,140,1609054461575790000,2.30123905075,-3.9749634652,3.13472129158,0.999574781433,0.00169455443183,-0.0126801917755,-0.0262030064214,0.642582519067,-0.153613179087,0.0330366997472,0.0,0.0,0.0
1609054461675743000,141,1609054461675743000,2.36635560834,-3.98989794796,3.13716201058,0.999807108171,0.00203709516166,-0.00603504402449,-0.0185788841818,0.653173966346,-0.16555892527,0.043951101368,0.0,0.0,0.0
1609054461775695000,142,1609054461775695000,2.43302563912,-4.0057672598,3.13860034284,0.999946831904,0.00220235391865,0.00456552261328,-0.00897992239461,0.653048423259,-0.166712805249,0.0842199539395,0.0,0.0,0.0
1609054461875784000,143,1609054461875784000,2.49388082875,-4.02114177241,3.1469704294,0.999861503302,0.0026705444338,0.016249663982,-0.00240641402118,0.611764788147,-0.140160882388,0.0713128986766,0.0,0.0,0.0
1609054461975762000,144,1609054461975762000,2.54986419582,-4.03398841316,3.16169244583,0.999710084065,0.00320515523795,0.0238509278642,0.000779768834114,0.559164720385,-0.100321839465,0.0481755017662,0.0,0.0,0.0
1609054462075781000,145,1609054462075781000,2.60564717371,-4.03953660483,3.15647613894,0.999632739652,0.00343247803934,0.0268281451283,-0.00168953841133,0.4991511627,-0.0609136806787,-0.00290862799294,0.0,0.0,0.0
1609054462175858000,146,1609054462175858000,2.65174850169,-4.04450243164,3.15646880685,0.999700116504,0.00389326378656,0.0240192754113,-0.00275571540415,0.435833743383,-0.0243286444855,-0.0412221749238,0.0,0.0,0.0
1609054462275844000,147,1609054462275844000,2.69344170707,-4.04479816999,3.15456918967,0.999815422835,0.00429656243466,0.0186062776137,-0.00211334939463,0.391345420463,-0.0106083167272,-0.0427367037849,0.0,0.0,0.0
1609054462375900000,148,1609054462375900000,2.73238246901,-4.04233371226,3.14714310291,0.999879923819,0.00414531273236,0.0145559257939,-0.00332856590532,0.357353844293,0.0199587464814,-0.0260243085484,0.0,0.0,0.0
1609054462475969000,149,1609054462475969000,2.76817142999,-4.04015869207,3.14456986169,0.999894271364,0.00410534788086,0.0118842124028,-0.00730463599429,0.321671257557,0.0492666010689,-0.0451903514516,0.0,0.0,0.0
1609054462575933000,150,1609054462575933000,2.78953043818,-4.02893253587,3.14530030533,0.999951920702,0.00408744249471,0.00593967014667,-0.00664600761879,0.286515889087,0.0613121042747,-0.0481025470852,0.0,0.0,0.0
1609054462675955000,151,1609054462675955000,2.81870652264,-4.02460074889,3.13945505268,0.999984113438,0.00441934287942,0.00310932306095,-0.00160449068905,0.276438650552,0.073911251948,-0.0206169297567,0.0,0.0,0.0
1609054462776038000,152,1609054462776038000,2.84783642744,-4.0171267112,3.13520085675,0.999988106613,0.00434626533422,0.00174931020506,0.00135518405783,0.265132532521,0.0990524017092,-0.00201854879861,0.0,0.0,0.0
1609054462876062000,153,1609054462876062000,2.87933211737,-4.00668220632,3.13310704008,0.999977384528,0.00403606974783,0.00205495150133,0.00497169472292,0.255452982075,0.135735311276,-0.0370596167804,0.0,0.0,0.0
1609054462976048000,154,1609054462976048000,2.90619905654,-3.99350970949,3.12876458753,0.999961250606,0.00414936464423,0.00154802504177,0.00760813235466,0.242655424762,0.184975900527,-0.039208786743,0.0,0.0,0.0
1609054463076130000,155,1609054463076130000,2.93201328394,-3.97505992703,3.12634677845,0.999961373147,0.00409941324277,0.000863464352013,0.00772667164835,0.228592554948,0.223202310271,-0.0298837486385,0.0,0.0,0.0
1609054463176124000,156,1609054463176124000,2.95584944141,-3.95132966296,3.12451772162,0.999973765282,0.00377651802306,-3.14966793516e-05,0.00618107338305,0.219608226353,0.270235776165,0.00824207142472,0.0,0.0,0.0
1609054463276156000,157,1609054463276156000,2.97843119138,-3.92279706607,3.12326089535,0.999987489579,0.00388882271914,0.00115334394348,0.00292703639441,0.213039865719,0.296463866235,0.0217200785181,0.0,0.0,0.0
1609054463376210000,158,1609054463376210000,3.00187682279,-3.89246189881,3.12625615638,0.999991612703,0.00332869388366,0.00193042606586,0.00140277457059,0.201085713942,0.330555515871,0.0316255521456,0.0,0.0,0.0
1609054463476234000,159,1609054463476234000,3.02601771061,-3.86087223735,3.13397849531,0.999994365715,0.00318023549436,-0.000576635106793,0.000906715461607,0.192302566642,0.360050215686,0.0357569128374,0.0,0.0,0.0
1609054463576240000,160,1609054463576240000,3.04674719813,-3.82445424755,3.13813769868,0.999994567693,0.00311738881008,-0.00105109124596,0.000204154051594,0.190296329094,0.381694605958,0.0545671073472,0.0,0.0,0.0
1609054463676312000,161,1609054463676312000,3.06686301643,-3.78506301949,3.14153757911,0.999991790589,0.00292528203785,-0.000252476574812,-0.0027924425653,0.187479809245,0.407481712472,0.0483863065317,0.0,0.0,0.0
1609054463776339000,162,1609054463776339000,3.08868228637,-3.74460051062,3.1462180764,0.999961219512,0.00237059240824,0.00148986586173,-0.00834985413139,0.184149953247,0.422165728226,0.0731313467887,0.0,0.0,0.0
1609054463876358000,163,1609054463876358000,3.10828926882,-3.70221228662,3.15416844552,0.999915355707,0.00181987054101,0.0040509381391,-0.012229447787,0.173795272671,0.416981035558,0.0940218399812,0.0,0.0,0.0
1609054463976416000,164,1609054463976416000,3.12676840512,-3.6618625408,3.17004590841,0.999871878229,0.00107878214356,0.00611568931336,-0.0147533623476,0.156184400349,0.405103308766,0.0618706968899,0.0,0.0,0.0
1609054464076413000,165,1609054464076413000,3.14205213157,-3.62268011355,3.18290533989,0.999882533824,0.000251400717792,0.00768157511123,-0.0132607977046,0.134905128363,0.394076229678,0.07716463478,0.0,0.0,0.0
1609054464176452000,166,1609054464176452000,3.15677680059,-3.5862794491,3.19628019226,0.999920533024,-0.000510731767166,0.00643815278569,-0.0108266790325,0.116278000245,0.377897544543,0.0733763322048,0.0,0.0,0.0
1609054464276570000,167,1609054464276570000,3.16251139036,-3.54752760595,3.2062747071,0.999966368826,-0.000924288792421,0.00416666267958,-0.00700327274178,0.101223445691,0.375607445752,0.080235315504,0.0,0.0,0.0
1609054464376456000,168,1609054464376456000,3.17242212385,-3.50838346192,3.21208946756,0.999976708275,-0.00120012124149,0.00285775951806,-0.00608077516148,0.0910820289695,0.384065665011,0.0798987360196,0.0,0.0,0.0
1609054464476551000,169,1609054464476551000,3.18387982645,-3.46970948338,3.21422999527,0.999992830374,-0.00126526401603,0.00292452642671,-0.00204583800275,0.0854413690479,0.405880241848,0.0798990396889,0.0,0.0,0.0
1609054464576622000,170,1609054464576622000,3.19485869907,-3.42867160364,3.2161424694,0.999975406008,-0.00160143132896,0.00631423574555,-0.0025986967212,0.0795295527104,0.416087646162,0.0828506268913,0.0,0.0,0.0
1609054464676565000,171,1609054464676565000,3.20080732472,-3.38649358557,3.22294860841,0.999936591579,-0.00126387731699,0.0110494381527,-0.00176786652683,0.0565763543202,0.429467405632,0.0772134024987,0.0,0.0,0.0
1609054464776615000,172,1609054464776615000,3.20446068138,-3.34393158089,3.23387352475,0.999861851532,-0.00070972363905,0.0164529147035,-0.00225294076029,0.020678440502,0.446495581899,0.0674746536037,0.0,0.0,0.0
1609054464876697000,173,1609054464876697000,3.19985370045,-3.30180802527,3.2472553239,0.999803543186,-0.000416512753383,0.0198037523235,-0.000716201079455,-0.0236517910123,0.454899377072,0.0547447133606,0.0,0.0,0.0
1609054464976668000,174,1609054464976668000,3.19456103539,-3.25673141248,3.25378292456,0.999766008113,-0.000702951392679,0.0214489116039,0.00271644491894,-0.0752949913843,0.475355469629,0.0250380870779,0.0,0.0,0.0
1609054465076672000,175,1609054465076672000,3.17830178292,-3.21129608,3.26124523598,0.999796382389,-0.000505818226134,0.0199351023344,0.00308700590151,-0.127876899756,0.49771133744,-0.00409976354009,0.0,0.0,0.0
1609054465176745000,176,1609054465176745000,3.16349861843,-3.16066868644,3.26236666269,0.999861294417,-0.000498195432224,0.0149368522035,0.0073507941592,-0.169843613879,0.523658340374,-0.0512175332504,0.0,0.0,0.0
1609054465276768000,177,1609054465276768000,3.14614806548,-3.10716634954,3.26168412542,0.999934539899,-0.000205693039658,0.00861905073997,0.00752233823841,-0.194076101505,0.555076789741,-0.0593275769173,0.0,0.0,0.0
1609054465376789000,178,1609054465376789000,3.12690528098,-3.04895707587,3.25572318284,0.999938846924,0.000279857436148,0.000551543503599,0.0110417341069,-0.203072994545,0.584157935783,-0.0858577252392,0.0,0.0,0.0
1609054465476870000,179,1609054465476870000,3.10606024142,-2.98575004808,3.24877323532,0.99988379799,0.000839952961045,-0.00513565051658,0.0143286458012,-0.201848723774,0.624285574911,-0.0753227879488,0.0,0.0,0.0
1609054465576918000,180,1609054465576918000,3.08509874987,-2.92361862381,3.23483074365,0.999770112645,0.00123579198545,-0.00816926767079,0.0197852911672,-0.181767720261,0.661042566506,-0.0761320495366,0.0,0.0,0.0
1609054465676856000,181,1609054465676856000,3.06198389181,-2.85363192967,3.22648250843,0.999599764612,0.0010753113499,-0.00973315672462,0.0265409109249,-0.16462160377,0.719035085596,-0.072503778428,0.0,0.0,0.0
1609054465776906000,182,1609054465776906000,3.04759066867,-2.7792340527,3.21996423589,0.999325624888,0.000755357588471,-0.00966407671082,0.0354165286055,-0.137269224627,0.798179457111,-0.0559278456237,0.0,0.0,0.0
1609054465876943000,183,1609054465876943000,3.03564964186,-2.69585706513,3.21335064371,0.999167740753,0.000864406586851,-0.00809646447984,0.0399690618286,-0.109818036479,0.908532858706,-0.0377329125193,0.0,0.0,0.0
1609054465976993000,184,1609054465976993000,3.01547126162,-2.61305323087,3.20003033741,0.999282736006,0.00140297057096,-0.00646216310726,0.0372865343123,-0.0946984624265,1.00133163222,-0.0530127278438,0.0,0.0,0.0
1609054466077005000,185,1609054466077005000,3.00856462761,-2.50557251805,3.19598011153,0.999626101676,0.00155497040087,-0.00501749714484,0.0268340015268,-0.0765786406408,1.09627098118,-0.0420378194796,0.0,0.0,0.0
1609054466177001000,186,1609054466177001000,3.00326631614,-2.39014094273,3.1934258366,0.999897306068,0.00134213905414,-0.00328559259493,0.0138845547872,-0.0639163133274,1.15855330277,-0.0360031625328,0.0,0.0,0.0
1609054466276979000,187,1609054466276979000,3.00365896399,-2.26546264487,3.18963495469,0.99999810584,0.000602989652127,-0.000856045261832,-0.00164070282442,-0.0510209081746,1.19890125991,-0.0153167103761,0.0,0.0,0.0
1609054466377077000,188,1609054466377077000,2.99741374111,-2.14563511659,3.19102626195,0.999872615228,0.000431792219233,0.0020477940615,-0.0158231922037,-0.0441072488064,1.2050386364,0.0226516002918,0.0,0.0,0.0
1609054466477092000,189,1609054466477092000,2.99710416692,-2.01658619492,3.1960112402,0.999610687586,-0.000188741544612,0.00529633331326,-0.027393183356,-0.0512898554658,1.18748247815,0.0207250337825,0.0,0.0,0.0
1609054466577177000,190,1609054466577177000,2.98752904946,-1.90045036034,3.20450273602,0.999348204289,-0.000501019578529,0.0058498228952,-0.0356187469728,-0.0676377560191,1.14390454085,0.0114689271551,0.0,0.0,0.0
1609054466677223000,191,1609054466677223000,2.98255759617,-1.78531243921,3.20947869261,0.999194293346,-0.000394391478649,0.00337412895215,-0.039990296989,-0.0792147768792,1.08705480072,-0.00606075488035,0.0,0.0,0.0
1609054466777285000,192,1609054466777285000,2.97539951376,-1.68082863432,3.21022289056,0.999112119168,-7.11545572249e-05,0.00135302905201,-0.0421086402067,-0.0786771204768,1.02924649358,0.0172338110722,0.0,0.0,0.0
1609054466877270000,193,1609054466877270000,2.96607915016,-1.57922665685,3.21915241315,0.998950766771,-0.000123423759568,0.00147888306238,-0.0457729531405,-0.0861561355504,0.946847535246,0.0321912703611,0.0,0.0,0.0
1609054466977262000,194,1609054466977262000,2.9590513189,-1.48769218614,3.22046454756,0.999055143424,-0.000377612036846,0.00291976385722,-0.0433607286276,-0.0876863706539,0.873084026074,0.0515524210721,0.0,0.0,0.0
1609054467077358000,195,1609054467077358000,2.95123420619,-1.40387690356,3.2238419111,0.999142625376,-0.000887670580004,0.00717711523048,-0.0407641412877,-0.100925781724,0.793919157959,0.0341658214013,0.0,0.0,0.0
1609054467177326000,196,1609054467177326000,2.94077572481,-1.32678111032,3.22728745124,0.999273770416,-0.00150609678693,0.00888565584695,-0.0370230813347,-0.118319187196,0.739844791536,0.0206110351618,0.0,0.0,0.0
1609054467277348000,197,1609054467277348000,2.92800091755,-1.25412980693,3.23026068932,0.999438926934,-0.00100946784566,0.0082821662065,-0.0324379103346,-0.141911016137,0.690349712674,-0.0253525365099,0.0,0.0,0.0
1609054467377439000,198,1609054467377439000,2.91143769958,-1.18824330015,3.22875567644,0.999589254764,-0.000825253501402,0.00745028951489,-0.0276610539013,-0.159854888218,0.659406562647,-0.00999930565694,0.0,0.0,0.0
1609054467477388000,199,1609054467477388000,2.89563311425,-1.12343857334,3.22631385582,0.999701994078,-0.000763694530308,0.00972272373323,-0.0223787499726,-0.177766500379,0.621380940026,-0.00316150864557,0.0,0.0,0.0
1609054467577502000,200,1609054467577502000,2.87771231447,-1.06218517809,3.22592480692,0.999763110762,-0.000825713831736,0.0121763678756,-0.0180215599283,-0.203053545258,0.597625437238,-0.00534357546615,0.0,0.0,0.0
1609054467677493000,201,1609054467677493000,2.85852142207,-1.00713851899,3.22576264936,0.999843721264,-0.000718695674348,0.0110839124733,-0.0137536689694,-0.22854362952,0.584762175218,-0.0397442760866,0.0,0.0,0.0
1609054467777502000,202,1609054467777502000,2.83351713581,-0.949482788867,3.22380419021,0.999901599598,-0.000302295435254,0.00870581140273,-0.010995844052,-0.250215082208,0.585822626671,-0.0380350577131,0.0,0.0,0.0
1609054467877602000,203,1609054467877602000,2.80622981598,-0.889754618789,3.22057711697,0.999940843525,-0.000194554869727,0.00587966222907,-0.00914883435514,-0.267125825758,0.58457032786,-0.0393230123112,0.0,0.0,0.0
1609054467977558000,204,1609054467977558000,2.77788352077,-0.831210462804,3.21741827077,0.999952562429,0.000162152579911,0.00319614690523,-0.00919952405408,-0.279938891443,0.58093977716,-0.0378156367892,0.0,0.0,0.0
1609054468077595000,205,1609054468077595000,2.74688604996,-0.771523688246,3.22129561033,0.999965330973,0.000152888026779,-0.00055998047895,-0.00830661775406,-0.284734924054,0.579088579469,-0.0266565220985,0.0,0.0,0.0
1609054468178046000,206,1609054468178046000,2.71796677503,-0.711659252226,3.21967304126,0.999969778944,0.000378683160625,-0.00449214706986,-0.00633390965992,-0.27799010282,0.579897062538,0.000121796832318,0.0,0.0,0.0
1609054468277714000,207,1609054468277714000,2.69052658022,-0.656152334069,3.21871273601,0.999971180847,0.00019644696194,-0.00648577865307,-0.00394126368073,-0.266515816762,0.584842686418,0.0206994776314,0.0,0.0,0.0
1609054468377723000,208,1609054468377723000,2.65825161039,-0.596611928733,3.22457534925,0.999962388304,9.05222129154e-05,-0.00832227433569,-0.00243998636633,-0.25735069571,0.604590272044,0.0338641876296,0.0,0.0,0.0
1609054468477811000,209,1609054468477811000,2.63371152516,-0.535622421967,3.22817730333,0.999955688205,0.000515238478593,-0.00921437361224,-0.00185781452249,-0.239037733753,0.625213700461,0.0586808059681,0.0,0.0,0.0
1609054468577772000,210,1609054468577772000,2.61017047691,-0.473204637394,3.23276059478,0.999950913823,0.00031144788585,-0.00945642861219,-0.00294090160116,-0.221040308977,0.63702106106,0.0756642210527,0.0,0.0,0.0
1609054468677805000,211,1609054468677805000,2.5882290974,-0.408092524854,3.2389107442,0.999953736115,0.000199285196871,-0.00910603101824,-0.00309291358284,-0.203840397648,0.648423426063,0.0820216802576,0.0,0.0,0.0
1609054468777871000,212,1609054468777871000,2.56753376042,-0.34461138698,3.24544181361,0.999959600534,0.000400094645145,-0.00812409119442,-0.00382575036934,-0.19032892062,0.663545655882,0.0848408667438,0.0,0.0,0.0
1609054468877875000,213,1609054468877875000,2.54772251994,-0.280099922006,3.25347588533,0.999970209629,0.000463547049414,-0.00649801222755,-0.00414014684214,-0.178396708259,0.672541035066,0.0659446629263,0.0,0.0,0.0
1609054468977853000,214,1609054468977853000,2.52277957699,-0.225902082493,3.26539995502,0.999979300369,0.000398283816262,-0.00460837569081,-0.00447247993725,-0.174381862699,0.669352660234,0.0642326900033,0.0,0.0,0.0
1609054469077950000,215,1609054469077950000,2.50678953702,-0.159826251617,3.2731317729,0.999982681834,0.00032602814383,-0.0030671845938,-0.00501219676655,-0.168561934389,0.670818343071,0.0451593530863,0.0,0.0,0.0
1609054469177993000,216,1609054469177993000,2.48922526263,-0.0901092951966,3.27946464976,0.999975525652,-5.90441521864e-05,-0.00284783275144,-0.00639018467118,-0.166557400375,0.680415029134,0.0357769303377,0.0,0.0,0.0
1609054469277960000,217,1609054469277960000,2.4730329033,-0.0207533719334,3.28154013969,0.999967904746,-0.000332667915993,-0.00360182259835,-0.00714882400236,-0.161969088826,0.684974811524,0.0316862463308,0.0,0.0,0.0
1609054469378013000,218,1609054469378013000,2.45703494594,0.0492742895596,3.28256554261,0.999965760279,-0.000641204254987,-0.00376988248389,-0.00733860422658,-0.154685650484,0.692969684938,0.0274474365191,0.0,0.0,0.0
1609054469478039000,219,1609054469478039000,2.43609021462,0.115359111667,3.28744648082,0.999968836477,-0.000878378805553,-0.00409731501935,-0.00669077980703,-0.148894251792,0.692114609829,0.0246732661113,0.0,0.0,0.0
1609054469577944000,220,1609054469577944000,2.42118780885,0.184813800726,3.2883850334,0.999967698962,-0.000647808236503,-0.0040541169916,-0.00690981271428,-0.142532913763,0.704512802004,0.00455443872436,0.0,0.0,0.0
1609054469677985000,221,1609054469677985000,2.40654869913,0.258452668901,3.28858767287,0.999955738044,-0.000544081405132,-0.0048311299501,-0.00805519160605,-0.135042429812,0.710522809719,-0.00723427043267,0.0,0.0,0.0
1609054469778123000,222,1609054469778123000,2.39316419028,0.33235938237,3.28778179596,0.999926961416,-0.000970101641903,-0.00603055433847,-0.0104289572841,-0.123645271882,0.720067038582,-0.00883834954946,0.0,0.0,0.0
1609054469878194000,223,1609054469878194000,2.38322740704,0.407030184086,3.28464983065,0.999898970444,-0.000736282831472,-0.00467864006308,-0.0134021311846,-0.108828297199,0.71269000051,0.0188643571132,0.0,0.0,0.0
1609054469978152000,224,1609054469978152000,2.3728953407,0.481279878123,3.28440100372,0.999929134302,-0.000212037241144,-0.0026271337871,-0.011609460879,-0.107575929697,0.705512985231,0.0021442260375,0.0,0.0,0.0
1609054470078220000,225,1609054470078220000,2.35976508637,0.559929601055,3.28541024413,0.999949226388,0.000420580889927,-0.00215736809637,-0.00983430322146,-0.105840244425,0.711263922153,0.0123689750822,0.0,0.0,0.0
1609054470178311000,226,1609054470178311000,2.35032956358,0.632008700487,3.28555679978,0.999938852831,0.000929600777891,-0.000296629004185,-0.0110153734995,-0.107184140124,0.698429108916,0.00599850408172,0.0,0.0,0.0
1609054470278247000,227,1609054470278247000,2.34019852961,0.705691573555,3.28589559643,0.999956679167,0.000755793503134,0.000852059827303,-0.00923810364628,-0.110839101984,0.699971747196,0.0012743213798,0.0,0.0,0.0
1609054470378190000,228,1609054470378190000,2.32771236387,0.776481328861,3.28565756522,0.999941742499,0.000184951733573,0.00014636102843,-0.0107914771562,-0.12167245042,0.704729879575,-0.0150936095342,0.0,0.0,0.0
1609054470478319000,229,1609054470478319000,2.32167193092,0.854699628345,3.27780364239,0.999904883617,-0.000254417365511,-0.00103695852885,-0.0137507711654,-0.119226729814,0.697128847843,-0.00622763506219,0.0,0.0,0.0
1609054470578368000,230,1609054470578368000,2.31304208815,0.92485037423,3.27329439255,0.999859099814,-0.000794705420306,-0.00189443088115,-0.0166601348991,-0.118499892609,0.68703187926,0.0193698657711,0.0,0.0,0.0
1609054470678415000,231,1609054470678415000,2.30264232619,0.991391175571,3.27098583809,0.999791243392,-0.000792648361903,0.000215132595956,-0.0204155593169,-0.121276249635,0.665200647298,0.014732101259,0.0,0.0,0.0
1609054470778435000,232,1609054470778435000,2.29061401295,1.05729041755,3.27031548314,0.999765808324,-0.000467824739476,0.00405049247511,-0.0212533092965,-0.135966058377,0.640115533561,0.00587624913695,0.0,0.0,0.0
1609054470878493000,233,1609054470878493000,2.27490438414,1.12111341218,3.27105588426,0.999766467901,-0.000413319526291,0.00607984213261,-0.0207334113972,-0.160485931301,0.612300579767,-0.0144222968021,0.0,0.0,0.0
1609054470978468000,234,1609054470978468000,2.25258884017,1.20145886064,3.27442547816,0.999829322877,-0.000553918809564,0.00580890991949,-0.0175292571379,-0.191794357218,0.596543847214,-0.0182917254251,0.0,0.0,0.0
1609054471078494000,235,1609054471078494000,2.22852602049,1.26050315451,3.27932715274,0.999905215681,-0.000437000933565,0.00279412421379,-0.0134744778563,-0.220610486312,0.593267475374,-0.0169316769343,0.0,0.0,0.0
1609054471179084000,236,1609054471179084000,2.20446198567,1.32100475759,3.27925188989,0.999931945189,-0.000215643215367,-0.00109011113726,-0.0116133606428,-0.235945059063,0.581863755027,-0.0134863551541,0.0,0.0,0.0
1609054471278523000,237,1609054471278523000,2.1812802594,1.3829299896,3.27411331011,0.999907046765,-0.00035801057714,-0.00428918009892,-0.0129372560015,-0.24184974202,0.566578658543,0.0021669619429,0.0,0.0,0.0
1609054471378549000,238,1609054471378549000,2.15838690453,1.43944311723,3.26757679204,0.999949179145,-2.82962586966e-05,-0.00433912373141,-0.00910001824473,-0.239497477141,0.561814979873,0.0218400856751,0.0,0.0,0.0
1609054471478673000,239,1609054471478673000,2.13112852308,1.50205426754,3.26770052951,0.999993256903,-6.1832176721e-05,-0.00189159443654,-0.0031470930859,-0.247795547726,0.570735691646,0.0185072326378,0.0,0.0,0.0
1609054471578681000,240,1609054471578681000,2.10541873784,1.55589009003,3.27054991458,0.99999984611,-9.59132591766e-05,0.000285297829769,0.000466032650931,-0.259947429474,0.581495439002,0.00349449103892,0.0,0.0,0.0
1609054471678694000,241,1609054471678694000,2.07788846527,1.61816160831,3.27170764929,0.999989201327,-0.000459684002423,0.00051274403657,0.00459597807652,-0.275905861706,0.597108612047,-0.0168330968589,0.0,0.0,0.0
1609054471778772000,242,1609054471778772000,2.04923491585,1.67953614032,3.27282053588,0.999975648454,-0.000768613811499,-0.000729904005537,0.00689775118977,-0.292836076215,0.635123946841,-0.0124849084167,0.0,0.0,0.0
1609054471878759000,243,1609054471878759000,2.01639780198,1.74504341284,3.27295099115,0.999976397286,-0.00109542191035,-0.00395850508214,0.00550773639599,-0.298612149254,0.665001250354,-0.0213824864357,0.0,0.0,0.0
1609054471978784000,244,1609054471978784000,1.98830838594,1.81251061053,3.26837466902,0.999967251172,-0.00136599015047,-0.00676371792292,0.00422880296911,-0.297435706541,0.68200003144,-0.0138523894752,0.0,0.0,0.0
1609054472078821000,245,1609054472078821000,1.95828835508,1.88112555063,3.26557277228,0.999949895211,-0.00155974352835,-0.00827914239161,0.0054064840371,-0.294125601963,0.708493477569,-0.00416523304051,0.0,0.0,0.0
1609054472178851000,246,1609054472178851000,1.92680255925,1.95060410196,3.26584815751,0.999920894203,-0.00183310489391,-0.00969269667223,0.00780363335606,-0.293734991671,0.733183760774,-0.0247943410023,0.0,0.0,0.0
1609054472278879000,247,1609054472278879000,1.89584464044,2.03117085459,3.26614214965,0.999900458364,-0.00236088775661,-0.0112084749345,0.00823830455426,-0.287264884622,0.768349778445,-0.0395595320213,0.0,0.0,0.0
1609054472378894000,248,1609054472378894000,1.86842322701,2.11060436258,3.26196303043,0.999853376276,-0.00309347691573,-0.0138608749414,0.00956726166047,-0.275496507175,0.797771129546,-0.0567232067265,0.0,0.0,0.0
1609054472478919000,249,1609054472478919000,1.84148029569,2.19125721022,3.25529104924,0.999783193585,-0.00320874866768,-0.0159626374617,0.0129793668064,-0.25490610228,0.850518508201,-0.0436617332191,0.0,0.0,0.0
1609054472578960000,250,1609054472578960000,1.81891972473,2.27614608137,3.24735694161,0.999763915114,-0.00327413336515,-0.0161892336762,0.0141174643287,-0.229765188413,0.89500684226,-0.0448259897909,0.0,0.0,0.0
1609054472679014000,251,1609054472679014000,1.79381306697,2.36637349174,3.24435359805,0.999786185008,-0.00340196878253,-0.0149243967841,0.0139022752309,-0.215064318757,0.928842464742,-0.0494913329584,0.0,0.0,0.0
1609054472779007000,252,1609054472779007000,1.77362264903,2.46221932492,3.24050995918,0.999808679054,-0.00350340567405,-0.0139169843693,0.0132909360875,-0.199051128923,0.979194381758,-0.0386393926805,0.0,0.0,0.0
1609054472878979000,253,1609054472878979000,1.75341412847,2.5621503982,3.23844357972,0.99983811228,-0.00266583861548,-0.0138706244855,0.0111466727476,-0.182464786446,1.01884438476,-0.014904671946,0.0,0.0,0.0
1609054472979128000,254,1609054472979128000,1.73547245902,2.66579492619,3.2372421153,0.999862203028,-0.002665001191,-0.0132731975509,0.00960702611139,-0.16337993809,1.05498810228,0.00472948288113,0.0,0.0,0.0
1609054473079111000,255,1609054473079111000,1.7197913094,2.76986105991,3.23634826865,0.999903618629,-0.00238612271816,-0.0120628023506,0.00644582580404,-0.14803915988,1.09020542995,0.0232428887128,0.0,0.0,0.0
1609054473179118000,256,1609054473179118000,1.70628004578,2.88096562082,3.23834638834,0.999931268354,-0.00217065437847,-0.0113045933746,0.00222553273978,-0.137390801506,1.11770784045,0.0188770211799,0.0,0.0,0.0
1609054473279235000,257,1609054473279235000,1.69114499321,2.99478930975,3.24258469359,0.999929755432,-0.00199357788883,-0.0116391075114,-0.00102030637878,-0.127116236254,1.13047030666,0.01636779049,0.0,0.0,0.0
1609054473379639000,258,1609054473379639000,1.67558378989,3.10958082012,3.24587289887,0.999911289823,-0.00183156437297,-0.0119453772094,-0.00560051959951,-0.11495037242,1.14724309833,0.0119275547708,0.0,0.0,0.0
1609054473479299000,259,1609054473479299000,1.66509491192,3.2224984961,3.2468374204,0.999818419595,-0.00236049571824,-0.0139444779227,-0.0127713520979,-0.100981635083,1.13527955463,0.0104707368901,0.0,0.0,0.0
1609054473579288000,260,1609054473579288000,1.65572166078,3.33511780388,3.2473293504,0.999659746539,-0.00314838778397,-0.0161650639404,-0.020227938906,-0.0789317451323,1.11435498828,0.0187320666825,0.0,0.0,0.0
1609054473679309000,261,1609054473679309000,1.64720106501,3.44895777023,3.24725161184,0.999547422966,-0.00424420908457,-0.0171271622674,-0.0243638306477,-0.0557637874435,1.08207746162,0.0215919903335,0.0,0.0,0.0
1609054473779300000,262,1609054473779300000,1.64627030277,3.55417004066,3.24926832847,0.999549360532,-0.00375073955251,-0.0156642616297,-0.0253305886346,-0.0214341207468,1.04174135425,0.0619092396552,0.0,0.0,0.0
1609054473879391000,263,1609054473879391000,1.64714157012,3.65476767528,3.25368510396,0.999645460945,-0.00347291460991,-0.0116260477261,-0.0237007655917,-0.0030170419503,1.00101940319,0.0637822418507,0.0,0.0,0.0
1609054473979764000,264,1609054473979764000,1.64432485645,3.75890283031,3.2589137941,0.999799194445,-0.00338672697479,-0.0083345540568,-0.0179063138564,0.00213601214474,0.972178523954,0.0607257855454,0.0,0.0,0.0
1609054474079438000,265,1609054474079438000,1.64326659615,3.85637326847,3.26594994981,0.999866842039,-0.00356054236204,-0.00577459502785,-0.0148416569325,-0.000696588171636,0.952365963336,0.0455983324457,0.0,0.0,0.0
1609054474179510000,266,1609054474179510000,1.64203457738,3.95325797621,3.27082652494,0.999924929673,-0.00330683390485,-0.00292157567328,-0.0114308469766,-0.00516054543783,0.949012491744,0.0528813428092,0.0,0.0,0.0
1609054474279539000,267,1609054474279539000,1.64046856641,4.05174474591,3.27590795074,0.999960664836,-0.00331166587437,0.000119016191811,-0.00822724041935,-0.0156359914825,0.950762069214,0.043596056613,0.0,0.0,0.0
1609054474379548000,268,1609054474379548000,1.63829677642,4.14631733149,3.28074077956,0.999933345223,-0.00331343826354,0.00123001429863,-0.0109915105131,-0.0315482986135,0.956085669997,0.0394088316718,0.0,0.0,0.0
1609054474480150000,269,1609054474480150000,1.63341354251,4.24317582667,3.28486414033,0.99990312224,-0.00310217095516,0.00206890529555,-0.0134105294841,-0.0508728151745,0.944812435154,0.021204087344,0.0,0.0,0.0
1609054474579640000,270,1609054474579640000,1.62230067702,4.34083090927,3.28789668637,0.999885306528,-0.00351312343519,0.00152317701644,-0.0146530435491,-0.0682901769009,0.936984419332,0.00360670262222,0.0,0.0,0.0
1609054474679593000,271,1609054474679593000,1.61472556026,4.43146642286,3.2903242001,0.99987407009,-0.00368147319204,0.000311942414509,-0.0154335157721,-0.0881508159435,0.924306875411,-0.00439279557698,0.0,0.0,0.0
1609054474779643000,272,1609054474779643000,1.60414680581,4.52173168929,3.29210971647,0.999816534742,-0.00370435929942,-0.00179838289604,-0.0187066939164,-0.102786618807,0.907254501208,0.00222934004304,0.0,0.0,0.0
1609054474879654000,273,1609054474879654000,1.59271640059,4.61107479092,3.29157920827,0.999796557664,-0.00373827815228,-0.00484807299383,-0.0192188643789,-0.108419055358,0.875156944782,0.0246112511617,0.0,0.0,0.0
1609054474979674000,274,1609054474979674000,1.57392376759,4.70137076363,3.29676130671,0.999834050882,-0.00367359429272,-0.00582538844277,-0.016865356516,-0.11145934856,0.85276079123,0.0597955985376,0.0,0.0,0.0
1609054475079747000,275,1609054475079747000,1.56466451148,4.78489623236,3.30150200601,0.999907484555,-0.003702599425,-0.00600562801687,-0.0116295107951,-0.114018233528,0.839477464826,0.0784994131118,0.0,0.0,0.0
1609054475179728000,276,1609054475179728000,1.55234471866,4.87011705358,3.30899566545,0.999927931745,-0.00377786692822,-0.00553689928457,-0.00996000926933,-0.120553145084,0.835831053163,0.0909425084293,0.0,0.0,0.0
1609054475279774000,277,1609054475279774000,1.53729653826,4.95302234905,3.32040381402,0.999926220178,-0.00425429598411,-0.00682737450798,-0.0091017648072,-0.132935188786,0.833482796741,0.0872246620759,0.0,0.0,0.0
1609054475379847000,278,1609054475379847000,1.51333309641,5.03774373702,3.32964778669,0.999891193653,-0.00425471238523,-0.0106758356471,-0.00924796247978,-0.132672594034,0.836765801599,0.107389499119,0.0,0.0,0.0
1609054475479828000,279,1609054475479828000,1.50369656232,5.12341120197,3.33858261202,0.999881475784,-0.00488851768097,-0.0105361641742,-0.0101057420997,-0.117562302959,0.825643531225,0.147379496751,0.0,0.0,0.0
