%time,field.header.seq,field.header.stamp,field.pose.pose.position.x,field.pose.pose.position.y,field.pose.pose.position.z,field.pose.pose.orientation.x,field.pose.pose.orientation.y,field.pose.pose.orientation.z,field.pose.pose.orientation.w,field.twist.twist.linear.x,field.twist.twist.linear.y,field.twist.twist.linear.z,field.twist.twist.angular.x,field.twist.twist.angular.y,field.twist.twist.angular.z
1609059658372164000,0,1609059658372164000,0.0643858846477,0.117216658835,2.20033341397,0.999983518719,-0.000222611034438,0.00354194812323,-0.00451301864001,0.154994100308,0.0462357406425,0.814325858358,0.0,0.0,0.0
1609059658472224000,1,1609059658472224000,0.0611410710647,0.0712597231476,2.19622656268,0.999968839139,0.000272371967648,0.0060012153347,-0.00512171644061,0.124085087089,-0.0142009879573,0.545645905209,0.0,0.0,0.0
1609059658572231000,2,1609059658572231000,0.0642476838651,0.112542540624,2.16059753663,0.999959409927,0.00022624754541,0.00737066945463,-0.00517692399271,0.133624042778,0.0167688640966,0.30294479683,0.0,0.0,0.0
1609059658672255000,3,1609059658672255000,0.054554835325,0.13265934101,2.14511476603,0.999929946532,0.000313620891787,0.00903143976518,-0.00764439438582,0.129809052928,0.0135803199928,0.147406192448,0.0,0.0,0.0
1609059658772278000,4,1609059658772278000,0.0794296604146,0.11111675059,2.11852744612,0.99989460906,0.000323102871825,0.011712854119,-0.0085717807726,0.12129487859,0.0150830201196,0.0899114259576,0.0,0.0,0.0
1609059658872303000,5,1609059658872303000,0.0907439681211,0.104964069957,2.13925361668,0.999858768306,0.000612692823604,0.0132065769945,-0.0103756625572,0.113254299743,-0.00307034400429,0.112331113465,0.0,0.0,0.0
1609059658972332000,6,1609059658972332000,0.0964173339041,0.102841152803,2.13735805311,0.999820675898,0.000837227239435,0.0145720850294,-0.0120652159559,0.101522486557,-0.010209986051,0.16717779326,0.0,0.0,0.0
1609059659072361000,7,1609059659072361000,0.103828523562,0.106550708765,2.20293301699,0.999786801846,0.000842052027795,0.0151591887848,-0.0139943130451,0.0861368743542,-0.0180836266825,0.284866199445,0.0,0.0,0.0
1609059659172511000,8,1609059659172511000,0.131273415636,0.0796207768279,2.32767912483,0.999755739883,0.000884608785213,0.016023341018,-0.0151964002473,0.0681900943177,-0.0347927084824,0.441183841981,0.0,0.0,0.0
1609059659272481000,9,1609059659272481000,0.131985499385,0.0771801077897,2.36806809436,0.999729833857,0.000980345627466,0.0163524399834,-0.016489266972,0.0485784417015,-0.0538307745477,0.581639851047,0.0,0.0,0.0
1609059659372514000,10,1609059659372514000,0.13321586097,0.0729905583897,2.42420524507,0.999716270021,0.000862735737288,0.0159788806181,-0.0176439937863,0.0271570036202,-0.0751842415737,0.700940744455,0.0,0.0,0.0
1609059659472470000,11,1609059659472470000,0.133741275347,0.0642836474902,2.45373394609,0.999735084895,0.000685919155181,0.0151012651983,-0.0173563053312,0.0130536333294,-0.100084628762,0.787899345904,0.0,0.0,0.0
1609059659572634000,12,1609059659572634000,0.133821164059,0.0551062750451,2.45533193955,0.999771149425,0.000476673545486,0.0135095639702,-0.01658050788,0.00463728922667,-0.115536132854,0.824105851579,0.0,0.0,0.0
1609059659672590000,13,1609059659672590000,0.129466603372,0.0451284820369,2.48797062842,0.999794323442,0.000374453877507,0.011033619395,-0.0170126376516,-0.00536359286061,-0.134120880231,0.804254604029,0.0,0.0,0.0
1609059659772642000,14,1609059659772642000,0.123072231256,0.0282449454409,2.553002214,0.999819882402,0.000227594532974,0.00582124089616,-0.0180627824189,-0.012657397583,-0.16388691466,0.640435198903,0.0,0.0,0.0
1609059659872635000,15,1609059659872635000,0.116092193116,0.00999721776947,2.4639263153,0.99985606547,9.03024244114e-05,0.00127185331626,-0.0169181138823,-0.0085418844577,-0.181342069488,0.378225705624,0.0,0.0,0.0
1609059659972701000,16,1609059659972701000,0.114445608774,-0.0127494350475,2.45431319533,0.999922498233,0.000321306487914,-0.000730960829738,-0.0124241694521,0.00570182314732,-0.194470130789,0.243236363538,0.0,0.0,0.0
1609059660072724000,17,1609059660072724000,0.11582021944,-0.032271723078,2.45728660037,0.999969260982,0.000452824366634,-0.00162864823146,-0.00765634025376,0.0228984822368,-0.199612668547,0.139495530918,0.0,0.0,0.0
1609059660172771000,18,1609059660172771000,0.119347707899,-0.0528227768397,2.47231970771,0.999992067643,0.000678303149642,-0.00235234373085,-0.00314182021177,0.0416016479276,-0.198507663506,0.0583026665472,0.0,0.0,0.0
1609059660272740000,19,1609059660272740000,0.123289731123,-0.0708138755636,2.48284982211,0.999998494346,0.000842595131247,-0.00150186231938,-0.000213891292218,0.0606288799133,-0.184988459931,-0.00191567606076,0.0,0.0,0.0
1609059660372763000,20,1609059660372763000,0.127028999071,-0.0877533679423,2.47892757925,0.99999729572,0.00091540847958,-0.00201487626331,-0.000714740221874,0.0809631163937,-0.167095818687,-0.0361678773985,0.0,0.0,0.0
1609059660472798000,21,1609059660472798000,0.134965891643,-0.105043908173,2.4797384865,0.999999051303,0.000974887813846,-0.000826967548154,-0.000512944330173,0.102038771383,-0.159889346372,-0.0461944167127,0.0,0.0,0.0
1609059660572828000,22,1609059660572828000,0.146798909349,-0.122435240514,2.48896575846,0.999997432352,0.00100589207608,0.000718690664131,-0.00189919812704,0.121583803485,-0.154413385175,-0.0450059410166,0.0,0.0,0.0
1609059660672919000,23,1609059660672919000,0.160903673286,-0.14047584919,2.49107014753,0.9999923259,0.00102570983124,0.00243674872541,-0.00289107539046,0.138072375761,-0.144987752291,-0.0256969754235,0.0,0.0,0.0
1609059660772878000,24,1609059660772878000,0.175601684368,-0.157354162387,2.49602213217,0.999984541659,0.00110761651237,0.00468871841559,-0.00277588706434,0.1512142083,-0.147561432118,-0.00995450036015,0.0,0.0,0.0
1609059660872925000,25,1609059660872925000,0.192184445446,-0.175760168917,2.50747464824,0.999973567045,0.00121602901634,0.00689200998745,-0.00197146708249,0.158670909249,-0.14704649445,-0.00663164754412,0.0,0.0,0.0
1609059660972978000,26,1609059660972978000,0.207231467922,-0.192073620724,2.50308302579,0.999956783406,0.00133002637285,0.00917958936689,-0.00063046698376,0.156367259235,-0.136899177991,-0.0150854146195,0.0,0.0,0.0
1609059661072978000,27,1609059661072978000,0.210502710532,-0.184190906252,2.38151374597,0.999966545085,0.00125444170426,0.00629380397302,-0.00507179634875,0.141749304902,-0.116463012387,-0.0283849829262,0.0,0.0,0.0
1609059661173031000,28,1609059661173031000,0.216970349025,-0.187981554805,2.3185721016,0.999965504847,0.0013947012941,0.00486291722723,-0.00658756102275,0.147305059618,-0.117192613422,-0.002996192986,0.0,0.0,0.0
1609059661273063000,29,1609059661273063000,0.232260007586,-0.199193540593,2.30091205775,0.999962109318,0.00140487482443,0.00413765001488,-0.00752901769415,0.157242339481,-0.124796307094,-0.00431445600105,0.0,0.0,0.0
1609059661373131000,30,1609059661373131000,0.249991702937,-0.21471189283,2.31784641122,0.999964187236,0.00158628540741,0.00367576716223,-0.00745631811327,0.16593614644,-0.136360898527,0.000313086622843,0.0,0.0,0.0
1609059661473110000,31,1609059661473110000,0.270234411211,-0.234291913604,2.35513486378,0.999968256298,0.00173767089723,0.00388070031743,-0.00673847617554,0.17760344499,-0.143803929398,0.00154220265793,0.0,0.0,0.0
1609059661573150000,32,1609059661573150000,0.286165951554,-0.246826050355,2.3466832481,0.999969495436,0.00175044642172,0.00433485981789,-0.00625724582563,0.18135146199,-0.138778812847,-0.009800873923,0.0,0.0,0.0
1609059661673191000,33,1609059661673191000,0.30189522764,-0.257434247862,2.3349421541,0.999971191545,0.00200313789951,0.00425465721428,-0.00595830604432,0.186297751881,-0.132187939603,-0.0104684657584,0.0,0.0,0.0
1609059661773226000,34,1609059661773226000,0.326524324625,-0.280873430413,2.37320005285,0.999969551585,0.00219781446591,0.00566368847771,-0.00489776966168,0.199257382975,-0.139300209577,0.0124539403484,0.0,0.0,0.0
1609059661873217000,35,1609059661873217000,0.347888870317,-0.298420568673,2.37503592762,0.999968116394,0.00223691657546,0.00702474524864,-0.00306844486084,0.200991300129,-0.140189247213,0.00398983139127,0.0,0.0,0.0
1609059661973279000,36,1609059661973279000,0.365265546152,-0.309262333632,2.35322309536,0.999966399768,0.00221067673148,0.00734458786475,-0.00289296956211,0.19935794156,-0.12916498471,-0.0190766870847,0.0,0.0,0.0
1609059662073277000,37,1609059662073277000,0.389090304684,-0.32815891148,2.36533491917,0.999957750586,0.00226273778797,0.00854655563191,-0.00251663403551,0.204570096137,-0.125619928574,-0.0303453956897,0.0,0.0,0.0
1609059662173338000,38,1609059662173338000,0.413602635642,-0.346219182748,2.3802479255,0.999933660056,0.00270018740627,0.0109466011058,-0.00235720142281,0.206181720748,-0.117179990165,0.0798262705691,0.0,0.0,0.0
1609059662273375000,39,1609059662273375000,0.436026966202,-0.362416673479,2.40870723859,0.999904387334,0.00301718037723,0.013258515517,-0.00251487169232,0.199945393431,-0.107339886824,0.260194939922,0.0,0.0,0.0
1609059662373412000,40,1609059662373412000,0.456166997852,-0.372636630517,2.443022298,0.999861790555,0.00299149576338,0.0160172851043,-0.00330110884597,0.187546938861,-0.0935643788568,0.379795314216,0.0,0.0,0.0
1609059662473411000,41,1609059662473411000,0.473088761905,-0.380798344341,2.48444165612,0.999826667336,0.00282454668816,0.0179271884453,-0.00415609610502,0.169606066291,-0.084489337572,0.463643859862,0.0,0.0,0.0
1609059662573495000,42,1609059662573495000,0.497784255159,-0.377808954207,2.52094135474,0.999803100786,0.00224876868216,0.0190370515866,-0.00512770553429,0.136770137048,-0.0868065223964,0.512647620494,0.0,0.0,0.0
1609059662673494000,43,1609059662673494000,0.508866989416,-0.386550682678,2.56978089712,0.999793200993,0.00203460507022,0.0191846901423,-0.00643143018639,0.120411783932,-0.087580904674,0.549352320207,0.0,0.0,0.0
1609059662773561000,44,1609059662773561000,0.522357749186,-0.391061303321,2.63250582907,0.999734799375,0.00177015694827,0.0214092830861,-0.00829699104476,0.104178405607,-0.0926430823165,0.595177379389,0.0,0.0,0.0
1609059662873570000,45,1609059662873570000,0.526705044986,-0.39361020443,2.67059520905,0.999648942741,0.00144983727626,0.0246045543838,-0.00972137604183,0.0705213253118,-0.101096444503,0.586483681874,0.0,0.0,0.0
1609059662973574000,46,1609059662973574000,0.539320393126,-0.398738211987,2.708751414,0.999683452506,0.00125912523549,0.0232321552399,-0.00957477691174,0.0381663492326,-0.112240023589,0.549791917284,0.0,0.0,0.0
1609059663073603000,47,1609059663073603000,0.535222846833,-0.404866701054,2.75165795103,0.999736980186,0.00139290129168,0.020880768546,-0.00938209891285,0.0135656336704,-0.111932465709,0.548985592017,0.0,0.0,0.0
1609059663173699000,48,1609059663173699000,0.532981703481,-0.413055218062,2.80699027115,0.999789470119,0.00148335712051,0.0180399508986,-0.00966308759053,-0.0068428333722,-0.120121839601,0.526996286986,0.0,0.0,0.0
1609059663273711000,49,1609059663273711000,0.530752487147,-0.424528334763,2.85896572897,0.999818058959,0.00171127767909,0.0157421323595,-0.0106351199737,-0.015965592229,-0.130224939929,0.519515982785,0.0,0.0,0.0
1609059663373700000,50,1609059663373700000,0.529190041933,-0.44157713162,2.916663767,0.999822259745,0.00186487547501,0.0151074056954,-0.0111237336666,-0.0224278265641,-0.142090141284,0.543027442629,0.0,0.0,0.0
1609059663473771000,51,1609059663473771000,0.525219945549,-0.459035313105,2.97188960161,0.999815181569,0.00169164167761,0.0154794427415,-0.0112751011196,-0.0327048126372,-0.160649990851,0.548872862702,0.0,0.0,0.0
1609059663573793000,52,1609059663573793000,0.517962828727,-0.474766542057,3.02360257295,0.999841961225,0.00151328476835,0.0150123751455,-0.00940165602855,-0.048188054043,-0.172284065288,0.55535397509,0.0,0.0,0.0
1609059663673798000,53,1609059663673798000,0.510206422068,-0.488853526453,3.07564149929,0.999879006701,0.00135045551138,0.0128852217283,-0.00860925608752,-0.0579926361569,-0.170709932687,0.5423078056,0.0,0.0,0.0
1609059663773833000,54,1609059663773833000,0.502910271506,-0.507004890481,3.12959496443,0.99993387177,0.00117971039504,0.00916367863921,-0.00684743482848,-0.0602751350602,-0.177254444265,0.546825912233,0.0,0.0,0.0
1609059663873906000,55,1609059663873906000,0.493565215071,-0.53047265526,3.18456318943,0.999970657012,0.00130345091727,0.00593327258338,-0.00466716273779,-0.057057216531,-0.177147994471,0.559239356904,0.0,0.0,0.0
1609059663974042000,56,1609059663974042000,0.485694502175,-0.553052058442,3.24069031674,0.999987482208,0.0014308086209,0.0037963236203,-0.0029285047698,-0.0480808376037,-0.173990799239,0.563733313687,0.0,0.0,0.0
1609059664074069000,57,1609059664074069000,0.479715969944,-0.57283877832,3.2949973765,0.999994094434,0.0015182857689,0.00292160261658,-0.000984959014478,-0.0335705136328,-0.168030242817,0.551656295279,0.0,0.0,0.0
1609059664173930000,58,1609059664173930000,0.4746477562,-0.591968358962,3.34747505448,0.999994810201,0.00166316993172,0.00275696250265,0.000112225211261,-0.0207499913785,-0.156713273483,0.532347738288,0.0,0.0,0.0
1609059664273968000,59,1609059664273968000,0.479175547079,-0.616396333705,3.39560246355,0.999995728887,0.00173201166648,0.00219589163577,-0.000848765450019,-0.00449587976196,-0.150780307655,0.404738207135,0.0,0.0,0.0
1609059664374020000,60,1609059664374020000,0.475621092482,-0.63060027325,3.42541796757,0.999991073264,0.00182212222591,0.00074142979957,-0.00373945781669,0.00944060566108,-0.14095150147,0.248278087464,0.0,0.0,0.0
1609059664474027000,61,1609059664474027000,0.476741447883,-0.647760396159,3.44431470321,0.999979847102,0.0020211532473,-0.000263927232927,-0.0060125428667,0.0269922548135,-0.139483650459,0.166797630816,0.0,0.0,0.0
1609059664574097000,62,1609059664574097000,0.480474250849,-0.663860560688,3.45545361222,0.999975978421,0.00221584395744,-0.000802130102979,-0.0065183743256,0.0469926996946,-0.146013965707,0.103467569686,0.0,0.0,0.0
1609059664674105000,63,1609059664674105000,0.485439106507,-0.679777619777,3.46121971704,0.99996704949,0.00234139987715,-4.61853179802e-05,-0.00777275028493,0.0653442959543,-0.144824390478,0.0428599833627,0.0,0.0,0.0
1609059664774144000,64,1609059664774144000,0.491784756646,-0.69612887403,3.4607653321,0.99996974498,0.00255635782511,0.000759115693944,-0.00730738688093,0.0844747994129,-0.146798592448,0.00503670953423,0.0,0.0,0.0
1609059664874199000,65,1609059664874199000,0.499445749815,-0.711655368982,3.45740964627,0.99996764897,0.00270191772773,0.0017928263958,-0.00736114314157,0.101483429389,-0.150776133135,-0.0306055732738,0.0,0.0,0.0
1609059664974282000,66,1609059664974282000,0.508160774107,-0.726498120375,3.45231265278,0.99995853931,0.00276073873822,0.00286878993068,-0.00818950707541,0.115730705599,-0.157879694334,-0.0512866660953,0.0,0.0,0.0
1609059665074255000,67,1609059665074255000,0.518049404622,-0.740894340653,3.44394896117,0.999966733968,0.00290366410932,0.00419600199841,-0.00636343136167,0.126897379715,-0.159162609485,-0.0631860121693,0.0,0.0,0.0
1609059665174284000,68,1609059665174284000,0.52709811465,-0.754391058926,3.43500711995,0.999971692428,0.00299036885187,0.00508894314205,-0.0046663362418,0.134585461316,-0.15632781636,-0.0700567598869,0.0,0.0,0.0
1609059665274329000,69,1609059665274329000,0.536753206394,-0.767227785993,3.426214159,0.999973717747,0.00303808335248,0.00538120554501,-0.00379163449854,0.141683155792,-0.149634002187,-0.077868074992,0.0,0.0,0.0
1609059665374317000,70,1609059665374317000,0.548115683014,-0.7818859837,3.41559481308,0.999970242322,0.00310859881553,0.00579409275404,-0.00403479541474,0.149048214178,-0.139201748947,-0.0828010994481,0.0,0.0,0.0
1609059665474392000,71,1609059665474392000,0.562006455093,-0.794432014925,3.40414132673,0.99997116149,0.00319302750095,0.00607970004799,-0.00324314819221,0.155763949079,-0.136371746913,-0.0812127859633,0.0,0.0,0.0
1609059665574391000,72,1609059665574391000,0.575058819125,-0.806068475696,3.39240576677,0.99997264639,0.00316874996464,0.006099822827,-0.00273087098622,0.161957238311,-0.125929912901,-0.0895325967053,0.0,0.0,0.0
1609059665674389000,73,1609059665674389000,0.587913102839,-0.817473189134,3.38117828694,0.999975203045,0.00309212149497,0.00583826087361,-0.00243860388738,0.166576269589,-0.11738135545,-0.099927864755,0.0,0.0,0.0
1609059665774518000,74,1609059665774518000,0.602292738516,-0.828154434587,3.37085876977,0.999981371943,0.00311242171525,0.0050572030061,-0.00141184156045,0.175185288027,-0.103206821377,-0.103633810378,0.0,0.0,0.0
1609059665874602000,75,1609059665874602000,0.615845022106,-0.837861557518,3.36035572986,0.999984480326,0.00293149216864,0.00459925186201,-0.00113681277793,0.180100188085,-0.0933855130687,-0.0998753068107,0.0,0.0,0.0
1609059665974635000,76,1609059665974635000,0.637122151739,-0.845188708166,3.34522752499,0.999984907568,0.00277613472929,0.00453371656778,-0.00138676805847,0.192483854932,-0.0803043322837,-0.102876355482,0.0,0.0,0.0
1609059666074657000,77,1609059666074657000,0.658380274112,-0.850976986885,3.33294836723,0.999986084308,0.00277841070793,0.00448045034198,0.000192842056903,0.202353781309,-0.0684433885777,-0.101275902248,0.0,0.0,0.0
1609059666174620000,78,1609059666174620000,0.675159684013,-0.856047137068,3.32241143181,0.999986113296,0.0028100029536,0.00423133432179,0.00140460225193,0.209696693673,-0.0531143534239,-0.112775126971,0.0,0.0,0.0
1609059666274561000,79,1609059666274561000,0.694844429266,-0.861044092942,3.30775420845,0.999985456264,0.00296837792036,0.00438267679937,0.00103350683743,0.218909619743,-0.0338152394567,-0.10734506589,0.0,0.0,0.0
1609059666374683000,80,1609059666374683000,0.714385234573,-0.864950191501,3.29343935686,0.99998685897,0.00298631178614,0.00410798740571,0.000698762033893,0.226692092501,-0.0180481694234,-0.106779096817,0.0,0.0,0.0
1609059666474628000,81,1609059666474628000,0.736348338519,-0.867332840452,3.28192517608,0.999987254262,0.00293047156519,0.00407556223248,-0.000541704110304,0.236562218712,0.0042378093203,-0.0824464052285,0.0,0.0,0.0
1609059666574792000,82,1609059666574792000,0.768377973561,-0.867338490288,3.26813716641,0.999969575202,0.0028062074756,0.00693189643366,-0.00221871168868,0.253803223349,0.0228434118565,-0.0464340413577,0.0,0.0,0.0
1609059666674811000,83,1609059666674811000,0.799788598052,-0.865821426364,3.25278673153,0.999903878079,0.00270596628609,0.0119348634515,-0.00651700722944,0.259196105852,0.036205141854,-0.0314865822995,0.0,0.0,0.0
1609059666774832000,84,1609059666774832000,0.822759058543,-0.862351695601,3.25616255211,0.999844100304,0.00263282006009,0.0140885291503,-0.0103129381196,0.245696881684,0.0303584273364,-0.0536547144515,0.0,0.0,0.0
1609059666874867000,85,1609059666874867000,0.842793525161,-0.862591681634,3.2467272943,0.999853165001,0.00265043082555,0.0130747520032,-0.0107552086799,0.227550758163,0.0257587347552,-0.0587940113495,0.0,0.0,0.0
1609059666974916000,86,1609059666974916000,0.86714356769,-0.858701490034,3.24829495339,0.99990642084,0.00257713566037,0.00852096425936,-0.0103875455611,0.221051483317,0.0197792215872,-0.0605722273027,0.0,0.0,0.0
1609059667074998000,87,1609059667074998000,0.893707608745,-0.855274929533,3.24563907841,0.999931688892,0.0022896192016,0.00429694784678,-0.0106259791591,0.229174032901,0.0184463606189,-0.0547660266366,0.0,0.0,0.0
1609059667174981000,88,1609059667174981000,0.921678099534,-0.855682589,3.23876024071,0.99994219806,0.00196974890048,0.00166859994014,-0.0104372603028,0.240736431353,0.0189287140757,-0.0726621687644,0.0,0.0,0.0
1609059667274972000,89,1609059667274972000,0.948071402941,-0.855499705138,3.23215391473,0.999931894962,0.00182396800931,-0.00319911111446,-0.0110744872264,0.254648041654,0.0126848004059,-0.077224368229,0.0,0.0,0.0
1609059667375068000,90,1609059667375068000,0.976770847746,-0.862629039248,3.21935932945,0.99990588724,0.00172667459254,-0.00601662564893,-0.0122080085792,0.286566614412,0.0106145857518,-0.0521117639636,0.0,0.0,0.0
1609059667474982000,91,1609059667474982000,1.00586278896,-0.861242615361,3.20635088067,0.99990738582,0.0015970512133,-0.00563929354409,-0.0122828163921,0.321706202023,0.00209481261149,-0.0297029766818,0.0,0.0,0.0
1609059667575019000,92,1609059667575019000,1.03884633549,-0.859330150653,3.19717077462,0.999931088806,0.00137611016326,-0.00244351529181,-0.0113997014786,0.346490648709,0.0028445522323,-0.0170518857813,0.0,0.0,0.0
1609059667675088000,93,1609059667675088000,1.0752653998,-0.858530935023,3.19485763903,0.999943773255,0.0011809717508,0.000821249582978,-0.0105062450137,0.359117472486,0.00385479204774,-0.016315201346,0.0,0.0,0.0
1609059667774954000,94,1609059667774954000,1.11297141818,-0.860102679947,3.19718493543,0.999912788346,0.000974550741446,0.00231657725558,-0.0129653161853,0.367801454852,0.00319913825881,-0.0244827609608,0.0,0.0,0.0
1609059667875260000,95,1609059667875260000,1.14950861666,-0.861580480214,3.19950634639,0.99988196789,0.000885534551442,0.00227320607072,-0.0151690029501,0.371744460435,-0.00966568806363,-0.0415233552013,0.0,0.0,0.0
1609059667975203000,96,1609059667975203000,1.18755568229,-0.863935821443,3.19604579448,0.999885408162,0.000983122547471,0.00292483119964,-0.0148205727916,0.382776853661,-0.0165126648693,-0.0225871718777,0.0,0.0,0.0
1609059668075354000,97,1609059668075354000,1.22770341838,-0.868184204056,3.19268910501,0.999863338391,0.0011092176578,0.00513639117066,-0.0156745546528,0.388111263276,-0.0289398015083,-0.0121234467864,0.0,0.0,0.0
1609059668175268000,98,1609059668175268000,1.26688771969,-0.870636716783,3.19197402754,0.999846645883,0.00117196802547,0.0067216863287,-0.0161285504902,0.386864816589,-0.0383537740428,-0.00898594488062,0.0,0.0,0.0
1609059668275807000,99,1609059668275807000,1.3065541385,-0.873853633679,3.19350126467,0.999837858327,0.00125122574729,0.00736840595344,-0.0163828594835,0.383081242129,-0.0516694396171,0.000146199543026,0.0,0.0,0.0
1609059668375275000,100,1609059668375275000,1.34320914456,-0.87562683747,3.19121384788,0.999858996772,0.00126493093448,0.00688029062459,-0.0152659138196,0.377513377368,-0.0653272306169,0.0122530466594,0.0,0.0,0.0
1609059668475299000,101,1609059668475299000,1.37373951909,-0.896526583448,3.19070790848,0.999883578136,0.00147293478878,0.00611418568118,-0.0139024231659,0.373221811427,-0.0752864923336,0.0235550793444,0.0,0.0,0.0
1609059668575326000,102,1609059668575326000,1.40976461559,-0.901956107909,3.19476276861,0.999896249271,0.00150174166564,0.00525350194613,-0.0133280224619,0.37390109241,-0.0770355605497,0.0246961746921,0.0,0.0,0.0
1609059668675846000,103,1609059668675846000,1.44704867717,-0.908905122181,3.1984265008,0.999892848076,0.00143646171245,0.00379230793006,-0.014065821867,0.376301485183,-0.0847743420594,0.0296368742047,0.0,0.0,0.0
1609059668775409000,104,1609059668775409000,1.48531011971,-0.917458748009,3.20252011822,0.999869748548,0.0012250321382,0.00209894693072,-0.0159555525514,0.382651709458,-0.0892528562084,0.0404338053084,0.0,0.0,0.0
1609059668875493000,105,1609059668875493000,1.52626764767,-0.92973937392,3.20635045645,0.999843677546,0.00105549624439,0.00167910268222,-0.0175694909943,0.395862434902,-0.10279543828,0.0726985479785,0.0,0.0,0.0
1609059668975447000,106,1609059668975447000,1.56618229168,-0.942306469874,3.21249211722,0.999802256784,0.000976727257296,0.00234757878815,-0.0197226318657,0.404708517356,-0.121416303521,0.0672426947595,0.0,0.0,0.0
1609059669075475000,107,1609059669075475000,1.60611728837,-0.958551376916,3.22230985213,0.999777258756,0.00118454409082,0.00145434254564,-0.0210217653151,0.410096787559,-0.140570286138,0.0892793595919,0.0,0.0,0.0
1609059669175498000,108,1609059669175498000,1.64504824161,-0.982098852562,3.23365891258,0.99962026916,0.00126793733844,0.0018369960533,-0.0274651645598,0.419431193913,-0.164667333975,0.106987519487,0.0,0.0,0.0
1609059669275573000,109,1609059669275573000,1.68350530459,-1.00904046302,3.24439982075,0.999337097441,0.00121731357276,0.00208664132991,-0.0363253321247,0.424938802405,-0.211760173013,0.108914708626,0.0,0.0,0.0
1609059669375583000,110,1609059669375583000,1.71911228232,-1.04015000249,3.24808178924,0.999040740553,0.00102413886718,0.00237752092811,-0.0437138107271,0.428037755194,-0.27972249614,0.116899494264,0.0,0.0,0.0
1609059669475661000,111,1609059669475661000,1.76412571172,-1.07416023347,3.26220176443,0.998851430383,0.000608102210838,0.00270143395098,-0.0478346369098,0.433413298493,-0.357012449257,0.126244508177,0.0,0.0,0.0
1609059669575616000,112,1609059669575616000,1.81484097537,-1.11990904665,3.27450464194,0.998834845088,0.000637142582381,0.00292123627365,-0.0481665097942,0.438243317121,-0.442882505293,0.136916304813,0.0,0.0,0.0
1609059669675647000,113,1609059669675647000,1.86274066166,-1.16770236567,3.28586366207,0.99920207794,0.000739441840308,0.00374496916832,-0.0397572115838,0.443420961283,-0.529306121047,0.13562746781,0.0,0.0,0.0
1609059669775741000,114,1609059669775741000,1.90934360275,-1.21706743966,3.29696493581,0.999565095072,0.000939925515864,0.00508616391041,-0.0290321923036,0.443724518046,-0.568521370148,0.144462382836,0.0,0.0,0.0
1609059669875789000,115,1609059669875789000,1.95370167042,-1.27334156061,3.30764997406,0.999706587371,0.00117004148753,0.00561388572958,-0.0235341126084,0.442270896523,-0.595563411447,0.145254471879,0.0,0.0,0.0
1609059669975796000,116,1609059669975796000,2.00204412122,-1.34132441227,3.31832064873,0.999803061015,0.00118032464068,0.00707093692367,-0.0185053470378,0.442233337392,-0.625379071827,0.146303194646,0.0,0.0,0.0
1609059670075819000,117,1609059670075819000,2.04871488096,-1.40305167821,3.33340618123,0.999803205571,0.00132569212103,0.0107167710755,-0.0166416191452,0.438273076821,-0.634289448691,0.147029364518,0.0,0.0,0.0
1609059670175862000,118,1609059670175862000,2.09452520892,-1.47038562182,3.35035765277,0.999709159219,0.00166603675659,0.0167700366522,-0.0172507149616,0.41927246252,-0.653696272132,0.146490125473,0.0,0.0,0.0
1609059670275873000,119,1609059670275873000,2.13757557781,-1.53210031706,3.36879580867,0.999645116847,0.00202541748165,0.0189517705822,-0.0186109763227,0.387164008588,-0.672326721809,0.119778718328,0.0,0.0,0.0
1609059670375886000,120,1609059670375886000,2.16397018615,-1.60205028608,3.386330552,0.999652956965,0.00243095594438,0.0179545020076,-0.0191230735712,0.350234707203,-0.698222906225,0.118580419142,0.0,0.0,0.0
1609059670475958000,121,1609059670475958000,2.19698286221,-1.66958208389,3.40141348046,0.999701422528,0.00286780787448,0.0151298144162,-0.0189718261845,0.326453741093,-0.722614715339,0.145022465932,0.0,0.0,0.0
1609059670575980000,122,1609059670575980000,2.23442733854,-1.74249794051,3.4152852209,0.999717468538,0.00298798033332,0.0143754663921,-0.0186922721923,0.311737392953,-0.737147572283,0.183465997973,0.0,0.0,0.0
1609059670675955000,123,1609059670675955000,2.26643708972,-1.81823338786,3.43125061762,0.999691219976,0.00309942476061,0.0144091275775,-0.0200058819063,0.296797330635,-0.762615202874,0.171386719771,0.0,0.0,0.0
1609059670776271000,124,1609059670776271000,2.29492475604,-1.89683403245,3.44769034818,0.999697039334,0.00299766094649,0.0149706574043,-0.0193060351406,0.274312202959,-0.788557929685,0.158843637632,0.0,0.0,0.0
1609059670876477000,125,1609059670876477000,2.32269318458,-1.9793685571,3.46001544933,0.999730224991,0.0028064543243,0.0163824893957,-0.0162239050243,0.259431658334,-0.805413081338,0.17397277869,0.0,0.0,0.0
1609059670976038000,126,1609059670976038000,2.35248838879,-2.05778537344,3.4737886358,0.999713524,0.00292540618034,0.0205216649965,-0.011965500215,0.235089841423,-0.816701035938,0.175128104021,0.0,0.0,0.0
1609059671076180000,127,1609059671076180000,2.37618996194,-2.13899033394,3.48984893814,0.99958906449,0.00328011885596,0.0268011681061,-0.00962498626789,0.20355782889,-0.818926436525,0.192246467985,0.0,0.0,0.0
1609059671176185000,128,1609059671176185000,2.39394975357,-2.22230937662,3.50847103442,0.999316120618,0.0036893587392,0.0360994691864,-0.00710690010765,0.154345959234,-0.821959671654,0.191623706393,0.0,0.0,0.0
1609059671276226000,129,1609059671276226000,2.4104956257,-2.28992752867,3.5283151084,0.999032332029,0.00421981683651,0.043273616039,-0.00663225911743,0.0875415460156,-0.802128329721,0.178951014805,0.0,0.0,0.0
1609059671376251000,130,1609059671376251000,2.41245548532,-2.36703026687,3.54248347779,0.998811217216,0.00482251894933,0.0474580286732,-0.0100315098099,0.0103630781378,-0.808183170028,0.153965609291,0.0,0.0,0.0
1609059671476293000,131,1609059671476293000,2.40337517615,-2.44934157002,3.55681631655,0.998776154903,0.00513911515398,0.0475444202549,-0.0126218063483,-0.0758120559015,-0.818705638002,0.139425912479,0.0,0.0,0.0
1609059671576287000,132,1609059671576287000,2.38379049191,-2.53499033783,3.57311223268,0.998888354352,0.00537892300196,0.0452622495228,-0.0120187975759,-0.158798403574,-0.837631222776,0.147984844657,0.0,0.0,0.0
1609059671676419000,133,1609059671676419000,2.36286087664,-2.6227922277,3.59027334542,0.999116849832,0.00545661661219,0.040667592362,-0.00904945573813,-0.22932654305,-0.847269437734,0.132307399375,0.0,0.0,0.0
1609059671776434000,134,1609059671776434000,2.33549135437,-2.70951830561,3.60718300749,0.999352312314,0.00541878412766,0.0348739107276,-0.00702872682729,-0.288341187778,-0.849217719358,0.131971944192,0.0,0.0,0.0
1609059671876491000,135,1609059671876491000,2.30601582875,-2.79642630072,3.62250087944,0.999547941879,0.00549767568795,0.0290551109282,-0.00543028320964,-0.330780776185,-0.844949849308,0.139815250135,0.0,0.0,0.0
1609059671976532000,136,1609059671976532000,2.26490569757,-2.88741555764,3.63972837174,0.999640047402,0.00558104607082,0.0256421441738,-0.00557745432856,-0.367213065333,-0.848485557754,0.158368628371,0.0,0.0,0.0
1609059672076566000,137,1609059672076566000,2.2303851414,-2.96985673872,3.648508288,0.999664174866,0.00569420964286,0.024862772005,-0.00457777611165,-0.392106493485,-0.844959220802,0.16720672612,0.0,0.0,0.0
1609059672176499000,138,1609059672176499000,2.19839393397,-3.05104074043,3.65968970075,0.999666802267,0.00573102683225,0.0249658821612,-0.00318504395869,-0.418600240711,-0.834928629777,0.148634227391,0.0,0.0,0.0
1609059672276566000,139,1609059672276566000,2.1548951848,-3.13382009945,3.67402511462,0.999666050481,0.00556052492606,0.0247041772069,-0.00515477508952,-0.447483067096,-0.825463636704,0.123119222967,0.0,0.0,0.0
1609059672376560000,140,1609059672376560000,2.10850568157,-3.21737470107,3.6861719697,0.999687118801,0.00530910634274,0.0227444966244,-0.00895353372715,-0.474681793877,-0.822534884859,0.100360538686,0.0,0.0,0.0
1609059672476614000,141,1609059672476614000,2.05954121613,-3.29985813998,3.69324456979,0.999690888277,0.00485114625929,0.0209243057334,-0.0125206910593,-0.495899565685,-0.828196577145,0.0861953095375,0.0,0.0,0.0
1609059672576661000,142,1609059672576661000,2.01173374606,-3.38465009319,3.68761345661,0.99971226582,0.00467596561705,0.0200960862309,-0.0122338968989,-0.519682963298,-0.842003698118,0.0608342657458,0.0,0.0,0.0
1609059672676763000,143,1609059672676763000,1.95794622902,-3.46869505305,3.69413693614,0.999758695602,0.00450972732792,0.018287718964,-0.0113036393525,-0.540531758338,-0.852163665979,0.053023040191,0.0,0.0,0.0
1609059672776769000,144,1609059672776769000,1.90214905006,-3.55181078318,3.6981111376,0.999805256188,0.00440215156817,0.0158496419323,-0.0109022755011,-0.553458770332,-0.858730663705,0.052711105094,0.0,0.0,0.0
1609059672876901000,145,1609059672876901000,1.8535367632,-3.64144141022,3.68557819735,0.999833125941,0.00463076694696,0.0152200855485,-0.00897915722348,-0.560162481151,-0.872383342265,0.0682036576018,0.0,0.0,0.0
1609059672976718000,146,1609059672976718000,1.79690881728,-3.72297912702,3.688899119,0.99977675444,0.00481609562779,0.019381549524,-0.00689942338398,-0.570327291128,-0.877801650681,0.0761137187177,0.0,0.0,0.0
1609059673076800000,147,1609059673076800000,1.73929084531,-3.80862747168,3.69561749751,0.999733449308,0.00458870975029,0.022143044061,-0.00465399590443,-0.596101372128,-0.87590457195,0.0987248332604,0.0,0.0,0.0
1609059673176849000,148,1609059673176849000,1.68010950715,-3.89562568039,3.70638627415,0.999627745797,0.00445266239385,0.0265913224031,-0.004176745458,-0.623166914959,-0.869648147512,0.139746757985,0.0,0.0,0.0
1609059673276808000,149,1609059673276808000,1.6275998461,-3.98561038281,3.70603216229,0.999415415409,0.00421719367124,0.0335645146176,-0.00494631974805,-0.65731433994,-0.863022673728,0.130683160594,0.0,0.0,0.0
1609059673376856000,150,1609059673376856000,1.55754224388,-4.07609078076,3.72463884149,0.999209027688,0.0042136360454,0.0390723013803,-0.00607614377202,-0.717970930715,-0.860632687705,0.0878160834967,0.0,0.0,0.0
1609059673476865000,151,1609059673476865000,1.48598389699,-4.16873106433,3.73085030745,0.999283793254,0.00435484231793,0.0373843156672,-0.00391775830015,-0.789274413553,-0.862091689839,0.0131280224892,0.0,0.0,0.0
1609059673577136000,152,1609059673577136000,1.40029784023,-4.25304196247,3.73665990694,0.99968803403,0.00461767586502,0.0237917085492,-0.00603873254928,-0.84716743668,-0.851154240109,-0.0307745339429,0.0,0.0,0.0
1609059673676968000,153,1609059673676968000,1.31706078459,-4.34457394843,3.74041706436,0.999916314742,0.00501328019034,0.00814237869975,-0.00871390863011,-0.862802779865,-0.855836302204,0.00667115199357,0.0,0.0,0.0
1609059673777164000,154,1609059673777164000,1.23654039574,-4.43968965204,3.74182884101,0.999964396768,0.00556039275609,-0.00366688260834,-0.00518084941912,-0.841272605181,-0.865941379644,0.0473800743596,0.0,0.0,0.0
1609059673876974000,155,1609059673876974000,1.15784339251,-4.52929273509,3.7449497273,0.99994759198,0.00609274971211,-0.00802879691816,0.00179725199327,-0.801786534696,-0.863462151568,0.0749977046979,0.0,0.0,0.0
1609059673977027000,156,1609059673977027000,1.08242958794,-4.61101410798,3.75054466138,0.999897094083,0.00627538874463,-0.00744483335718,0.0105354257573,-0.771116083311,-0.842428201495,0.0518500235939,0.0,0.0,0.0
1609059674077126000,157,1609059674077126000,1.00767116336,-4.69096591605,3.75467261909,0.999768485778,0.00613068654632,-0.00713714510757,0.0193507283223,-0.738320446043,-0.79088178654,0.0372397282349,0.0,0.0,0.0
1609059674177116000,158,1609059674177116000,0.94004116378,-4.76264963461,3.75166893567,0.999717811103,0.0056403419978,-0.00574468923954,0.0223491219199,-0.712261722919,-0.729257368096,0.0210064414817,0.0,0.0,0.0
1609059674277059000,159,1609059674277059000,0.869905256439,-4.83332436512,3.75255771827,0.999664754324,0.00503575366153,-0.00359538663596,0.0251414665865,-0.687234619154,-0.664784690256,0.0108567401824,0.0,0.0,0.0
1609059674377178000,160,1609059674377178000,0.804422540621,-4.89265675431,3.7492341828,0.999580907136,0.00497590348817,-0.000816634401648,0.0285058517235,-0.672070915856,-0.599025528496,-0.00786652760173,0.0,0.0,0.0
1609059674477224000,161,1609059674477224000,0.736861729678,-4.94849650403,3.74823768216,0.999581589249,0.00522565564101,0.00152428446392,0.0284080184855,-0.663712256661,-0.525551429623,-0.0176780638544,0.0,0.0,0.0
1609059674577245000,162,1609059674577245000,0.670140372481,-4.99625600233,3.74481758457,0.999764814155,0.00530054397724,0.00300840283839,0.0208127394415,-0.657525007616,-0.463159710456,-0.0406716960962,0.0,0.0,0.0
1609059674677283000,163,1609059674677283000,0.604051649428,-5.0345787072,3.73970462779,0.999794220956,0.00570826691142,0.00508121313563,0.0187912933039,-0.654897945213,-0.412303675143,-0.0593043917415,0.0,0.0,0.0
1609059674777300000,164,1609059674777300000,0.538603158312,-5.07055342369,3.73306132474,0.999743005927,0.00592001855685,0.00685602600061,0.020781491496,-0.662513497141,-0.367602407671,-0.0705230160364,0.0,0.0,0.0
1609059674877362000,165,1609059674877362000,0.472890800091,-5.10049476005,3.72767203517,0.999722833727,0.00582113716216,0.00664093523885,0.0218235667623,-0.666141690628,-0.314277668346,-0.0705350062674,0.0,0.0,0.0
1609059674977367000,166,1609059674977367000,0.406865513218,-5.12481939667,3.72263845581,0.999819088282,0.00558536101916,0.00378320606281,0.0177843133468,-0.66975648837,-0.259748918969,-0.0806150383876,0.0,0.0,0.0
1609059675077421000,167,1609059675077421000,0.340174999093,-5.14522313129,3.71376849615,0.999892053017,0.00562254753659,0.00233046047253,0.0133730410363,-0.663488895554,-0.213871520856,-0.0720673723137,0.0,0.0,0.0
1609059675177421000,168,1609059675177421000,0.271096551147,-5.1504785967,3.7026840102,0.999922082953,0.00577730085388,0.00484475643655,0.00994882668459,-0.664684335317,-0.17291370349,-0.053308908844,0.0,0.0,0.0
1609059675277459000,169,1609059675277459000,0.206501758954,-5.16207065897,3.69276289582,0.999935054015,0.00589634906194,0.00725455771699,0.00651860511338,-0.667626604712,-0.144247048443,-0.0562410159605,0.0,0.0,0.0
1609059675377494000,170,1609059675377494000,0.140357332373,-5.17279254861,3.68913759967,0.999948354812,0.00613581246153,0.0081015246061,6.93840417372e-05,-0.677623374783,-0.125785085858,-0.0542074092834,0.0,0.0,0.0
1609059675477505000,171,1609059675477505000,0.0736178214575,-5.18102654851,3.6844760423,0.999932165831,0.00642758433624,0.00735759817688,-0.00634158063352,-0.680475229762,-0.119725754254,-0.0548375489273,0.0,0.0,0.0
1609059675577540000,172,1609059675577540000,0.0106029589789,-5.17820693088,3.66310796634,0.999902743487,0.00690048833808,0.00874271492567,-0.00839355493334,-0.68066620295,-0.118472344336,-0.0615270566036,0.0,0.0,0.0
1609059675677559000,173,1609059675677559000,-0.0551137059749,-5.18605710208,3.64936325826,0.999880373826,0.00736493934401,0.0100685861893,-0.00914435770809,-0.687860608255,-0.12915270554,-0.0735107039074,0.0,0.0,0.0
1609059675777598000,174,1609059675777598000,-0.120827786244,-5.19366368885,3.63908611008,0.999858027936,0.00772702340915,0.0116528916041,-0.00940357374166,-0.695631885263,-0.137818466335,-0.0824391244839,0.0,0.0,0.0
1609059675877625000,175,1609059675877625000,-0.188318740153,-5.20313371003,3.63144410448,0.999837149566,0.0078868184893,0.0138777501337,-0.00841905533331,-0.708648131418,-0.144795983384,-0.0859843584567,0.0,0.0,0.0
1609059675977630000,176,1609059675977630000,-0.258912817993,-5.21397331039,3.62871293827,0.99984730349,0.0078223161477,0.0139195806404,-0.00710115123407,-0.730574733324,-0.146207143078,-0.083433727228,0.0,0.0,0.0
1609059676077764000,177,1609059676077764000,-0.331287485995,-5.22443590575,3.62301275166,0.999878940383,0.00794720286133,0.0121001700525,-0.00570372065638,-0.74463427275,-0.139957311495,-0.0893481782681,0.0,0.0,0.0
1609059676177727000,178,1609059676177727000,-0.385271944641,-5.22229775699,3.60215039217,0.999891887808,0.00791489182756,0.0108510509254,-0.0059851379228,-0.740568186622,-0.135762175075,-0.0930861014426,0.0,0.0,0.0
1609059676277727000,179,1609059676277727000,-0.457113173524,-5.23509994789,3.5903903784,0.999924165966,0.00820849081297,0.00877534713672,-0.00269745781419,-0.747601136246,-0.134106006845,-0.0999543426396,0.0,0.0,0.0
1609059676377744000,180,1609059676377744000,-0.53213071199,-5.24708833466,3.58528073958,0.999937363671,0.00855336888923,0.006664878855,0.00277272538737,-0.75233153267,-0.116287825438,-0.0862945820639,0.0,0.0,0.0
1609059676477821000,181,1609059676477821000,-0.607344104728,-5.25696422954,3.57990317305,0.999939283174,0.00879855690975,0.00563391422908,0.00350348014859,-0.75087519552,-0.0871573307952,-0.0678216961202,0.0,0.0,0.0
1609059676577865000,182,1609059676577865000,-0.673305595744,-5.26502827019,3.57228726652,0.999926415223,0.00894426828717,0.00605207958269,0.00552598738383,-0.744117127984,-0.0648604539872,-0.0530646410709,0.0,0.0,0.0
1609059676677830000,183,1609059676677830000,-0.745704557082,-5.27029703272,3.5651861127,0.999903219123,0.00916695608695,0.00757002643642,0.0072259257664,-0.743956364346,-0.0353365487193,-0.0401015897656,0.0,0.0,0.0
1609059676777879000,184,1609059676777879000,-0.8205161823,-5.27208746414,3.56253446355,0.999873463267,0.00927065262538,0.00990923034554,0.00830178344895,-0.750378450462,-0.00733744622059,-0.0142134213346,0.0,0.0,0.0
1609059676877940000,185,1609059676877940000,-0.895522475751,-5.26874438637,3.56436477543,0.999859657361,0.00927976764554,0.0111562686663,0.00837192716819,-0.764880290461,0.0239958964951,-0.0118799860098,0.0,0.0,0.0
1609059676977987000,186,1609059676977987000,-0.972327606002,-5.26233799262,3.56786907444,0.999879939075,0.00928336419003,0.0104016967071,0.00676249141465,-0.776296340151,0.0609705567435,-0.00785588981639,0.0,0.0,0.0
1609059677078035000,187,1609059677078035000,-1.05045843562,-5.25434908668,3.56859066478,0.999904843955,0.00911990870553,0.00887177164315,0.00533122583272,-0.785796828892,0.0870890647345,-0.00142527384568,0.0,0.0,0.0
1609059677178069000,188,1609059677178069000,-1.12947933338,-5.24329259134,3.56679719274,0.99991998046,0.00909658022922,0.00849284165026,0.00227080289189,-0.789923950047,0.110629633618,0.0148644195028,0.0,0.0,0.0
1609059677278126000,189,1609059677278126000,-1.21365407457,-5.2337851137,3.56973719362,0.999925009751,0.00892041485502,0.00832233393315,-0.00106762843683,-0.799213698258,0.122791667205,-0.00678360962026,0.0,0.0,0.0
1609059677378124000,190,1609059677378124000,-1.29356885855,-5.21932319113,3.56961479243,0.9999232197,0.00872018565427,0.00856016332138,-0.00205831740659,-0.806086519118,0.133166408638,0.00325879933085,0.0,0.0,0.0
1609059677478114000,191,1609059677478114000,-1.37455734816,-5.20498679761,3.57037480573,0.999923957925,0.00853918120887,0.00869740464455,-0.00187507440627,-0.817873999434,0.145933423518,-0.00713228453903,0.0,0.0,0.0
1609059677578213000,192,1609059677578213000,-1.45534011128,-5.18866875887,3.57245756739,0.999935863885,0.00857508387736,0.00730622396884,-0.00116410650706,-0.82668164434,0.155458746079,-0.006496279468,0.0,0.0,0.0
1609059677678245000,193,1609059677678245000,-1.53812412279,-5.1702214712,3.5756517241,0.999946831576,0.00860156566988,0.00552654161447,-0.00134328966986,-0.833328358075,0.171332966655,-0.012976018912,0.0,0.0,0.0
1609059677778355000,194,1609059677778355000,-1.62190086219,-5.15001649312,3.5810863367,0.9999580302,0.00870565545014,0.00198135419716,-0.0020551487339,-0.835628052601,0.184842792429,-0.00729356043959,0.0,0.0,0.0
1609059677878276000,195,1609059677878276000,-1.71736569159,-5.13382552774,3.58304101762,0.999959551921,0.00869186855728,-0.00145352941701,-0.00179810857656,-0.831441320803,0.193444045752,0.0230721840906,0.0,0.0,0.0
1609059677978323000,196,1609059677978323000,-1.80440615227,-5.11483364859,3.57958200884,0.999950969943,0.00896293482773,-0.00298921950195,-0.0029644691022,-0.820969191533,0.207432922458,0.0238550832369,0.0,0.0,0.0
1609059678078341000,197,1609059678078341000,-1.89231466858,-5.09571892635,3.57627568388,0.999914623027,0.00910307984689,-0.0032866086115,-0.00877945321542,-0.808943606918,0.211486467299,0.0162536550789,0.0,0.0,0.0
1609059678178340000,198,1609059678178340000,-1.96474108015,-5.06766339997,3.56652757363,0.999878776419,0.0090828811893,-0.00293872844938,-0.0123003093738,-0.795792201301,0.204127590132,0.0139984536338,0.0,0.0,0.0
1609059678278370000,199,1609059678278370000,-2.03856959172,-5.04823217458,3.56725569845,0.999899224015,0.00921852487337,-0.00279352382091,-0.0104286546806,-0.782616299858,0.179727047267,0.00815535040582,0.0,0.0,0.0
1609059678378336000,200,1609059678378336000,-2.10738780999,-5.02944340718,3.5713305314,0.999947365085,0.00935365479689,-0.00368602507936,-0.00204680727149,-0.766300117346,0.173855500738,0.00949901379109,0.0,0.0,0.0
1609059678478422000,201,1609059678478422000,-2.17834660836,-5.00933492082,3.57540869273,0.99992252134,0.00952111233527,-0.00400996979005,0.00694405350458,-0.749021141968,0.193466979542,0.00407640316076,0.0,0.0,0.0
1609059678578480000,202,1609059678578480000,-2.2544166374,-4.98860939938,3.57947886915,0.999820123332,0.00960300444745,-0.00479379547709,0.0156372251865,-0.738013930804,0.23547620673,-0.000402121713286,0.0,0.0,0.0
1609059678678505000,203,1609059678678505000,-2.32931506398,-4.96149040927,3.58373614471,0.999716283484,0.00943002698,-0.0056652987581,0.0211265595315,-0.721786734162,0.291337149538,0.0201017693255,0.0,0.0,0.0
1609059678778530000,204,1609059678778530000,-2.38894827365,-4.92631266578,3.58003730604,0.999704823024,0.009186876792,-0.00693111438915,0.021396910285,-0.703588304607,0.359447522937,0.0280037524263,0.0,0.0,0.0
1609059678878568000,205,1609059678878568000,-2.46465956055,-4.89104422614,3.58061067055,0.999759871489,0.00900109734098,-0.00845396960426,0.0181027623457,-0.684674618263,0.401869782377,-0.00891704072608,0.0,0.0,0.0
1609059678978578000,206,1609059678978578000,-2.53353539567,-4.84929330955,3.57738785725,0.999820260005,0.00863244283242,-0.00949232516255,0.0139579503151,-0.659450622303,0.437233583041,-0.0186577466833,0.0,0.0,0.0
1609059679078609000,207,1609059679078609000,-2.60353066461,-4.80549699431,3.56990638951,0.99988063099,0.00841406224271,-0.00987036082941,0.00839662455861,-0.633845913342,0.476858533524,-0.0232926218025,0.0,0.0,0.0
1609059679178630000,208,1609059679178630000,-2.67176622927,-4.75890671689,3.55961238376,0.999921131124,0.00819809344458,-0.00949803861135,0.000556827940575,-0.6091521885,0.499180002505,-0.0313096531064,0.0,0.0,0.0
1609059679278681000,209,1609059679278681000,-2.72232626882,-4.70059242351,3.54804632113,0.999901715765,0.00805247049731,-0.00937171650535,-0.00662476100647,-0.576715108733,0.495962996706,-0.0327002464825,0.0,0.0,0.0
1609059679378722000,210,1609059679378722000,-2.77709308578,-4.64932220372,3.54000597613,0.999840848194,0.00796058395452,-0.00945467521235,-0.012865321724,-0.550440474238,0.482377454933,-0.0287189224606,0.0,0.0,0.0
1609059679478743000,211,1609059679478743000,-2.83348860612,-4.59300104496,3.53463857047,0.999836495299,0.00843163530424,-0.00949485722408,-0.0128739225172,-0.524078281176,0.473388396624,-0.00515527156484,0.0,0.0,0.0
1609059679578775000,212,1609059679578775000,-2.87841266292,-4.54864554708,3.53726840776,0.999887021051,0.00904261994339,-0.00934778764491,-0.00753624738606,-0.499636834677,0.456220233346,-0.0160638307586,0.0,0.0,0.0
1609059679678798000,213,1609059679678798000,-2.92213483396,-4.50262348623,3.5387280639,0.99990636794,0.0092992324494,-0.00948359147845,-0.00329258574357,-0.470836001837,0.455465936611,-0.0182343529267,0.0,0.0,0.0
1609059679778860000,214,1609059679778860000,-2.96926042098,-4.45616231288,3.53703028949,0.999915982598,0.00938628570318,-0.00885308066316,-0.0012443263132,-0.444580375639,0.463377771772,-0.0160188897647,0.0,0.0,0.0
1609059679878862000,215,1609059679878862000,-3.0138142227,-4.40949784111,3.53441780117,0.999924222671,0.00954435300752,-0.00774249986839,-0.00071269702323,-0.420341479496,0.477505934253,-0.0225214813401,0.0,0.0,0.0
1609059679978948000,216,1609059679978948000,-3.05549127742,-4.36113508582,3.53155549791,0.999931969968,0.00955615779,-0.00649547319591,-0.00159502718674,-0.398872255613,0.483192257013,-0.0234403183775,0.0,0.0,0.0
1609059680078969000,217,1609059680078969000,-3.11103169535,-4.30211867871,3.5327334509,0.999939240142,0.0095302910679,-0.00503547411474,-0.00230945374998,-0.380219606282,0.499647147516,-0.020550108132,0.0,0.0,0.0
1609059680178988000,218,1609059680178988000,-3.1490106715,-4.25184272316,3.53093697114,0.999938438096,0.00960554329468,-0.00344853853218,-0.00435443893297,-0.363814971716,0.509232349273,-0.00699911608468,0.0,0.0,0.0
1609059680279028000,219,1609059680279028000,-3.18707006901,-4.20145980648,3.53254536821,0.999926476283,0.00987876260396,-0.00307124746302,-0.00632609798961,-0.355073678859,0.504880091075,-0.0386998929252,0.0,0.0,0.0
1609059680379024000,220,1609059680379024000,-3.22166641667,-4.15102453116,3.53273631895,0.999919416061,0.010051303579,-0.0045367563666,-0.00628892059395,-0.340971764409,0.503732568761,-0.0456044298192,0.0,0.0,0.0
1609059680479091000,221,1609059680479091000,-3.25540887171,-4.10086941026,3.53134016185,0.999915592358,0.0103814938164,-0.00574960172137,-0.00528912337113,-0.322776582486,0.500437344231,-0.0506683396874,0.0,0.0,0.0
1609059680579106000,222,1609059680579106000,-3.28712649016,-4.05088559481,3.52795575466,0.999914966561,0.0107654605526,-0.0063511874158,-0.00371845728815,-0.30337788862,0.503775720587,-0.0572140279926,0.0,0.0,0.0
1609059680679211000,223,1609059680679211000,-3.32420453471,-3.99191464344,3.52490469489,0.999903088279,0.0107240322002,-0.00585210025989,-0.0066754854192,-0.281652133247,0.508956168214,-0.0586161761949,0.0,0.0,0.0
1609059680779208000,224,1609059680779208000,-3.35232818229,-3.93993980945,3.51514960713,0.999899416981,0.0107895309179,-0.00344315689961,-0.00853736577319,-0.267443872056,0.499095363609,-0.0769869426226,0.0,0.0,0.0
1609059680879232000,225,1609059680879232000,-3.37833262277,-3.88937149322,3.51096546672,0.999907374246,0.0107357123197,-0.00188437060176,-0.00815086230484,-0.25748342936,0.487384306207,-0.0761324057738,0.0,0.0,0.0
1609059680979245000,226,1609059680979245000,-3.40553203906,-3.84201371129,3.50599554829,0.999895656561,0.0108812329051,-0.0014135211459,-0.00939556906201,-0.246563285463,0.482275252446,-0.0560864645779,0.0,0.0,0.0
1609059681079292000,227,1609059681079292000,-3.43159530735,-3.79587385964,3.49837601284,0.999877355059,0.0112969875165,6.71427140479e-05,-0.0108465849951,-0.240530953487,0.46445116508,-0.0206640393072,0.0,0.0,0.0
1609059681179325000,228,1609059681179325000,-3.45194872796,-3.74291232003,3.49778372252,0.999877122498,0.01157493774,0.00116980892674,-0.0105067724765,-0.236809190837,0.448302023817,-0.010351866696,0.0,0.0,0.0
1609059681279383000,229,1609059681279383000,-3.47940590505,-3.69801105105,3.50390871263,0.999875978383,0.0118259963947,0.00111925182085,-0.0103402580384,-0.238366607231,0.437431309241,0.0114389240586,0.0,0.0,0.0
1609059681379418000,230,1609059681379418000,-3.50455904402,-3.6551669993,3.50750970588,0.999848895482,0.0119262165351,0.000398231159328,-0.0126409245641,-0.235492957257,0.426087791443,0.0399948616581,0.0,0.0,0.0
1609059681479384000,231,1609059681479384000,-3.52789681326,-3.61326575262,3.51085809804,0.999847615274,0.0121053689731,0.000664394369351,-0.0125604479615,-0.227902973023,0.407125726779,0.0530156981226,0.0,0.0,0.0
1609059681579560000,232,1609059681579560000,-3.550074365,-3.5734325038,3.51362950296,0.999833859462,0.0123122614825,0.00185804390383,-0.0133120007123,-0.22669789658,0.391165971203,0.0496781547691,0.0,0.0,0.0
1609059681679527000,233,1609059681679527000,-3.57178814735,-3.53646965783,3.52067381365,0.999871486684,0.0126573884609,0.00335453569349,-0.00924920121177,-0.227472492164,0.379847084152,0.0921201629217,0.0,0.0,0.0
1609059681779528000,234,1609059681779528000,-3.60311746524,-3.48648360292,3.53430572952,0.999893589005,0.0127227406598,0.00380305212119,-0.00603981226294,-0.234758447911,0.374676018127,0.110312974659,0.0,0.0,0.0
1609059681879609000,235,1609059681879609000,-3.62474337544,-3.45261734974,3.54951683498,0.999904728019,0.012753730731,0.00357819778068,-0.00388249138216,-0.24166312736,0.378556997133,0.123094368257,0.0,0.0,0.0
1609059681979584000,236,1609059681979584000,-3.64785966805,-3.41831238574,3.56644141175,0.99991207025,0.0127811664128,0.00296795671732,-0.00191957957788,-0.247055321002,0.386932674503,0.122466573158,0.0,0.0,0.0
1609059682079490000,237,1609059682079490000,-3.67214255635,-3.3829672649,3.58021911858,0.999914333823,0.0127331181807,0.00221360842181,-0.00207187231041,-0.250974571183,0.395942503941,0.116917289211,0.0,0.0,0.0
1609059682179635000,238,1609059682179635000,-3.69631753504,-3.345368698,3.5914949991,0.999917645304,0.0126463437536,0.00185040469316,0.00116129331407,-0.254443496603,0.401560914287,0.108402592773,0.0,0.0,0.0
1609059682279661000,239,1609059682279661000,-3.72003685465,-3.30879835369,3.60338109689,0.999913016754,0.0126616959805,0.00227074984372,0.00291274379402,-0.258884072066,0.425996663107,0.118048927076,0.0,0.0,0.0
1609059682379660000,240,1609059682379660000,-3.73910302403,-3.26857093982,3.62321810346,0.999912889721,0.0125706172293,0.00293572299918,0.00275210506914,-0.264354914688,0.441537995537,0.12963143569,0.0,0.0,0.0
1609059682479705000,241,1609059682479705000,-3.76433377746,-3.22614564988,3.63992154871,0.999914495246,0.0126104658802,0.00326315089906,0.00115334018374,-0.271525356106,0.462165467572,0.144307543002,0.0,0.0,0.0
1609059682579750000,242,1609059682579750000,-3.79003134453,-3.18263511071,3.65563806298,0.999914213582,0.0128672849971,0.00203510807112,-0.00136264060931,-0.279787070015,0.477111354831,0.1495796745,0.0,0.0,0.0
1609059682679761000,243,1609059682679761000,-3.81907847827,-3.13581058096,3.66867284645,0.999899320898,0.0128894928045,0.00160237704907,-0.00571326797933,-0.283156099197,0.482398783193,0.162400037606,0.0,0.0,0.0
1609059682779862000,244,1609059682779862000,-3.84965782516,-3.0886151722,3.68104562228,0.999880427768,0.0129921421115,0.0019417370509,-0.00815868046545,-0.289849223973,0.479123255766,0.168460664702,0.0,0.0,0.0
1609059682879871000,245,1609059682879871000,-3.87978241075,-3.03953603948,3.6954608524,0.99987199172,0.0128057834143,0.00311472643022,-0.00907251698413,-0.296882025036,0.471702648283,0.162407029501,0.0,0.0,0.0
1609059682979896000,246,1609059682979896000,-3.9021947855,-2.99035620382,3.70232592868,0.999879548479,0.0123730709221,0.00361860177371,-0.00864299549327,-0.304082701877,0.463295977579,0.153370862271,0.0,0.0,0.0
1609059683079926000,247,1609059683079926000,-3.93146381144,-2.94407084986,3.71726200997,0.999896702652,0.0120968342197,0.00241900326551,-0.00737557123698,-0.318283547136,0.45843566018,0.136540097464,0.0,0.0,0.0
1609059683179979000,248,1609059683179979000,-3.96343846616,-2.90189252446,3.73340761603,0.999910510253,0.0118300443065,-0.000858573277603,-0.00618743808542,-0.326049600155,0.455350792375,0.153347279954,0.0,0.0,0.0
1609059683279993000,249,1609059683279993000,-3.99371055871,-2.86022588749,3.74936339668,0.99990987984,0.0117043687483,-0.00481139337939,-0.00448223655683,-0.32285412131,0.449342646308,0.146370777794,0.0,0.0,0.0
1609059683380025000,250,1609059683380025000,-4.02382699504,-2.81584684656,3.76065793334,0.999896396515,0.011665440708,-0.00824612534559,-0.00176497776956,-0.311915408532,0.455367751417,0.12842785469,0.0,0.0,0.0
1609059683480061000,251,1609059683480061000,-4.05678266147,-2.76906477357,3.76936918384,0.999883242413,0.0116016598293,-0.00986793276771,0.0012356919364,-0.297462119208,0.464124707667,0.123039001761,0.0,0.0,0.0
1609059683580025000,252,1609059683580025000,-4.07037164536,-2.73450246175,3.7778938005,0.999884241334,0.0113828915004,-0.0099885650917,0.00147046921625,-0.275591186542,0.463857730665,0.11874584779,0.0,0.0,0.0
1609059683680365000,253,1609059683680365000,-4.09874805955,-2.68605581922,3.78829593241,0.99988479631,0.0113373614404,-0.00999600746837,0.00139218495034,-0.255094523932,0.488217122492,0.106405999879,0.0,0.0,0.0
1609059683780154000,254,1609059683780154000,-4.12371620218,-2.63733502829,3.79560883713,0.999897792952,0.0114788724433,-0.00851266037392,0.000416833417437,-0.238570825862,0.498704150636,0.100451622142,0.0,0.0,0.0
1609059683880174000,255,1609059683880174000,-4.14675028956,-2.58751244413,3.80430728536,0.999904736578,0.0116877791339,-0.00718157266426,-0.001529249053,-0.229711462516,0.511606005065,0.0869930087988,0.0,0.0,0.0
1609059683980181000,256,1609059683980181000,-4.1693494391,-2.53594808956,3.81167195304,0.999900240764,0.0118967352055,-0.00639121432099,-0.00413867014904,-0.220235576497,0.514319532395,0.0853759049803,0.0,0.0,0.0
1609059684080220000,257,1609059684080220000,-4.19164260369,-2.48176653929,3.81640066733,0.999896292595,0.0120305607344,-0.00512614278688,-0.00603260496867,-0.213114631228,0.511633888221,0.0754260020689,0.0,0.0,0.0
1609059684180246000,258,1609059684180246000,-4.21186436346,-2.42828219702,3.81800287806,0.999903208361,0.012124605915,-0.00293630479149,-0.00616002882125,-0.207762422054,0.513343492152,0.0579959667208,0.0,0.0,0.0
1609059684280241000,259,1609059684280241000,-4.21905347516,-2.37854147757,3.81641738563,0.9999148782,0.0120415883594,-0.000682502494768,-0.0049770167025,-0.207021635967,0.505664483593,0.0408393012299,0.0,0.0,0.0
1609059684380302000,260,1609059684380302000,-4.24176072526,-2.32703370983,3.82206128165,0.999922320733,0.0123012109998,0.000624043847038,-0.00190873708261,-0.215984197838,0.512793545922,0.0243615160901,0.0,0.0,0.0
1609059684480352000,261,1609059684480352000,-4.26355535721,-2.2765113579,3.82630839268,0.999920383502,0.0125293319432,-3.19960180723e-05,0.00149715556346,-0.222230559126,0.518997584519,0.0206609717085,0.0,0.0,0.0
1609059684580356000,262,1609059684580356000,-4.28482477427,-2.2233376907,3.83050453976,0.999907519141,0.0127464488687,-0.00045232845415,0.00471980996964,-0.22322871889,0.540284236367,0.020736439645,0.0,0.0,0.0
1609059684680545000,263,1609059684680545000,-4.30615117019,-2.1675042302,3.83373538059,0.999898966136,0.0128171283392,-0.000918377095407,0.0060774439551,-0.225074135654,0.563696828923,0.0210748646697,0.0,0.0,0.0
1609059684780555000,264,1609059684780555000,-4.32074933453,-2.09767464115,3.82973079678,0.999887202029,0.0127511051078,-0.00166124385327,0.00776097967743,-0.225786894377,0.594255078993,0.0219057301899,0.0,0.0,0.0
1609059684880585000,265,1609059684880585000,-4.34421864549,-2.03770230853,3.83260184442,0.999875391778,0.0129520057426,-0.00337001079119,0.00837194664828,-0.225967057718,0.618359041956,0.0382000455406,0.0,0.0,0.0
1609059684980563000,266,1609059684980563000,-4.36694216715,-1.97400139732,3.83562447602,0.999863176802,0.0130501371007,-0.00415663845898,0.00927598800896,-0.220146911429,0.650350535813,0.0516547308759,0.0,0.0,0.0
1609059685080581000,267,1609059685080581000,-4.38789153966,-1.90852219655,3.83604188383,0.999867724353,0.0130508886612,-0.00359575059322,0.00901546889873,-0.216371645374,0.678667040048,0.0525967311806,0.0,0.0,0.0
1609059685180577000,268,1609059685180577000,-4.40844655142,-1.83907779729,3.83742500044,0.999886079057,0.0128713396582,-0.00308428572447,0.00725566715535,-0.214529298797,0.706568297675,0.0409233728026,0.0,0.0,0.0
1609059685280608000,269,1609059685280608000,-4.42985025498,-1.76587584306,3.84026324416,0.999900791041,0.0126803990308,-0.00313949841525,0.00526869100834,-0.214342568508,0.733877631578,0.0391654869258,0.0,0.0,0.0
1609059685380645000,270,1609059685380645000,-4.44108330501,-1.67874853347,3.83397869954,0.99991841401,0.0123286105462,-0.00294416911462,0.00158194596007,-0.212626008076,0.759267988891,0.0563458668483,0.0,0.0,0.0
1609059685480676000,271,1609059685480676000,-4.46068905953,-1.60253861353,3.8366899267,0.999915523339,0.0120161280669,-0.00195355188155,-0.00455439196602,-0.2073594875,0.764721801561,0.0744925475454,0.0,0.0,0.0
1609059685580655000,272,1609059685580655000,-4.47973654617,-1.52531300994,3.83987939703,0.999897552055,0.0117272090163,-0.000529784347156,-0.00819007278387,-0.20782593597,0.763992346345,0.0834838921908,0.0,0.0,0.0
1609059685680678000,273,1609059685680678000,-4.49951711562,-1.45005752049,3.84440072592,0.999900380872,0.0116178449056,0.000754453453752,-0.00798027639754,-0.213008582312,0.755177211863,0.0794090663359,0.0,0.0,0.0
1609059685780712000,274,1609059685780712000,-4.50755041562,-1.37414009925,3.84126660744,0.999917799377,0.0112120130276,0.00154596879784,-0.00602455246683,-0.217924688157,0.746145015875,0.0670093220434,0.0,0.0,0.0
1609059685880972000,275,1609059685880972000,-4.5328656487,-1.29845259041,3.85131302772,0.99992346696,0.0110243534702,0.000369197508491,-0.00560245905104,-0.228843726604,0.750062837532,0.0173926732469,0.0,0.0,0.0
1609059685980854000,276,1609059685980854000,-4.55932937836,-1.22483453176,3.85896401847,0.999904314187,0.0110667249007,-0.00785999669557,-0.00266655633242,-0.238294523287,0.757356138308,-0.0308468612115,0.0,0.0,0.0
1609059686080857000,277,1609059686080857000,-4.5826773167,-1.15106870512,3.86217117618,0.99971125835,0.011312844333,-0.0211818244707,0.000865906206706,-0.218706844269,0.763794912461,-0.0635130902865,0.0,0.0,0.0
1609059686180905000,278,1609059686180905000,-4.6030203465,-1.07091577294,3.85222079034,0.999386290727,0.0111638432085,-0.0331316069449,0.00216959294443,-0.164100973193,0.779496258019,-0.0425049895846,0.0,0.0,0.0
1609059686281069000,279,1609059686281069000,-4.61820596816,-0.973102988931,3.841243816,0.999161007909,0.0105728061255,-0.0395499395993,0.00113943995844,-0.094351495833,0.801245544866,-0.00855638820678,0.0,0.0,0.0
