%time,field.header.seq,field.header.stamp,field.pose.pose.position.x,field.pose.pose.position.y,field.pose.pose.position.z,field.pose.pose.orientation.x,field.pose.pose.orientation.y,field.pose.pose.orientation.z,field.pose.pose.orientation.w,field.twist.twist.linear.x,field.twist.twist.linear.y,field.twist.twist.linear.z,field.twist.twist.angular.x,field.twist.twist.angular.y,field.twist.twist.angular.z
1609046881240949000,0,1609046881240949000,0.0634542653874,-0.512629468667,3.03890109884,0.999878646106,0.00388716006414,0.00978681302145,-0.0114804763947,0.0820274800167,0.113542235975,0.560010646853,0.0,0.0,0.0
1609046881341013000,1,1609046881341013000,0.0520765573016,-0.41755161725,2.90270082437,0.99984119024,0.00358121313184,0.0117708218323,-0.012892515867,0.111248990335,0.1039208495,0.559951422747,0.0,0.0,0.0
1609046881441004000,2,1609046881441004000,0.0355210696983,-0.356478848455,2.73066489691,0.999808203163,0.00387667976776,0.0132619110582,-0.0138798399294,0.119279096559,0.0746364690099,0.558085077126,0.0,0.0,0.0
1609046881541015000,3,1609046881541015000,0.0573803464368,-0.358820054094,2.70676202992,0.999788065704,0.00404531656988,0.0137653914549,-0.0147639116954,0.131266850243,0.0383012593549,0.595339409274,0.0,0.0,0.0
1609046881641039000,4,1609046881641039000,0.0525513992847,-0.342889061119,2.65907632763,0.99978475515,0.00427571586062,0.0146627930892,-0.0140415142391,0.129855340457,0.0119673773331,0.628217825913,0.0,0.0,0.0
1609046881741121000,5,1609046881741121000,0.0743926334742,-0.33683813345,2.69704109635,0.99979958043,0.00440659825192,0.0158045315401,-0.0114716017321,0.12900073189,0.00241362849921,0.662859227129,0.0,0.0,0.0
1609046881841146000,6,1609046881841146000,0.114719415949,-0.323424742499,2.75158579824,0.9998410071,0.0040661432157,0.0156222592255,-0.00757443183979,0.130627035135,-0.00618447093156,0.675076551406,0.0,0.0,0.0
1609046881941174000,7,1609046881941174000,0.138000127354,-0.324047726922,2.83044540078,0.999835472904,0.00425299593588,0.0175490863331,-0.0017229968233,0.132274739295,-0.00513397465621,0.70997914077,0.0,0.0,0.0
1609046882041139000,8,1609046882041139000,0.159185114802,-0.31713803336,2.93576888927,0.999678122279,0.00434008277558,0.0241896575342,0.00629888779807,0.121095369602,0.0170525449746,0.745232666773,0.0,0.0,0.0
1609046882141183000,9,1609046882141183000,0.168623350987,-0.305354692494,3.02052104607,0.999427062273,0.00443484417642,0.0318890358136,0.0104388096819,0.0884559166876,0.0574821308788,0.74095711904,0.0,0.0,0.0
1609046882241253000,10,1609046882241253000,0.188728610305,-0.280513794858,3.07433739101,0.999241422275,0.00410117302649,0.0369470181749,0.0116050953436,0.0380026673725,0.105909626757,0.715573630315,0.0,0.0,0.0
1609046882341309000,11,1609046882341309000,0.191983708647,-0.275623101244,3.07301624059,0.999158590591,0.00345586201203,0.0397194746049,0.009619314034,-0.0300513815623,0.128778330482,0.666479483329,0.0,0.0,0.0
1609046882441340000,12,1609046882441340000,0.179512075984,-0.265359300423,3.07589117572,0.99919794217,0.0032462088651,0.0394616271187,0.00597615893442,-0.0944274140469,0.152098174307,0.634053671944,0.0,0.0,0.0
1609046882541440000,13,1609046882541440000,0.146758702366,-0.212406174197,3.0599053523,0.999454946912,0.00300548610896,0.0327835213205,-0.00245293210944,-0.15323926984,0.175396828807,0.556144123695,0.0,0.0,0.0
1609046882641447000,14,1609046882641447000,0.118408881743,-0.204184053194,3.0944102845,0.999780786761,0.00291793683801,0.0175162206977,-0.0110926138187,-0.183624930188,0.164729029651,0.489733312523,0.0,0.0,0.0
1609046882741457000,15,1609046882741457000,0.102965896541,-0.193657359044,3.18563992435,0.99983007776,0.00287005355164,0.0104874002707,-0.0148859945753,-0.174657194022,0.148481523976,0.451348998115,0.0,0.0,0.0
1609046882841448000,16,1609046882841448000,0.0834714305625,-0.204711329425,3.21430791796,0.999837454125,0.00311394894358,0.00419227221159,-0.0172566944721,-0.167229190681,0.130268930499,0.347931242566,0.0,0.0,0.0
1609046882941489000,17,1609046882941489000,0.0675111907186,-0.204897015287,3.21456321114,0.999812816181,0.00315789015756,-0.000185345716202,-0.0190873250565,-0.14685134361,0.107243349081,0.192113756795,0.0,0.0,0.0
1609046883041528000,18,1609046883041528000,0.051769673145,-0.20314199891,3.18083950564,0.999729387725,0.00320710293224,-0.00384829192624,-0.0227168760722,-0.118924462697,0.0774379394021,0.111867933572,0.0,0.0,0.0
1609046883141559000,19,1609046883141559000,0.0436464315291,-0.199956783484,3.14241640372,0.999754672931,0.00315668901948,-0.00455238956792,-0.0214453961529,-0.0812225312673,0.056518694812,0.0573587881914,0.0,0.0,0.0
1609046883241569000,20,1609046883241569000,0.0367172313981,-0.203554743844,3.09789048007,0.9997382003,0.00336113170063,-0.00437679762249,-0.0222053438694,-0.0463229550172,0.0172750865748,0.000278892437345,0.0,0.0,0.0
1609046883341598000,21,1609046883341598000,0.0329333136244,-0.206960543223,3.05072457104,0.999736233119,0.00346641809678,-0.0034815176102,-0.0224349541869,-0.0118352153436,-0.016321719695,-0.0303101225537,0.0,0.0,0.0
1609046883441633000,22,1609046883441633000,0.0318509196895,-0.218413754585,3.01161840006,0.999782049939,0.00371235079594,-0.0023835263402,-0.0204056333572,0.0208608867601,-0.053554547295,-0.0521150690672,0.0,0.0,0.0
1609046883541683000,23,1609046883541683000,0.0350379141824,-0.232840648603,2.96213931366,0.999878785195,0.00398868524913,0.00105635116616,-0.0150129753744,0.0516354077763,-0.0750250180982,-0.0553536038981,0.0,0.0,0.0
1609046883641663000,24,1609046883641663000,0.0396372438618,-0.24354430606,2.93858959801,0.999925478664,0.00417841672942,0.00633314698097,-0.00956395325398,0.0661112439712,-0.0912200984281,-0.0578607995012,0.0,0.0,0.0
1609046883741741000,25,1609046883741741000,0.0410270758099,-0.252334998751,2.94479204496,0.999933536926,0.00430477068433,0.00930016353592,-0.00528182153041,0.072472859901,-0.0905977432912,-0.0566910270174,0.0,0.0,0.0
1609046883841669000,26,1609046883841669000,0.0447097861391,-0.261016647404,2.928565295,0.999917536914,0.00462505647907,0.0119670496731,-0.000563867441606,0.075812294427,-0.0757444399923,-0.0359816822868,0.0,0.0,0.0
1609046883941770000,27,1609046883941770000,0.0480808257128,-0.272994847073,2.93433842774,0.999885004288,0.00466468946306,0.0138848402445,0.00392811452513,0.0708883215054,-0.0575321686626,-0.0380749155974,0.0,0.0,0.0
1609046884041787000,28,1609046884041787000,0.0465443939022,-0.279615828468,2.94555141901,0.999847783185,0.0049148285375,0.0150769415077,0.00727603978388,0.0584042182862,-0.0304947685257,-0.019429356756,0.0,0.0,0.0
1609046884141837000,29,1609046884141837000,0.0517881743658,-0.291802190506,2.92203119174,0.999843311687,0.00493887353098,0.0149155053442,0.00815397473796,0.0486897716547,-0.00970581343488,-0.0274121410067,0.0,0.0,0.0
1609046884241887000,30,1609046884241887000,0.0591465581911,-0.281252963993,2.89738311643,0.999841815269,0.00484976980529,0.0132630082406,0.0108128065503,0.0349938360349,0.0348649689508,-0.0330354259179,0.0,0.0,0.0
1609046884341918000,31,1609046884341918000,0.0569560935683,-0.277739405192,2.9005189688,0.999875282023,0.0049777974598,0.00849931185547,0.0123451865221,0.0329659250195,0.068616360913,-0.0295908938449,0.0,0.0,0.0
1609046884441939000,32,1609046884441939000,0.0493325003483,-0.273515125788,2.89434949309,0.999882263444,0.00526458535316,0.00530537576695,0.0134013573756,0.0421936512357,0.106483611902,-0.0158156002008,0.0,0.0,0.0
1609046884541953000,33,1609046884541953000,0.046928579154,-0.268669923988,2.87713193077,0.999873293136,0.00546818712245,0.00400573615913,0.0144031482861,0.0550882784885,0.143962799212,-0.0121389485055,0.0,0.0,0.0
1609046884641986000,34,1609046884641986000,0.0481039826745,-0.26721952124,2.87010184872,0.999866066654,0.00571751785013,0.00275872282017,0.0150847005816,0.0749744709641,0.175733232344,0.00420280987011,0.0,0.0,0.0
1609046884742014000,35,1609046884742014000,0.0492349118559,-0.240220484117,2.86544115153,0.999867889598,0.00586858160001,0.00244216224327,0.0149599112219,0.0921875038187,0.232648234479,0.0155517134565,0.0,0.0,0.0
1609046884842015000,36,1609046884842015000,0.0587562862575,-0.214394710187,2.85750520146,0.999913360469,0.00572228206989,0.00157627666903,0.0117491444211,0.110812800674,0.275343141699,-0.00614312860009,0.0,0.0,0.0
1609046884942074000,37,1609046884942074000,0.0713291709456,-0.18895032676,2.84834325776,0.999945948371,0.00554128030896,7.19690100636e-05,0.00879712279103,0.136222167508,0.307910123634,-0.0072973262643,0.0,0.0,0.0
1609046885042132000,38,1609046885042132000,0.0833381570476,-0.161764597512,2.83492525337,0.999972115013,0.00543697571534,-0.000938156152527,0.00503272839571,0.16067932933,0.329094444092,-0.00944901219102,0.0,0.0,0.0
1609046885142143000,39,1609046885142143000,0.0939712382087,-0.134981805059,2.82498445072,0.999979097325,0.0055175267187,-0.00108483022065,0.00319138783843,0.185164068023,0.343427805369,-0.0123331329947,0.0,0.0,0.0
1609046885242131000,40,1609046885242131000,0.107409216884,-0.107364834938,2.81976285037,0.999977456278,0.00538739048346,-0.00119537477947,0.0038254462627,0.205622428508,0.353863050256,0.0129765035558,0.0,0.0,0.0
1609046885342201000,41,1609046885342201000,0.127109335503,-0.0761823138131,2.80733842773,0.99996858479,0.00554286302467,-0.00105651984797,0.0055668544566,0.235076055894,0.378159074348,0.0235014491138,0.0,0.0,0.0
1609046885442254000,42,1609046885442254000,0.151657830283,-0.0371185370501,2.80649770016,0.999962358338,0.00567119118354,-0.000367771058019,0.00655623689689,0.264602500708,0.401809491432,0.0438796302118,0.0,0.0,0.0
1609046885542224000,43,1609046885542224000,0.178810908135,0.00539686332769,2.80820406647,0.999976216654,0.00567812340073,0.000111803795833,0.00391312413049,0.288321429908,0.422641447757,0.0538618241037,0.0,0.0,0.0
1609046885642263000,44,1609046885642263000,0.210895510936,0.0522003368924,2.81279258166,0.99998014085,0.00568952682987,0.00164326687899,0.00215565870335,0.318129799731,0.450013668618,0.0635515282304,0.0,0.0,0.0
1609046885742285000,45,1609046885742285000,0.246588437035,0.0967145988936,2.81230168341,0.999971985084,0.005657354428,0.00472026123258,-0.00132004624785,0.345838047293,0.470732624937,0.061294353231,0.0,0.0,0.0
1609046885842339000,46,1609046885842339000,0.281746636991,0.133869046878,2.81700402106,0.999934314033,0.00548479462663,0.00883055529897,-0.00482762272377,0.360375261513,0.465449133212,0.0540477610105,0.0,0.0,0.0
1609046885942359000,47,1609046885942359000,0.319239579722,0.176425874536,2.82568211354,0.999872348975,0.0054409168911,0.0129680694561,-0.00758362406121,0.371089107637,0.463982134135,0.050787736924,0.0,0.0,0.0
1609046886042395000,48,1609046886042395000,0.340308814083,0.209531646784,2.83734985747,0.999752210646,0.00517682114454,0.0182971644992,-0.0115728821852,0.359161935339,0.461699849582,0.0508652555445,0.0,0.0,0.0
1609046886142438000,49,1609046886142438000,0.373619472645,0.253713950809,2.83644141117,0.999547069415,0.00474540482085,0.0232507868525,-0.0185077839717,0.341697555289,0.440445081419,0.0349076812281,0.0,0.0,0.0
1609046886242422000,50,1609046886242422000,0.404053416983,0.291171192036,2.83599178172,0.999385264584,0.0047050912846,0.0273125883788,-0.0214703880985,0.316254918518,0.408913326742,0.0264138067275,0.0,0.0,0.0
1609046886342513000,51,1609046886342513000,0.439234004053,0.323929441109,2.83719669416,0.999287205391,0.00454731147494,0.0297334740938,-0.0228106032038,0.296458170219,0.370681412065,0.0212544970962,0.0,0.0,0.0
1609046886442519000,52,1609046886442519000,0.467058502245,0.352678181578,2.84333849348,0.99930021702,0.0047810427437,0.0314878625628,-0.0196145967521,0.261817709755,0.34452375322,0.00345777796997,0.0,0.0,0.0
1609046886542567000,53,1609046886542567000,0.488736343431,0.379999461815,2.84851332737,0.999371257641,0.0050552079903,0.0321892159124,-0.0139781490649,0.223018904828,0.323184340663,0.00966127812064,0.0,0.0,0.0
1609046886642539000,54,1609046886642539000,0.507470948679,0.408542654953,2.85241789889,0.999441969376,0.00524952035753,0.0315539149104,-0.00961991891286,0.189138116964,0.315863201609,0.00264042010048,0.0,0.0,0.0
1609046886742602000,55,1609046886742602000,0.547110559249,0.44564633922,2.84829958825,0.99946559779,0.00563299230341,0.0311855338537,-0.00801565407513,0.173849979863,0.309638330611,0.0251545865057,0.0,0.0,0.0
1609046886842596000,56,1609046886842596000,0.564507023847,0.485768997506,2.85074352273,0.999449881205,0.00549682324547,0.0318205914377,-0.00756107490086,0.146281773935,0.324559302809,0.0220272412286,0.0,0.0,0.0
1609046886942633000,57,1609046886942633000,0.576934330707,0.517096008086,2.8531304715,0.99942392424,0.00540331773022,0.0328785426759,-0.00645176292424,0.113483709277,0.331885481797,0.00781225223711,0.0,0.0,0.0
1609046887042688000,58,1609046887042688000,0.582686663183,0.543877040387,2.85504464154,0.999448550413,0.00539477171392,0.0321228674569,-0.00645080630155,0.0776201974003,0.331996502849,-0.0131414583423,0.0,0.0,0.0
1609046887142701000,59,1609046887142701000,0.580389241399,0.570752356511,2.85962382593,0.999539084522,0.00542048157258,0.0294652674668,-0.00490254074878,0.0397277174306,0.339677868121,-0.0265611934286,0.0,0.0,0.0
1609046887242745000,60,1609046887242745000,0.577104784519,0.603365389912,2.86043115509,0.999664753371,0.00547557057251,0.0249294511508,-0.00434988043676,0.0130439839436,0.353430314437,-0.0208527800956,0.0,0.0,0.0
1609046887342790000,61,1609046887342790000,0.574683045938,0.636107773433,2.85631610915,0.99977167302,0.00555907413129,0.0201578291058,-0.00440005073087,-0.00356350900999,0.35946054368,-0.0274963660646,0.0,0.0,0.0
1609046887442811000,62,1609046887442811000,0.566975030674,0.630545071338,2.84452276043,0.999868234954,0.00587554301079,0.0147361791336,-0.00344031229676,-0.00419892354398,0.344717297874,-0.00123260442523,0.0,0.0,0.0
1609046887542865000,63,1609046887542865000,0.563996722507,0.668795221455,2.84214676585,0.999935841648,0.00605588160529,0.0095525934022,0.000621968575046,0.00203101048365,0.364977469269,-0.00828504047943,0.0,0.0,0.0
1609046887642887000,64,1609046887642887000,0.554437455293,0.734432739643,2.86587037017,0.999948558477,0.00588185523901,0.006516605071,0.00508114519099,0.0147503274496,0.405364347948,0.0187828340428,0.0,0.0,0.0
1609046887742920000,65,1609046887742920000,0.556727921855,0.776057701645,2.86779715755,0.999940527683,0.00600958855556,0.00523653351365,0.0074434305682,0.040283543897,0.441331291874,0.0474854695534,0.0,0.0,0.0
1609046887842967000,66,1609046887842967000,0.568459102138,0.82498269244,2.86817061278,0.999921395281,0.00623715999591,0.00678486923938,0.00850097901742,0.0712844106184,0.480069933079,0.0707272005817,0.0,0.0,0.0
1609046887942965000,67,1609046887942965000,0.562219982109,0.879512263786,2.87423718761,0.999894253908,0.00598421193477,0.0112417447037,0.00702092488226,0.0803116684839,0.530181303176,0.0857030184432,0.0,0.0,0.0
1609046888042984000,68,1609046888042984000,0.572223868391,0.935901376507,2.88136992286,0.999854698193,0.00582911821538,0.0149808174788,0.00567265278491,0.0825671533592,0.561327626867,0.0771554284424,0.0,0.0,0.0
1609046888143018000,69,1609046888143018000,0.57964997721,0.992186033782,2.89051540073,0.999842871963,0.00579120955844,0.0159547092736,0.00511278097875,0.0791758967032,0.589471805622,0.0841078234834,0.0,0.0,0.0
1609046888243011000,70,1609046888243011000,0.583766113882,1.04979283674,2.8977418803,0.999862579631,0.00550374753005,0.0152925918717,0.00326607579654,0.0802433371435,0.614728700609,0.0706866283465,0.0,0.0,0.0
1609046888343057000,71,1609046888343057000,0.590303361315,1.11413308376,2.90664335239,0.999889163922,0.00538425736804,0.0138797253497,0.000151220503656,0.0800305594087,0.645482381441,0.0770716879404,0.0,0.0,0.0
1609046888443098000,72,1609046888443098000,0.600063782456,1.18051202409,2.91457210364,0.999893149336,0.0052888822406,0.0130163887034,-0.00403624341642,0.085806283226,0.666947027157,0.0985014616559,0.0,0.0,0.0
1609046888543125000,73,1609046888543125000,0.611804499682,1.24451161769,2.9203604461,0.999897458298,0.00507070344206,0.0121385664859,-0.00565827355095,0.0935479409484,0.664611414346,0.0851871824968,0.0,0.0,0.0
1609046888643129000,74,1609046888643129000,0.623175438027,1.31024451782,2.92810256663,0.999904593847,0.0051284397431,0.0115920405015,-0.00548879830897,0.0995672451783,0.672099800809,0.0878368365805,0.0,0.0,0.0
1609046888743172000,75,1609046888743172000,0.633596041902,1.37649688511,2.93752007629,0.999923293506,0.00504033186304,0.0103824028613,-0.00449531631874,0.104599730064,0.680303052916,0.0815018439367,0.0,0.0,0.0
1609046888843218000,76,1609046888843218000,0.645088706911,1.44542371907,2.94522704731,0.999933496598,0.00514217365799,0.00892714036265,-0.00518329978223,0.118495043259,0.692005364414,0.0781540156431,0.0,0.0,0.0
1609046888943157000,77,1609046888943157000,0.660566473615,1.51969191226,2.95094226381,0.999925142174,0.00514188858749,0.00913292508724,-0.0063135337643,0.132769227281,0.710823790786,0.0748591503945,0.0,0.0,0.0
1609046889043268000,78,1609046889043268000,0.680512279598,1.59019079046,2.95929575165,0.999833540653,0.00464644245618,0.0104222972261,-0.0142364770156,0.149666177783,0.717762730643,0.0746301611733,0.0,0.0,0.0
1609046889143293000,79,1609046889143293000,0.694942439438,1.65586774035,2.96283599539,0.999647060069,0.00424773760175,0.0113985036775,-0.0236174963552,0.153364845915,0.685159805128,0.0514735809123,0.0,0.0,0.0
1609046889243336000,80,1609046889243336000,0.710943165419,1.71584992354,2.96523743895,0.999556233578,0.00403377184255,0.0124426817813,-0.0267627403413,0.159285103573,0.65019695462,0.0520169028186,0.0,0.0,0.0
1609046889343361000,81,1609046889343361000,0.726554538684,1.77503390026,2.96912110646,0.999479304439,0.00387619994277,0.0153144451136,-0.0281347266205,0.158950861839,0.616614005468,0.0460790898662,0.0,0.0,0.0
1609046889443388000,82,1609046889443388000,0.745279891937,1.8304402005,2.97218553824,0.999369203974,0.00387573731347,0.0212806577407,-0.0281656957038,0.156010330376,0.57949441617,0.0782545667508,0.0,0.0,0.0
1609046889543412000,83,1609046889543412000,0.7559042892,1.88393303751,2.97814636648,0.999254985003,0.0039168732409,0.0255538185378,-0.0286554603656,0.12738298766,0.541610893447,0.0408364955489,0.0,0.0,0.0
1609046889643420000,84,1609046889643420000,0.761997158604,1.93250261262,2.98640268297,0.999217585639,0.00407572776047,0.027553789088,-0.0280783493181,0.095824003624,0.508789179277,0.0376489255427,0.0,0.0,0.0
1609046889743450000,85,1609046889743450000,0.770835094536,1.97195879797,2.99130799423,0.999187177926,0.00395866285614,0.030123560799,-0.0264930848019,0.0651747453202,0.469343191944,0.0381970220766,0.0,0.0,0.0
1609046889843527000,86,1609046889843527000,0.775722869841,2.01904751488,2.99818679147,0.999092082639,0.00376124250673,0.0327655806686,-0.0269681327773,0.0293554530162,0.435679087319,0.0387439359046,0.0,0.0,0.0
1609046889943510000,87,1609046889943510000,0.777012074006,2.06849051793,3.0060899176,0.998909892603,0.00362595853861,0.0360056854543,-0.0294867682077,-0.0139754530853,0.407956738355,0.0349784681078,0.0,0.0,0.0
1609046890043564000,88,1609046890043564000,0.773731360865,2.11150757139,3.0112157247,0.998811053401,0.00333562753507,0.0383542505522,-0.029904926963,-0.06079216038,0.377723157788,0.0116399411734,0.0,0.0,0.0
1609046890143584000,89,1609046890143584000,0.777259594239,2.15370265774,3.011102233,0.998723710477,0.00318094548701,0.0402206262494,-0.0303831028959,-0.105280377791,0.346929536973,-0.011611909967,0.0,0.0,0.0
1609046890243627000,90,1609046890243627000,0.764515891634,2.18053595379,3.00908320795,0.998633366535,0.00298380532006,0.0423966658928,-0.0304141228865,-0.161027621044,0.30818938863,-0.0148215343471,0.0,0.0,0.0
1609046890343660000,91,1609046890343660000,0.745186127882,2.21102584383,3.01057194682,0.998551198973,0.00267775411415,0.0445367543972,-0.0300800626791,-0.224219282356,0.272812042713,-0.0331061058724,0.0,0.0,0.0
1609046890443693000,92,1609046890443693000,0.718653768251,2.24419449728,3.01280804969,0.99851810109,0.0026415740267,0.0450767223858,-0.0303761910345,-0.289967435468,0.241677592622,-0.0456220823009,0.0,0.0,0.0
1609046890543713000,93,1609046890543713000,0.692351921985,2.28231260177,3.01218831939,0.998516717481,0.00254443080832,0.044277855073,-0.0315810438955,-0.350420036167,0.215466070458,-0.0534800635896,0.0,0.0,0.0
1609046890643734000,94,1609046890643734000,0.655702903595,2.30802850564,3.00959012575,0.99854001677,0.00265145438726,0.0425995790245,-0.0331071074719,-0.412769377276,0.178456237074,-0.0525851827387,0.0,0.0,0.0
1609046890743746000,95,1609046890743746000,0.613110104039,2.33082153661,3.00644137442,0.998548778627,0.00274983752813,0.0407958986107,-0.0350495328438,-0.467986953253,0.141287542442,-0.053644931905,0.0,0.0,0.0
1609046890843787000,96,1609046890843787000,0.566714199826,2.35317404525,3.00106898627,0.998565115701,0.00267301893062,0.0389618191548,-0.0366407058138,-0.519172801311,0.10303627453,-0.0629652927185,0.0,0.0,0.0
1609046890943830000,97,1609046890943830000,0.515870109371,2.37357879119,2.99415952015,0.998611550319,0.00243508214845,0.0381242741133,-0.036270947979,-0.565691980578,0.0654256424425,-0.0611009546399,0.0,0.0,0.0
1609046891043875000,98,1609046891043875000,0.462107021215,2.38956153314,2.9855047372,0.998619120456,0.00236214715903,0.0382081406687,-0.035977916946,-0.609099079362,0.0269896163024,-0.0603015033023,0.0,0.0,0.0
1609046891143923000,99,1609046891143923000,0.402484128143,2.39755579045,2.97896776415,0.998623157965,0.00228133683866,0.0380117052937,-0.0360789985898,-0.656861110833,-0.00615379989477,-0.0799206653543,0.0,0.0,0.0
1609046891243940000,100,1609046891243940000,0.334573736411,2.39594989717,2.97487817593,0.998619220025,0.00214704997325,0.0377449257583,-0.0364741573245,-0.705347511453,-0.0459877376602,-0.0902194636361,0.0,0.0,0.0
1609046891343962000,101,1609046891343962000,0.260138707739,2.39459629832,2.97166684397,0.998692220372,0.00206924213575,0.0359548854076,-0.0362879238977,-0.750092393143,-0.0762621602918,-0.108073362261,0.0,0.0,0.0
1609046891443970000,102,1609046891443970000,0.182077274292,2.40069832293,2.96376312237,0.99872834018,0.00182553381753,0.0324765409678,-0.0385181026933,-0.792301505401,-0.106144107419,-0.123947924703,0.0,0.0,0.0
1609046891543984000,103,1609046891543984000,0.0973258043362,2.38448125621,2.95900949051,0.998950517282,0.00198572801451,0.0239985066534,-0.0389614243178,-0.826805924088,-0.138098689141,-0.173643890341,0.0,0.0,0.0
1609046891644047000,104,1609046891644047000,0.0100483402548,2.36491057652,2.94576747457,0.99908140913,0.00227416294015,0.013738496002,-0.040526779306,-0.835737106422,-0.186880365731,-0.161093916541,0.0,0.0,0.0
1609046891744071000,105,1609046891744071000,-0.075927271068,2.3455076606,2.92817857104,0.999219103215,0.00287922104739,0.00358084372165,-0.0392437436477,-0.825370424128,-0.223042206753,-0.149368928564,0.0,0.0,0.0
1609046891844106000,106,1609046891844106000,-0.159914226694,2.32592328508,2.90622232959,0.999180959793,0.00350252234912,-0.00336550067301,-0.040172320445,-0.796851638014,-0.257489807924,-0.137201952635,0.0,0.0,0.0
1609046891944149000,107,1609046891944149000,-0.22829432913,2.30022216608,2.88063479586,0.999196466617,0.00397556521534,-0.00636534063427,-0.0393712892959,-0.74706525079,-0.293450221475,-0.138905738586,0.0,0.0,0.0
1609046892044158000,108,1609046892044158000,-0.299882003089,2.27093682277,2.86797387792,0.999144190547,0.00422614482028,-0.00681647989081,-0.0405778486075,-0.700523245701,-0.327608984321,-0.128506433196,0.0,0.0,0.0
1609046892144184000,109,1609046892144184000,-0.361929091078,2.23677840747,2.83695959672,0.999191019476,0.00462504852116,-0.0057109263758,-0.0395385994246,-0.655933939108,-0.362405955894,-0.139284796983,0.0,0.0,0.0
1609046892244210000,110,1609046892244210000,-0.427760078455,2.20116168128,2.82389626372,0.999153446536,0.00488727242899,-0.00429275858765,-0.0406211406327,-0.619396396961,-0.397320016051,-0.132030460677,0.0,0.0,0.0
1609046892344227000,111,1609046892344227000,-0.490016558057,2.16330500376,2.80797803751,0.99923025898,0.00519518399622,-0.00350556907542,-0.0387248058358,-0.585715624261,-0.430752200477,-0.130743516448,0.0,0.0,0.0
1609046892444274000,112,1609046892444274000,-0.550844696996,2.1223842554,2.79153492811,0.999302287245,0.0051854939618,-0.00328008053591,-0.0368414227585,-0.555355651406,-0.469171269318,-0.137718226182,0.0,0.0,0.0
1609046892544305000,113,1609046892544305000,-0.608697372483,2.07741509975,2.77473651665,0.999567709501,0.00537657786104,-0.00331728332767,-0.0287137974534,-0.525253080808,-0.489379265732,-0.151169929385,0.0,0.0,0.0
1609046892644360000,114,1609046892644360000,-0.6613073097,2.02697104575,2.75849788795,0.99975178192,0.00563828684123,-0.00374483447063,-0.0212264100793,-0.494980429954,-0.499259843452,-0.152555671131,0.0,0.0,0.0
1609046892744381000,115,1609046892744381000,-0.711940274377,1.9775816306,2.74267971842,0.999886685811,0.00557531527504,-0.00391449716841,-0.0134241613845,-0.463441722459,-0.502246523525,-0.137692231619,0.0,0.0,0.0
1609046892844383000,116,1609046892844383000,-0.761304999606,1.93050846853,2.70598102312,0.999949422757,0.00573597646861,-0.00230502945693,-0.00793330576502,-0.435620026457,-0.478152472322,-0.125071132653,0.0,0.0,0.0
1609046892944471000,117,1609046892944471000,-0.803786029337,1.88881270785,2.69091015561,0.999957753831,0.00532075096221,0.00102420751651,-0.00742503616864,-0.409445447451,-0.442003294764,-0.0979285869977,0.0,0.0,0.0
1609046893044532000,118,1609046893044532000,-0.844143481021,1.84679010115,2.67886451494,0.999931845401,0.00543085155727,0.00648560952772,-0.00804656910091,-0.395341204118,-0.417663187229,-0.0766441473452,0.0,0.0,0.0
1609046893144478000,119,1609046893144478000,-0.888107796792,1.80768889732,2.67235677967,0.999885714918,0.00536407021829,0.0101505304404,-0.0098361875576,-0.39936115985,-0.397825154945,-0.0928648550156,0.0,0.0,0.0
1609046893244528000,120,1609046893244528000,-0.941911880494,1.76874861363,2.65354991097,0.999855748305,0.00533393822203,0.0102956534169,-0.0124109308442,-0.411252631617,-0.396394165799,-0.111292537384,0.0,0.0,0.0
1609046893344534000,121,1609046893344534000,-0.985558668375,1.72678833161,2.64566345252,0.999844970112,0.00538656273991,0.00967497714493,-0.0136899781247,-0.411754115232,-0.401436354293,-0.101889228608,0.0,0.0,0.0
1609046893444565000,122,1609046893444565000,-1.02724954268,1.68747287319,2.63572737368,0.999867281434,0.00557906646878,0.00954656319911,-0.0119648094987,-0.410903041255,-0.395160206596,-0.0796291696677,0.0,0.0,0.0
1609046893544579000,123,1609046893544579000,-1.06978912111,1.64856451042,2.6302898042,0.999900241968,0.00540982665136,0.00975527403423,-0.00866455523029,-0.411112939537,-0.390745847642,-0.0340832915586,0.0,0.0,0.0
1609046893644667000,124,1609046893644667000,-1.11223585289,1.61074379914,2.62966725182,0.999909007725,0.00547412125928,0.0104568520911,-0.00653180760313,-0.40965014922,-0.38317259617,0.039216521195,0.0,0.0,0.0
1609046893744666000,125,1609046893744666000,-1.15411166264,1.57369395252,2.63604269787,0.999921685331,0.00568419369368,0.0105546984068,-0.00359325585387,-0.413838868403,-0.36550811678,0.0818613162326,0.0,0.0,0.0
1609046893844667000,126,1609046893844667000,-1.19610545919,1.53781472369,2.64831495381,0.999925301286,0.0057034363007,0.0107164072347,-0.0014217168037,-0.417191526381,-0.346508320954,0.0886493908027,0.0,0.0,0.0
1609046893944742000,127,1609046893944742000,-1.24300991063,1.50762886495,2.65991023972,0.999939599311,0.00580989053659,0.00920408381116,-0.00152569445635,-0.428375226131,-0.31305022496,0.0552589051471,0.0,0.0,0.0
1609046894044723000,128,1609046894044723000,-1.29610124068,1.47588757466,2.66087951026,0.999945248329,0.00565239787489,0.00407107850333,-0.00780878106949,-0.436331814441,-0.293947070665,0.0164001867275,0.0,0.0,0.0
1609046894144752000,129,1609046894144752000,-1.34066740815,1.44828287558,2.6567673158,0.999882092367,0.00558896173476,-0.000418229117338,-0.0142965014903,-0.417766279406,-0.30115766997,0.0230259116237,0.0,0.0,0.0
1609046894244813000,130,1609046894244813000,-1.38383820338,1.4166782655,2.64969103875,0.999794245494,0.0056242138137,-0.00269433243492,-0.019302214071,-0.393722392796,-0.312970590332,0.0177527768975,0.0,0.0,0.0
1609046894344802000,131,1609046894344802000,-1.42548562698,1.38694544766,2.6435789985,0.999705715896,0.0052614846932,-0.00292743613371,-0.0234995425809,-0.371614778637,-0.339469022526,0.0306382705188,0.0,0.0,0.0
1609046894444887000,132,1609046894444887000,-1.46054140557,1.35002223304,2.64432493516,0.999720983965,0.00526304213565,-8.97276112411e-05,-0.0230270831012,-0.348593578162,-0.369957329571,0.0401459434175,0.0,0.0,0.0
1609046894544882000,133,1609046894544882000,-1.49613112952,1.3102619012,2.64817640024,0.999738850079,0.00494854758039,0.0018947433856,-0.0222295629292,-0.332326726501,-0.396583212403,0.0388061823655,0.0,0.0,0.0
1609046894645486000,134,1609046894645486000,-1.53215727049,1.26872854484,2.65862960023,0.999748115149,0.00501610530279,0.00265345867823,-0.0217141451901,-0.325547931158,-0.422995741902,0.0581673014333,0.0,0.0,0.0
1609046894744967000,135,1609046894744967000,-1.56654883821,1.22569644617,2.6686354484,0.999734815748,0.0050989430999,0.00206168024643,-0.0223617627714,-0.31469404492,-0.450814601455,0.0701506404995,0.0,0.0,0.0
1609046894844918000,136,1609046894844918000,-1.59735167927,1.17806663941,2.67529208623,0.999711000432,0.00494868283721,0.00103888651816,-0.0235020609336,-0.298328077234,-0.484285723599,0.0750494582577,0.0,0.0,0.0
1609046894945026000,137,1609046894945026000,-1.62363541211,1.12158711609,2.66881478197,0.999717281188,0.00502681782351,0.00033103889852,-0.0232374527591,-0.284582584983,-0.513619273407,0.0775537958678,0.0,0.0,0.0
1609046895045090000,138,1609046895045090000,-1.65028328315,1.06910399734,2.6740417573,0.999727667021,0.0049972688204,-0.00017511990145,-0.0227944824359,-0.268087534002,-0.539126499918,0.0696658796006,0.0,0.0,0.0
1609046895145167000,139,1609046895145167000,-1.67865200932,1.01340398855,2.67999417924,0.999725582358,0.00514471535433,-0.00213753154571,-0.0227535237184,-0.250026112743,-0.570390324383,0.0584336193072,0.0,0.0,0.0
1609046895245084000,140,1609046895245084000,-1.70698828082,0.953901111187,2.68338980581,0.999719980237,0.00521506419734,-0.00351077270854,-0.0228131255174,-0.230103174685,-0.593545621363,0.0420246095727,0.0,0.0,0.0
1609046895345186000,141,1609046895345186000,-1.73007559465,0.891982490149,2.68245648658,0.999716312178,0.00503537622675,-0.00358125675807,-0.0230024944566,-0.203756931218,-0.617169247235,0.037348411131,0.0,0.0,0.0
1609046895445140000,142,1609046895445140000,-1.74859539682,0.828755556831,2.68050953511,0.999709227328,0.0051676782129,-0.00226497596791,-0.0234440990547,-0.177998893027,-0.644646975538,0.0306898138217,0.0,0.0,0.0
1609046895545224000,143,1609046895545224000,-1.76367777791,0.762094573858,2.67973119567,0.999717070656,0.00512903014245,-0.00111859676907,-0.0231995782371,-0.157531507167,-0.6723170705,0.00355780473426,0.0,0.0,0.0
1609046895645293000,144,1609046895645293000,-1.78556261949,0.681290561119,2.66965941729,0.999706973232,0.0052606211139,-0.00113355399103,-0.0236010294516,-0.145386152876,-0.708917007346,-0.0195762301576,0.0,0.0,0.0
1609046895745255000,145,1609046895745255000,-1.79618676556,0.612701909375,2.67092347051,0.999704716416,0.00507672168612,-0.00105293664912,-0.0237402231716,-0.121878484447,-0.733575592085,-0.0136208377217,0.0,0.0,0.0
1609046895845323000,146,1609046895845323000,-1.80637797629,0.539664332925,2.66748567636,0.999753066545,0.00524353114865,-0.000409825217632,-0.0215903533569,-0.0978873367036,-0.756352885768,-0.0228932048913,0.0,0.0,0.0
1609046895945307000,147,1609046895945307000,-1.81346111529,0.460400215294,2.66502775714,0.999794850012,0.00547500420013,0.001268255214,-0.0194595412701,-0.0773088523203,-0.779994144334,-0.0146219011548,0.0,0.0,0.0
1609046896045360000,148,1609046896045360000,-1.81821991529,0.378272501968,2.66140519613,0.999837220586,0.00558096678706,0.00311774209777,-0.0168720130743,-0.0559692208768,-0.809795792479,0.00230205409479,0.0,0.0,0.0
1609046896145436000,149,1609046896145436000,-1.81985840361,0.296066829974,2.65683912952,0.999877986937,0.00566386924203,0.00769995442022,-0.0123548584161,-0.0398893183432,-0.820362825861,0.0111755424021,0.0,0.0,0.0
1609046896245555000,150,1609046896245555000,-1.81974254936,0.215596672787,2.65702764515,0.999877298118,0.00597908204272,0.0124817595299,-0.00733791283918,-0.0354924190865,-0.814984823165,0.0261996272034,0.0,0.0,0.0
1609046896345406000,151,1609046896345406000,-1.83164701426,0.122809330822,2.65985091572,0.999791566463,0.0062394798991,0.0194308311308,-0.000579069151685,-0.0470989376249,-0.808437895536,0.0502295340355,0.0,0.0,0.0
1609046896445460000,152,1609046896445460000,-1.84148974874,0.0468449398312,2.67085432992,0.99970043715,0.00624182712165,0.023608148531,0.0016525373819,-0.0775487991099,-0.781093410584,0.029859626593,0.0,0.0,0.0
1609046896545468000,153,1609046896545468000,-1.86245427856,-0.0400987278426,2.68197286016,0.999714920982,0.00630208631343,0.0230130191722,0.000872595480621,-0.11016804733,-0.768442568688,0.0267287603072,0.0,0.0,0.0
1609046896645503000,154,1609046896645503000,-1.87428637595,-0.116546736249,2.68877200029,0.999782399722,0.00616314111338,0.0197581344674,-0.00260480699447,-0.129253698228,-0.749828855052,0.0401390722982,0.0,0.0,0.0
1609046896745613000,155,1609046896745613000,-1.88790348922,-0.191282297605,2.69532509333,0.99981820293,0.00626870836069,0.0165671121543,-0.00705657004174,-0.141119803316,-0.74601356092,0.0685769835703,0.0,0.0,0.0
1609046896845547000,156,1609046896845547000,-1.90177402789,-0.265154425381,2.70312057815,0.999840940238,0.00632944445142,0.0140694156468,-0.00894896085401,-0.148870409228,-0.747173264394,0.0891508195458,0.0,0.0,0.0
1609046896945647000,157,1609046896945647000,-1.91715994692,-0.339080316422,2.71234348404,0.999855617535,0.00626506742899,0.0123262110458,-0.00987712182292,-0.145488281751,-0.74907390831,0.0860375792667,0.0,0.0,0.0
1609046897045639000,158,1609046897045639000,-1.93381957433,-0.411043367336,2.72286095653,0.999838502745,0.00629213510504,0.0120107209008,-0.0117949161581,-0.146499674163,-0.751632695751,0.100743440656,0.0,0.0,0.0
1609046897145757000,159,1609046897145757000,-1.94632950376,-0.487250904057,2.72813062088,0.999825754526,0.00612694169184,0.0119121292556,-0.0130008595238,-0.142377657393,-0.757577411911,0.101599033377,0.0,0.0,0.0
1609046897245693000,160,1609046897245693000,-1.96136628347,-0.563093552434,2.73879817752,0.999817232687,0.00608070700169,0.0125240394685,-0.0131024677177,-0.144171535372,-0.764964712677,0.103209675115,0.0,0.0,0.0
1609046897345691000,161,1609046897345691000,-1.97849177376,-0.641459199478,2.75012728218,0.999817630884,0.00620448721697,0.0120882091799,-0.0134195569935,-0.146859652449,-0.775140368045,0.102440122618,0.0,0.0,0.0
1609046897445698000,162,1609046897445698000,-1.99577868147,-0.720569417232,2.75994213182,0.999812092422,0.00637781164816,0.0106884700706,-0.0148613583823,-0.148313303615,-0.787428271456,0.0926237715797,0.0,0.0,0.0
1609046897545760000,163,1609046897545760000,-2.01175136409,-0.800050485262,2.76822746944,0.999820037687,0.00639019334187,0.00860917525776,-0.0156505517658,-0.142369242145,-0.800215207547,0.0775038821755,0.0,0.0,0.0
1609046897645924000,164,1609046897645924000,-2.0318867952,-0.883675485338,2.77546105932,0.999799216367,0.0067313305039,0.00774009145095,-0.0172135738829,-0.140225995533,-0.817159907185,0.0677555501368,0.0,0.0,0.0
1609046897745848000,165,1609046897745848000,-2.04616986858,-0.966965744364,2.78186321651,0.999784379682,0.00689098307497,0.00664069478335,-0.0184285015241,-0.130283129834,-0.839233566889,0.0536351196834,0.0,0.0,0.0
1609046897845854000,166,1609046897845854000,-2.0598905217,-1.04912903383,2.78821387351,0.999803980297,0.0070113737482,0.00471090078886,-0.0179066757056,-0.120010380457,-0.854811899928,0.0302556615786,0.0,0.0,0.0
1609046897945909000,167,1609046897945909000,-2.07194630008,-1.13238030501,2.79384990363,0.999791070901,0.00699413933283,0.00050762682359,-0.0191999707587,-0.105590759174,-0.870325960085,-0.00137544758774,0.0,0.0,0.0
1609046898045937000,168,1609046898045937000,-2.07898078524,-1.22187531892,2.79071283739,0.999748807691,0.0071192413175,-0.00208990023289,-0.0211487645048,-0.0746271056403,-0.897369513811,0.0238949544062,0.0,0.0,0.0
1609046898145912000,169,1609046898145912000,-2.0902678066,-1.32861721046,2.78277368446,0.999741061198,0.0073094568467,-0.00304737250465,-0.0213329771802,-0.0471311020306,-0.930205008315,0.0272287423852,0.0,0.0,0.0
1609046898245960000,170,1609046898245960000,-2.0910984603,-1.42595729525,2.78373831852,0.999813227413,0.00764485361376,-0.00327887007175,-0.0174446414335,-0.0128858977716,-0.951369548181,0.0401038820031,0.0,0.0,0.0
1609046898345963000,171,1609046898345963000,-2.09124669184,-1.52455653517,2.78634921256,0.999911176484,0.00782064992532,-0.00256603346001,-0.0104829408614,0.0141519775391,-0.968789284602,0.0407559944262,0.0,0.0,0.0
1609046898445999000,172,1609046898445999000,-2.08884062445,-1.62394347665,2.79170391996,0.999964019041,0.00819806174841,-0.00214061687063,0.000412512200198,0.0434289406902,-0.964250607038,0.0643352587326,0.0,0.0,0.0
1609046898546088000,173,1609046898546088000,-2.08147183503,-1.72014277615,2.79726989476,0.999932223249,0.00860533097101,-0.00135635356926,0.00772382624004,0.0712822125787,-0.935810742018,0.067274747108,0.0,0.0,0.0
1609046898646059000,174,1609046898646059000,-2.07840300546,-1.8308729682,2.79552831046,0.999827804885,0.00917518281213,6.55957597127e-05,0.0161298573181,0.0958474098037,-0.905860283784,0.0875154116755,0.0,0.0,0.0
1609046898746114000,175,1609046898746114000,-2.06753647827,-1.91529942217,2.80464236383,0.999722409301,0.00942502297677,0.00253106028679,0.0214445102058,0.113835564417,-0.848525468225,0.0869025449133,0.0,0.0,0.0
1609046898846576000,176,1609046898846576000,-2.05632413928,-1.99266324396,2.81553871912,0.999592994455,0.00963706601152,0.00444555731594,0.0264803590361,0.127734159399,-0.775201332444,0.07225716211,0.0,0.0,0.0
1609046898946593000,177,1609046898946593000,-2.03054741399,-2.06502101144,2.82123984827,0.999587246866,0.00997718529512,0.00511373692125,0.0264507347909,0.147636409447,-0.700183796032,0.064961652703,0.0,0.0,0.0
1609046899046779000,178,1609046899046779000,-2.00991210845,-2.12719230903,2.8237950671,0.999668124778,0.0100022873508,0.0071703979109,0.0226313929056,0.163552184562,-0.619859423003,0.0772553470903,0.0,0.0,0.0
1609046899146219000,179,1609046899146219000,-1.98758192923,-2.17937730444,2.82457247547,0.999762614961,0.00978968332465,0.0107390594806,0.016234174689,0.174265407212,-0.563263811289,0.0866968775068,0.0,0.0,0.0
1609046899247087000,180,1609046899247087000,-1.96745711116,-2.2319835139,2.8266588723,0.999736951515,0.00988448791438,0.0168201572302,0.0120584818956,0.17520649563,-0.520120823747,0.121038056467,0.0,0.0,0.0
1609046899346298000,181,1609046899346298000,-1.95147493147,-2.28528047485,2.84228819078,0.999675743473,0.00979881970597,0.0208079120274,0.0109280300742,0.155473761207,-0.489538281445,0.0887244597178,0.0,0.0,0.0
1609046899446310000,182,1609046899446310000,-1.92466042748,-2.32350464397,2.84972048622,0.999677125018,0.0101229798901,0.0204065128824,0.0112581182186,0.144680228085,-0.449788700506,0.0829312232355,0.0,0.0,0.0
1609046899546332000,183,1609046899546332000,-1.91606838768,-2.36917333867,2.86171810509,0.999665242084,0.0103355430252,0.0195240690893,0.0134681493182,0.129106912012,-0.417034052845,0.0833105419074,0.0,0.0,0.0
1609046899647088000,184,1609046899647088000,-1.90297256362,-2.40566717364,2.87156606033,0.999582617112,0.0105698988785,0.0194858168801,0.0185248952698,0.120003629943,-0.376810679265,0.096350704511,0.0,0.0,0.0
1609046899746432000,185,1609046899746432000,-1.88990711485,-2.43735252897,2.88165870866,0.999446393266,0.010864993449,0.0196384005046,0.0245599700713,0.108547878631,-0.313024507092,0.0831933060593,0.0,0.0,0.0
1609046899846462000,186,1609046899846462000,-1.88204250742,-2.46170173695,2.89819611456,0.999436559216,0.0109925285432,0.0175727300823,0.026399385915,0.0943823606509,-0.2410562341,0.0672195652303,0.0,0.0,0.0
1609046899946974000,187,1609046899946974000,-1.87635380253,-2.46585462343,2.91262721288,0.999684299609,0.0109639075765,0.0119604366609,0.0191844155881,0.0814088184132,-0.16297745619,0.0105823223884,0.0,0.0,0.0
1609046900046521000,188,1609046900046521000,-1.87424736826,-2.46393514921,2.90487657864,0.999934837716,0.0104571342229,0.00323380408511,0.00324209447686,0.0920841971608,-0.123479740696,0.0193680404421,0.0,0.0,0.0
1609046900146529000,189,1609046900146529000,-1.85432042553,-2.4824593106,2.88848653742,0.999921015212,0.0101266523125,-0.000560045814585,-0.00742297779221,0.125771923731,-0.123802132286,0.0192558471773,0.0,0.0,0.0
1609046900246585000,190,1609046900246585000,-1.83040397767,-2.49021626308,2.88660174539,0.99985535907,0.0101936089096,-0.00236853211245,-0.0134067644069,0.16032062189,-0.132617263002,0.00772734975778,0.0,0.0,0.0
1609046900347084000,191,1609046900347084000,-1.80732813393,-2.50203562591,2.88317708991,0.999806375057,0.0104493987189,-0.00258339119493,-0.0164726607384,0.199478198118,-0.149529644792,0.0109924977105,0.0,0.0,0.0
1609046900446629000,192,1609046900446629000,-1.78110175438,-2.521230134,2.8694870403,0.999768252002,0.0106001883827,-0.00185210071162,-0.01864532164,0.232806281942,-0.17584215425,0.00856624630734,0.0,0.0,0.0
1609046900546613000,193,1609046900546613000,-1.7612106714,-2.54879256527,2.86572277006,0.999748544022,0.0107110042151,-0.00120036190777,-0.0196642377471,0.259518575688,-0.209725613623,0.00601847169645,0.0,0.0,0.0
1609046900646649000,194,1609046900646649000,-1.73310480686,-2.57032197577,2.86725084509,0.999752078951,0.0106809557219,-0.000219242350075,-0.019535858067,0.287500331696,-0.242633814112,-0.00722604824466,0.0,0.0,0.0
1609046900746695000,195,1609046900746695000,-1.7004321362,-2.59088953383,2.86684668595,0.999772114206,0.0108792146714,5.54411426675e-05,-0.0183673425188,0.316353501795,-0.26325654259,-0.0250114121595,0.0,0.0,0.0
1609046900847051000,196,1609046900847051000,-1.66786831476,-2.61977410883,2.86046532981,0.999781715545,0.0111868407624,0.000158795227332,-0.0176451307543,0.343352093412,-0.284647156542,-0.0452685608606,0.0,0.0,0.0
1609046900946784000,197,1609046900946784000,-1.63223809536,-2.64710181418,2.85420992326,0.99981089636,0.0113379187433,0.000250636602196,-0.0157974776628,0.367650988158,-0.302184024108,-0.0474226487223,0.0,0.0,0.0
1609046901046813000,198,1609046901046813000,-1.59235316789,-2.67268257811,2.84730277788,0.999819610263,0.0116500976883,0.00185826456096,-0.0148851942994,0.397057279347,-0.310061645945,-0.0348689562309,0.0,0.0,0.0
1609046901146806000,199,1609046901146806000,-1.54646865454,-2.69305553935,2.83294785844,0.999787577514,0.0118686862937,0.00570829575009,-0.0158540056164,0.422630200505,-0.326775319987,-0.00701390428257,0.0,0.0,0.0
1609046901246843000,200,1609046901246843000,-1.49588531314,-2.70776617128,2.82128857141,0.999656966171,0.0117099321864,0.0126802185246,-0.0196987190407,0.437755956468,-0.340375348478,0.0170590556227,0.0,0.0,0.0
1609046901346837000,201,1609046901346837000,-1.45230821745,-2.74524854129,2.82782220675,0.999554834795,0.0117051308703,0.0174771160682,-0.0211582741005,0.428518381495,-0.359913461267,0.0107971786293,0.0,0.0,0.0
1609046901446909000,202,1609046901446909000,-1.40963381746,-2.7879076072,2.80750408419,0.99949207612,0.0120600606024,0.0196420487109,-0.0220076039872,0.424869201418,-0.387942519634,0.0109261222809,0.0,0.0,0.0
1609046901546971000,203,1609046901546971000,-1.372297243,-2.83375172151,2.80706576135,0.999435958267,0.0123081378191,0.0237763685711,-0.0202721326852,0.410219147425,-0.428648755062,0.0290181705444,0.0,0.0,0.0
1609046901647017000,204,1609046901647017000,-1.33747330766,-2.88392792333,2.80926591403,0.999414057831,0.0124413795358,0.0291803200087,-0.0128554272271,0.384072004427,-0.45407697107,0.0286057793426,0.0,0.0,0.0
1609046901747441000,205,1609046901747441000,-1.29522813669,-2.93466017989,2.81343411212,0.999231771993,0.0133378435293,0.0368476111339,0.000470449674988,0.353223304517,-0.461452061191,0.0652952165706,0.0,0.0,0.0
1609046901847064000,206,1609046901847064000,-1.26395531329,-2.97723936196,2.82111935437,0.998748571918,0.0139010981191,0.0455416086489,0.0152974326407,0.294131837169,-0.415834492315,0.0480935458407,0.0,0.0,0.0
1609046901947082000,207,1609046901947082000,-1.23584012964,-3.01483421421,2.83732263921,0.99845703578,0.0139641790898,0.049426039072,0.0211096202011,0.227525479233,-0.355441435376,0.0353711905884,0.0,0.0,0.0
1609046902047083000,208,1609046902047083000,-1.2143960734,-3.03662788317,2.85595646988,0.998597227885,0.0137985351369,0.0480901014787,0.0173354846504,0.156329607131,-0.280518828126,0.0263397398822,0.0,0.0,0.0
1609046902147115000,209,1609046902147115000,-1.20108666201,-3.06331220004,2.85577304183,0.999088836685,0.013321962255,0.0403932471432,0.00352240228027,0.0954867061823,-0.244548316818,-0.0072355755846,0.0,0.0,0.0
1609046902247228000,210,1609046902247228000,-1.19622550932,-3.08612079798,2.85917452673,0.999371854688,0.0130559015034,0.0323492896197,-0.00624203120917,0.0537341923357,-0.239463582126,0.0103384673619,0.0,0.0,0.0
1609046902347245000,211,1609046902347245000,-1.19285367899,-3.10621568031,2.86318162466,0.999448219279,0.0129399025676,0.0275453217599,-0.0133068084511,0.0283227738055,-0.239253205211,0.0183121613419,0.0,0.0,0.0
1609046902447447000,212,1609046902447447000,-1.19513929259,-3.11763504218,2.87817720258,0.999462864394,0.0131202691337,0.0222424309247,-0.0201771034077,0.00581591127623,-0.243449767777,0.0102477177074,0.0,0.0,0.0
1609046902547293000,213,1609046902547293000,-1.19123370374,-3.14745612027,2.87597343435,0.999472501426,0.0132260053086,0.0174557863881,-0.023980975743,0.0033437750036,-0.282729625955,0.00352270916712,0.0,0.0,0.0
1609046902647308000,214,1609046902647308000,-1.19433830847,-3.17573461735,2.88312002572,0.999486777019,0.013526050719,0.0157889004225,-0.0243708666047,0.000164649949071,-0.31976165837,0.0129929014231,0.0,0.0,0.0
1609046902747298000,215,1609046902747298000,-1.1940505505,-3.20974900511,2.88186933595,0.999500834436,0.0135780596409,0.0158495932743,-0.0237172648341,0.00351010299409,-0.354360533432,0.00820274726608,0.0,0.0,0.0
1609046902847341000,216,1609046902847341000,-1.19255159355,-3.24545321231,2.88020839069,0.999508168733,0.0137189258889,0.0165847948745,-0.0228069350919,0.00578570186713,-0.387769003152,-0.000624212750399,0.0,0.0,0.0
1609046902947468000,217,1609046902947468000,-1.19038474639,-3.28357271539,2.87570304898,0.999477898012,0.0137463148558,0.0185527309034,-0.0226001413667,0.0108968921096,-0.412870043945,-0.00827286430148,0.0,0.0,0.0
1609046903047443000,218,1609046903047443000,-1.18670486703,-3.33000363657,2.87151789655,0.999484435789,0.0138821639706,0.0235566999395,-0.016829439295,0.00677631317914,-0.446697035416,-0.0130566230334,0.0,0.0,0.0
1609046903147527000,219,1609046903147527000,-1.18832119583,-3.3792588386,2.87537074759,0.999555515353,0.0141956053161,0.0261187058903,-0.00225160399879,-0.0153424944696,-0.468223256497,-0.0390620499385,0.0,0.0,0.0
1609046903247535000,220,1609046903247535000,-1.19792483725,-3.42399438229,2.88853629401,0.999376235617,0.0149400837954,0.027764664087,0.0159077656362,-0.0430481199171,-0.440160793885,-0.0333194117057,0.0,0.0,0.0
1609046903347569000,221,1609046903347569000,-1.20695493709,-3.45897398908,2.8928893678,0.998972750436,0.0155052284454,0.02865002755,0.031499328538,-0.0698111673759,-0.365539466628,-0.0284797292498,0.0,0.0,0.0
1609046903447749000,222,1609046903447749000,-1.21668459331,-3.48214150205,2.88020144347,0.998811629657,0.0158899556665,0.0249160214763,0.0387560271978,-0.0924952765698,-0.283231392729,-0.0505081184441,0.0,0.0,0.0
1609046903547584000,223,1609046903547584000,-1.22878501755,-3.50521746145,2.87734406477,0.998634911713,0.0161128015212,0.019602821612,0.0456554500497,-0.105758009812,-0.195033187972,-0.0442684359223,0.0,0.0,0.0
1609046903647597000,224,1609046903647597000,-1.24168446265,-3.51890683786,2.8872623015,0.998175338988,0.0164770354339,0.010909855003,0.0570567700024,-0.105050958206,-0.0918709197326,-0.00894094398974,0.0,0.0,0.0
1609046903747655000,225,1609046903747655000,-1.24886261253,-3.5222965393,2.89064002952,0.997536602918,0.0170330609258,0.00652051924311,0.0677353932792,-0.0815757310331,0.0541216220443,0.0430202985542,0.0,0.0,0.0
1609046903847691000,226,1609046903847691000,-1.25850332003,-3.50624822899,2.90043471118,0.997351856442,0.0171228544297,0.00519677421467,0.0704916721768,-0.0582051126731,0.203255853162,0.0809077901098,0.0,0.0,0.0
1609046903947741000,227,1609046903947741000,-1.26163688193,-3.47919460435,2.90543796365,0.997344439294,0.0173105202958,0.005103257209,0.0705575797686,-0.0331915383365,0.350769206521,0.0750272737413,0.0,0.0,0.0
1609046904047772000,228,1609046904047772000,-1.25812712707,-3.43528132065,2.90978041271,0.997712135234,0.0173629289296,0.00494823988804,0.0651501253107,-0.00473207963002,0.493792851222,0.0555021015191,0.0,0.0,0.0
1609046904147773000,229,1609046904147773000,-1.2599293025,-3.37896372448,2.91497780491,0.99823066715,0.0172766829371,0.00553971264505,0.056624755813,0.0177723710798,0.613635649272,0.0317145328534,0.0,0.0,0.0
1609046904247757000,230,1609046904247757000,-1.25962528355,-3.30649687559,2.91559608835,0.999010656074,0.0171334575425,0.00378928079211,0.0408631256153,0.0351888035802,0.71997514537,-0.014660455983,0.0,0.0,0.0
1609046904347792000,231,1609046904347792000,-1.25665962159,-3.22430394723,2.91183992059,0.999648612271,0.0167131234128,-0.00135790017779,0.0205299683,0.0646538025709,0.77555417495,-0.0475093952214,0.0,0.0,0.0
1609046904447828000,232,1609046904447828000,-1.25306934202,-3.13473269587,2.90025245099,0.99982910551,0.0162721396876,-0.00862420466248,0.00161255678285,0.103596565422,0.804095332274,-0.0772896116429,0.0,0.0,0.0
1609046904547828000,233,1609046904547828000,-1.24019277201,-3.0587983753,2.87881414498,0.999716763749,0.0160050874826,-0.0140298528624,-0.010648600031,0.166187688496,0.791093800534,-0.0597377855146,0.0,0.0,0.0
1609046904647886000,234,1609046904647886000,-1.21644240078,-2.98620098355,2.8505611094,0.999571362896,0.016178501041,-0.0185173183275,-0.0158888484455,0.239442525873,0.749743460068,-0.0660012592122,0.0,0.0,0.0
1609046904747923000,235,1609046904747923000,-1.18637927381,-2.91149997812,2.84570356742,0.999499990591,0.0163566736766,-0.0206386245422,-0.0175007203489,0.319351545528,0.713182525801,-0.0509936628344,0.0,0.0,0.0
1609046904847908000,236,1609046904847908000,-1.15039318166,-2.84967143811,2.82556510224,0.999501687661,0.016728543448,-0.0209459897723,-0.0166672645772,0.398285591881,0.677333019913,-0.0417174797715,0.0,0.0,0.0
1609046904948003000,237,1609046904948003000,-1.10659803307,-2.78040765068,2.82182171999,0.999560048938,0.0167233278769,-0.0190120119601,-0.0154461086508,0.473539457677,0.656435105314,-0.0235762495702,0.0,0.0,0.0
1609046905048055000,238,1609046905048055000,-1.05683845751,-2.71525625594,2.81627438022,0.999623614105,0.0170775329399,-0.0152484202258,-0.0151153455792,0.538066491443,0.634771199266,-0.0241617040958,0.0,0.0,0.0
1609046905148061000,239,1609046905148061000,-1.00106957742,-2.65260395613,2.81104980373,0.999677714847,0.0174344833092,-0.0106485577714,-0.015070283601,0.590909975312,0.614766384376,-0.0302650303119,0.0,0.0,0.0
1609046905248129000,240,1609046905248129000,-0.939840259978,-2.59255816244,2.80540631629,0.999716074834,0.0176113617991,-0.00628071535636,-0.0147703171762,0.634723210333,0.593129197213,-0.0359878739284,0.0,0.0,0.0
1609046905348149000,241,1609046905348149000,-0.876090364168,-2.52949754159,2.78329162968,0.999699196671,0.0178792584943,-0.00350463851307,-0.0164184591382,0.668669736888,0.586864589385,-0.0453579146687,0.0,0.0,0.0
1609046905448125000,242,1609046905448125000,-0.807413610293,-2.46917178048,2.78538206308,0.999674652834,0.018154347432,-0.00224397373554,-0.0177756218628,0.698620343454,0.569253368329,-0.0374821062591,0.0,0.0,0.0
1609046905548158000,243,1609046905548158000,-0.736975334861,-2.41149295782,2.78712000242,0.999579499512,0.0181737153967,-0.0026334005771,-0.0224411547217,0.724184989013,0.554388008697,-0.0274720182955,0.0,0.0,0.0
1609046905648170000,244,1609046905648170000,-0.669565820896,-2.3520992276,2.77044941887,0.999404978116,0.0178682636976,-0.00353272583267,-0.0292905226542,0.755576207451,0.520888900577,-0.00612512575504,0.0,0.0,0.0
1609046905748150000,245,1609046905748150000,-0.593336367626,-2.30438738958,2.7677236062,0.999170862683,0.0182085411969,-0.00436117563806,-0.0361526809485,0.787118297847,0.47080875578,0.00282824455114,0.0,0.0,0.0
1609046905848194000,246,1609046905848194000,-0.514901811917,-2.26030837535,2.76768011906,0.999063557052,0.0182957253783,-0.00516032528319,-0.038867035483,0.820465382584,0.415935551152,0.00294949364536,0.0,0.0,0.0
1609046905948232000,247,1609046905948232000,-0.43319644341,-2.22137581384,2.76668446738,0.998940893378,0.0183030367221,-0.00580089535385,-0.0418143515604,0.851201756926,0.35662469529,0.0161342081349,0.0,0.0,0.0
1609046906048311000,248,1609046906048311000,-0.352705990434,-2.18159628127,2.75959744748,0.998881661037,0.0183337299239,-0.0065935572551,-0.0430793058691,0.883960746972,0.303831025528,0.0187858714769,0.0,0.0,0.0
1609046906148298000,249,1609046906148298000,-0.262306991916,-2.15239549873,2.76421755546,0.998768972255,0.0181053949487,-0.00728982430908,-0.0456025569032,0.919823791063,0.248465154947,0.0408325773636,0.0,0.0,0.0
1609046906248319000,250,1609046906248319000,-0.170102588426,-2.13088924639,2.76729229744,0.998559104301,0.0181776581106,-0.00778862406561,-0.0498861232959,0.953362217647,0.182873298674,0.0214432126136,0.0,0.0,0.0
1609046906348337000,251,1609046906348337000,-0.0756182783233,-2.11641999063,2.76956915186,0.99837059399,0.0182015475356,-0.00838075460453,-0.0534286783997,0.987498829306,0.108833084423,0.00274111789354,0.0,0.0,0.0
1609046906448388000,252,1609046906448388000,0.0234136955888,-2.11006012894,2.77022064214,0.998123110048,0.0181692673402,-0.00909856780918,-0.0577698102557,1.02339507232,0.0319018687821,-0.0252248401046,0.0,0.0,0.0
1609046906548403000,253,1609046906548403000,0.125418978638,-2.11426803753,2.76823462775,0.997972180094,0.0181900577627,-0.00985518662238,-0.0601957212181,1.05952605577,-0.0614765925355,-0.0140792919084,0.0,0.0,0.0
1609046906648451000,254,1609046906648451000,0.213043677121,-2.13153132934,2.77166966729,0.998269144373,0.0182728420268,-0.00971369610026,-0.055049638923,1.08485047458,-0.162729322513,-0.00609562548319,0.0,0.0,0.0
1609046906748484000,255,1609046906748484000,0.322634522844,-2.16032310675,2.77545490075,0.99897204542,0.0186072808117,-0.00862733136044,-0.040425124915,1.12078949981,-0.22929530576,-0.000912225631211,0.0,0.0,0.0
1609046906848522000,256,1609046906848522000,0.438387174364,-2.18166206429,2.77381334097,0.999283626398,0.0189924202493,-0.00444930184088,-0.0324303206826,1.15783910436,-0.252794938055,0.0338461455984,0.0,0.0,0.0
1609046906948583000,257,1609046906948583000,0.556411959933,-2.20589601675,2.77430579729,0.999382850448,0.0194553995554,0.00196647029332,-0.0291811352375,1.17687063973,-0.269181746308,0.0403823140819,0.0,0.0,0.0
1609046907048572000,258,1609046907048572000,0.675086068006,-2.23315064726,2.77661158723,0.999349675734,0.0194141757724,0.00748880934842,-0.0294488221281,1.18180846768,-0.294684670793,0.0273181077409,0.0,0.0,0.0
1609046907148591000,259,1609046907148591000,0.793017139351,-2.26724945449,2.77775411527,0.999291071964,0.019216299215,0.0153277440604,-0.0285157430019,1.17675017318,-0.320294377374,0.034669964012,0.0,0.0,0.0
1609046907248613000,260,1609046907248613000,0.912729522452,-2.30328199311,2.77945680806,0.99921003462,0.0190212945131,0.0209151077119,-0.0279294707957,1.15501107109,-0.343874145839,0.0154481300156,0.0,0.0,0.0
1609046907348693000,261,1609046907348693000,1.02599173062,-2.3391331725,2.78702304199,0.999152978965,0.0191287858319,0.0245482805486,-0.0269220374577,1.12187795857,-0.358693411936,-0.00117311643166,0.0,0.0,0.0
1609046907448697000,262,1609046907448697000,1.14571824974,-2.37658620691,2.7944117888,0.999078122397,0.0189208283104,0.0275078469325,-0.0269856621263,1.09417811216,-0.377881607112,-0.00155594589567,0.0,0.0,0.0
1609046907548735000,263,1609046907548735000,1.25177935958,-2.41654740882,2.79153950531,0.998998075018,0.0187950681566,0.0313714498771,-0.0257958069328,1.05122502273,-0.390092516418,0.0110641801213,0.0,0.0,0.0
1609046907648787000,264,1609046907648787000,1.35509544875,-2.45810233337,2.79091571774,0.998833702355,0.0187521264225,0.0388698975774,-0.0216500313248,0.998844047172,-0.404853067501,0.0457656744788,0.0,0.0,0.0
1609046907748792000,265,1609046907748792000,1.4511041591,-2.49508833142,2.80963175137,0.998566845994,0.0188026545784,0.0472238708581,-0.0167517247693,0.926952202548,-0.395763765365,0.0447313991706,0.0,0.0,0.0
1609046907848840000,266,1609046907848840000,1.53393160452,-2.53404814721,2.81819246597,0.998319006439,0.0188385976957,0.0539150359166,-0.00987104455801,0.83565095606,-0.375475329008,0.0496659578002,0.0,0.0,0.0
1609046907948863000,267,1609046907948863000,1.60946564404,-2.57362592393,2.83696527589,0.998074752301,0.0186437078751,0.0590144164782,-0.00406197285641,0.738766665451,-0.347640643664,0.0736705407246,0.0,0.0,0.0
1609046908048932000,268,1609046908048932000,1.67723440545,-2.60888327319,2.84489519867,0.997710578765,0.0187519188867,0.0649073585087,0.00300022814349,0.628838254978,-0.303092226611,0.0812547339402,0.0,0.0,0.0
1609046908148956000,269,1609046908148956000,1.73630133081,-2.63502445619,2.8576554255,0.997474097317,0.0189240190563,0.0680979484591,0.00706937769302,0.512706740072,-0.253486570176,0.0750897257545,0.0,0.0,0.0
1609046908248967000,270,1609046908248967000,1.77592056073,-2.65608227944,2.86764481586,0.997389569449,0.01879133141,0.0692109319578,0.00841305622813,0.388537929233,-0.184974574782,0.0669163271619,0.0,0.0,0.0
1609046908348968000,271,1609046908348968000,1.80517007647,-2.67075571432,2.88395947717,0.997360928488,0.0187265437382,0.0693422352817,0.0105900562641,0.26627082625,-0.128092433435,0.0878284878945,0.0,0.0,0.0
1609046908449012000,272,1609046908449012000,1.81767181083,-2.68470069467,2.8926299934,0.997322556417,0.0186800392425,0.0692030976352,0.0144812248375,0.142019273653,-0.0538145192664,0.0542470201523,0.0,0.0,0.0
1609046908549063000,273,1609046908549063000,1.81161900257,-2.68930513957,2.9031012479,0.997715193973,0.0189254853626,0.0626859712003,0.016633903131,0.0199926237374,0.0229181283565,0.0218421857903,0.0,0.0,0.0
1609046908649062000,274,1609046908649062000,1.79885474491,-2.68270694577,2.90916927487,0.99834641161,0.0192493844517,0.0506922582562,0.019083987463,-0.0833732172332,0.111309189806,-0.0400447731031,0.0,0.0,0.0
1609046908749120000,275,1609046908749120000,1.78912772937,-2.66625231647,2.90390172408,0.999197851417,0.0195865079343,0.0321551255249,0.013640759969,-0.153773804422,0.208021134555,-0.0865573837479,0.0,0.0,0.0
1609046908849102000,276,1609046908849102000,1.72585725873,-2.64398444824,2.92692038039,0.999731843359,0.0199446845767,0.0104580670375,-0.00539256574203,-0.206328443669,0.271100524047,-0.0518702827724,0.0,0.0,0.0
1609046908949134000,277,1609046908949134000,1.68280396245,-2.61684833352,2.94308645239,0.999483766148,0.0199862746032,-0.00384163120339,-0.0248594429384,-0.188736582935,0.285319861493,0.0323139064123,0.0,0.0,0.0
1609046909049147000,278,1609046909049147000,1.66284110869,-2.59394449782,2.94857773808,0.999118471937,0.0200295917759,-0.00836535817654,-0.0359320924788,-0.148464725208,0.277432816879,0.0671704221177,0.0,0.0,0.0
1609046909149185000,279,1609046909149185000,1.6519197678,-2.57269779398,2.95009559527,0.998727666656,0.0199614125051,-0.00861471067211,-0.045501391484,-0.103522312384,0.246316396937,0.0702934501576,0.0,0.0,0.0
1609046909249196000,280,1609046909249196000,1.64307426923,-2.54955258536,2.96173470165,0.998591780827,0.0200577913399,-0.00779464726695,-0.0484910687074,-0.0623361286653,0.20086241938,0.0773317093093,0.0,0.0,0.0
